[
  {
    "id": "ChIJ8-Ir3xE2aDQRe7VYwqceEkQ",
    "name": "麥當勞-新竹交大餐廳",
    "address": "300台灣新竹市東區女二舍國立交通大學B棟1F大學路1001號之",
    "region": "hsinchu_city",
    "latitude": 24.784781499999998,
    "longitude": 120.99912020000001,
    "orderLinks": [
      {
        "id": "b7a801e9-181e-4c9e-a932-91b7735c91e1",
        "platform": "官網",
        "url": "https://www.mcdonalds.com/tw/zh-tw.html"
      }
    ],
    "rating": 4,
    "phone": "03 573 4333"
  },
  {
    "id": "ChIJk5rJxR42aDQRUs45baSmRHI",
    "name": "漢堡王 Burger King 竹科店",
    "address": "300台灣新竹市東區工業東二路1號",
    "region": "hsinchu_city",
    "latitude": 24.779784799999998,
    "longitude": 121.005538,
    "orderLinks": [
      {
        "id": "0e66b8a0-a111-45f3-864b-c11290bfb92f",
        "platform": "官網",
        "url": "https://www.burgerking.com.tw/"
      }
    ],
    "rating": 4,
    "phone": "03 564 3996"
  },
  {
    "id": "ChIJixrR5xE2aDQRcSR1SqrnbRs",
    "name": "小木屋鬆餅 交大店",
    "address": "300台灣新竹市東區大學路1001號交通大學資訊技術服務中心前餐亭",
    "region": "hsinchu_city",
    "latitude": 24.7876683,
    "longitude": 120.99761310000001,
    "orderLinks": [
      {
        "id": "2fdc6a1e-dd92-4594-9460-76f1b6a902f5",
        "platform": "官網",
        "url": "https://shinemood2006.com/"
      }
    ],
    "rating": 4.4,
    "phone": "03 573 5754"
  },
  {
    "id": "ChIJ76MBfAA3aDQRi_IbQ18TJnw",
    "name": "星巴克 瑞昱門市",
    "address": "300台灣新竹市東區園區二路9號",
    "region": "hsinchu_city",
    "latitude": 24.7806554,
    "longitude": 120.99812329999997,
    "orderLinks": [],
    "rating": 4.2,
    "phone": "03 567 9882"
  },
  {
    "id": "ChIJOUiFNwQ3aDQRjdcM2Tsh48c",
    "name": "安妞韓國烤肉食堂-新竹竹科店",
    "address": "30075台灣新竹市東區工業東二路1號科技生活館1樓",
    "region": "hsinchu_city",
    "latitude": 24.7798448,
    "longitude": 121.0056449,
    "orderLinks": [
      {
        "id": "ef49d71e-57bd-4181-b19e-f9faaa1c860c",
        "platform": "inline",
        "url": "https://inline.app/booking/-MxlOnofn8Ew22KvmQpW:inline-live-2/-N5hr_1uGdyl7aNIYR5l"
      }
    ],
    "rating": 4.7,
    "phone": "03 577 1166"
  },
  {
    "id": "ChIJ1R1lGRA2aDQR0OU4Hv0sMnU",
    "name": "LALA Kitchen 交大店",
    "address": "300台灣新竹市東區大學路1001號",
    "region": "hsinchu_city",
    "latitude": 24.786283599999997,
    "longitude": 120.99969309999999,
    "orderLinks": [
      {
        "id": "59f21624-02f2-417d-83cd-13fdc37e5e13",
        "platform": "官網",
        "url": "https://www.facebook.com/NolaKitchenNCTU"
      }
    ],
    "rating": 3.8,
    "phone": "03 573 7162"
  },
  {
    "id": "ChIJEaCmPQc2aDQRU3KNyg4as2I",
    "name": "車庫町日式咖哩，丼飯",
    "address": "300台灣新竹市東區寶山路452巷8弄13號",
    "region": "hsinchu_city",
    "latitude": 24.7834315,
    "longitude": 120.98986389999997,
    "orderLinks": [
      {
        "id": "a1a615d2-6bd9-43d2-8761-a4ebc0c06444",
        "platform": "官網",
        "url": "https://www.facebook.com/%E8%BB%8A%E5%BA%AB%E7%94%BA%E6%97%A5%E5%BC%8F%E5%92%96%E5%93%A9%E4%B8%BC%E9%A3%AF-400392670359308/"
      }
    ],
    "rating": 4.2,
    "phone": "03 579 5350"
  },
  {
    "id": "ChIJO34F0_81aDQRFoGVWM8hLR4",
    "name": "雲南泰式小吃",
    "address": "300台灣新竹市東區高翠路217號",
    "region": "hsinchu_city",
    "latitude": 24.7799384,
    "longitude": 120.98697219999998,
    "orderLinks": [
      {
        "id": "7953b416-fb5d-489a-ac17-733682d526c1",
        "platform": "官網",
        "url": "https://amy77.com/blog/post/26204574"
      }
    ],
    "rating": 4.3,
    "phone": "03 668 6731"
  },
  {
    "id": "ChIJsdKBkTc3aDQRWXucR4NgusY",
    "name": "漢堡王 交大店",
    "address": "300台灣新竹市東區大學路1001號研三舍餐廳",
    "region": "hsinchu_city",
    "latitude": 24.783808999999998,
    "longitude": 120.9971564,
    "orderLinks": [
      {
        "id": "f0456e13-8dda-4f72-8500-46017215a1ad",
        "platform": "官網",
        "url": "http://www.burgerking.com.tw/"
      }
    ],
    "rating": 4.1,
    "phone": "03 575 0079"
  },
  {
    "id": "ChIJ_X-SXBk2aDQR2gweJGKLUEA",
    "name": "禾園茶館",
    "address": "300台灣新竹市東區工業東二路1號3樓",
    "region": "hsinchu_city",
    "latitude": 24.779719099999998,
    "longitude": 121.00542099999998,
    "orderLinks": [
      {
        "id": "86e45747-33dc-4589-b010-23bae8fc3f18",
        "platform": "官網",
        "url": "https://www.facebook.com/Heyuan.tea/"
      }
    ],
    "rating": 4.5,
    "phone": "03 666 2706"
  },
  {
    "id": "ChIJhw6zlas3aDQRzYz7p8GDrUo",
    "name": "安好食 寶山店",
    "address": "300台灣新竹市東區寶山路418號",
    "region": "hsinchu_city",
    "latitude": 24.7848501,
    "longitude": 120.9899493,
    "orderLinks": [
      {
        "id": "0bb02675-0483-4a04-9cbd-8a79aa27011d",
        "platform": "官網",
        "url": "https://app.eats365pos.com/tw/tc/anhao_food_treasure_mountain"
      }
    ],
    "rating": 4.8,
    "phone": "03 577 4189"
  },
  {
    "id": "ChIJiYFArvY3aDQRRNGDeggpPCk",
    "name": "Nude 裸色茶啡",
    "address": "300台灣新竹市東區創新二路7號",
    "region": "hsinchu_city",
    "latitude": 24.7791463,
    "longitude": 120.9962314,
    "orderLinks": [
      {
        "id": "66bdbcc5-be5d-4091-ab36-39c0a2b2abb0",
        "platform": "官網",
        "url": "https://www.facebook.com/nudetrendycafe/"
      }
    ],
    "rating": 4.4,
    "phone": "03 668 7691"
  },
  {
    "id": "ChIJ4WQ8CAA3aDQR-emAFviWHvs",
    "name": "義早早午餐-新竹交大店",
    "address": "300台灣新竹市東區大學路1001號研三舍",
    "region": "hsinchu_city",
    "latitude": 24.7839058,
    "longitude": 120.99730149999998,
    "orderLinks": [
      {
        "id": "b654ca1b-2a2a-40c5-aa84-a98fc6c6818d",
        "platform": "官網",
        "url": "https://www.facebook.com/eatmorning162"
      }
    ],
    "rating": 4.4,
    "phone": "03 575 1665"
  },
  {
    "id": "ChIJ-y2DwP81aDQR4EAk6ILKkHA",
    "name": "六家麵店(新竹高翠店)",
    "address": "300台灣新竹市東區高翠路255號",
    "region": "hsinchu_city",
    "latitude": 24.7793441,
    "longitude": 120.98628199999999,
    "orderLinks": [],
    "rating": 4,
    "phone": "03 578 5709"
  },
  {
    "id": "ChIJoRAKjho2aDQRyTO0-JxnIf4",
    "name": "Lim Coffee咖啡館",
    "address": "300台灣新竹市東區展業一路11號",
    "region": "hsinchu_city",
    "latitude": 24.7837075,
    "longitude": 121.0006945,
    "orderLinks": [
      {
        "id": "34610878-7395-456c-9da3-414b3cb5b26d",
        "platform": "官網",
        "url": "https://m.facebook.com/Lim-coffee-983335088378049/"
      }
    ],
    "rating": 4.5,
    "phone": "03 666 7707"
  },
  {
    "id": "ChIJz_hO70E3aDQRQ1ewGMF2lDg",
    "name": "天晟燒臘",
    "address": "300093台灣新竹市東區大學路1001-2號",
    "region": "hsinchu_city",
    "latitude": 24.784494199999997,
    "longitude": 120.99952859999998,
    "orderLinks": [],
    "rating": 4.2,
    "phone": "0910 226 721"
  },
  {
    "id": "ChIJbTgnHxA2aDQR3WiUvpbZUzk",
    "name": "國立陽明交通大學第一餐廳",
    "address": "300台灣新竹市東區大學路1001號",
    "region": "hsinchu_city",
    "latitude": 24.786524,
    "longitude": 120.9993977,
    "orderLinks": [],
    "rating": 3.8,
    "phone": "03 571 2121"
  },
  {
    "id": "ChIJK38UiQc2aDQRH_2NF9sR0EY",
    "name": "雙饗丼 新竹寶山店",
    "address": "300台灣新竹市東區寶山路430號",
    "region": "hsinchu_city",
    "latitude": 24.784720399999998,
    "longitude": 120.99010989999998,
    "orderLinks": [
      {
        "id": "6c4f7165-4bc0-4f36-9f40-834ae60f630f",
        "platform": "官網",
        "url": "https://lin.ee/loAkfyQ"
      }
    ],
    "rating": 4.1,
    "phone": "03 579 9847"
  },
  {
    "id": "ChIJl6JrUf5JaDQRGF2HXgwR8Ws",
    "name": "STARBUCKS 星巴克 (園區門市)不對外開放",
    "address": "300台灣新竹縣寶山鄉研新一路9號",
    "region": "hsinchu_city",
    "latitude": 24.7752198,
    "longitude": 120.9902335,
    "orderLinks": [
      {
        "id": "4e343ab1-caed-4cf9-93e1-90f25ebf3f8b",
        "platform": "官網",
        "url": "https://www.starbucks.com.tw/stores/storesearch.jspx?fetchStore=storehours"
      }
    ],
    "rating": 3.3,
    "phone": "03 666 2818"
  },
  {
    "id": "ChIJY6QMvPw1aDQRU5d1WnGvPRg",
    "name": "拉亞漢堡 新竹寶山",
    "address": "300台灣新竹市東區寶山路440號",
    "region": "hsinchu_city",
    "latitude": 24.7846902,
    "longitude": 120.9903403,
    "orderLinks": [
      {
        "id": "ff2d26d3-be45-4584-99c7-d3176d1627b7",
        "platform": "官網",
        "url": "https://now.laya.com.tw/table?store=64a4deabc06ca680d4ab24b6"
      }
    ],
    "rating": 3.3,
    "phone": "03 577 8839"
  },
  {
    "id": "ChIJ10olRPhJaDQRt9RVWbLiFeo",
    "name": "海水屋 寶山雙豐店",
    "address": "308台灣新竹縣寶山鄉雙豐路168號",
    "region": "hsinchu_city",
    "latitude": 24.768032100000003,
    "longitude": 120.9889537,
    "orderLinks": [
      {
        "id": "ba774f96-50b8-4aaf-9e43-f9f979ea1e39",
        "platform": "官網",
        "url": "https://www.facebook.com/hisweetwu/"
      }
    ],
    "rating": 3.9,
    "phone": "03 529 7749"
  },
  {
    "id": "ChIJe4dmNGZJaDQRB3jetIrgeNY",
    "name": "鑫山複合式餐廳｜進仔薑母鴨",
    "address": "308台灣新竹縣寶山鄉雙園路二段32號",
    "region": "hsinchu_city",
    "latitude": 24.7682945,
    "longitude": 120.99927859999998,
    "orderLinks": [
      {
        "id": "fa5043b2-1bff-479d-a104-50e7de95e50e",
        "platform": "官網",
        "url": "https://www.facebook.com/profile.php?id=100093607753716&mibextid=LQQJ4d"
      }
    ],
    "rating": 4.8,
    "phone": "0933 794 322"
  },
  {
    "id": "ChIJK3tjlv81aDQRrhSz9c_f9ho",
    "name": "孫子文牛肉麵",
    "address": "300台灣新竹市東區高翠路275號",
    "region": "hsinchu_city",
    "latitude": 24.779013,
    "longitude": 120.98591719999999,
    "orderLinks": [
      {
        "id": "2fa0841f-3fe0-4aa6-8c15-22c1eb3ebaaa",
        "platform": "官網",
        "url": "https://zh-tw.facebook.com/pages/category/Diner/%E9%87%8D%E6%85%B6%E5%AD%AB%E5%AD%90%E6%96%87%E7%89%9B%E8%82%89%E9%BA%B5-%E9%AB%98%E7%BF%A0%E5%BA%97-332508577104967/"
      }
    ],
    "rating": 4.2,
    "phone": "03 579 7098"
  },
  {
    "id": "ChIJlyob0xc3aDQR61rgFrg_pnw",
    "name": "(3/14～4/5公休 )野夫手作義式披薩(用餐請預約訂位)",
    "address": "308台灣新竹縣寶山鄉雙園路二段182巷55號",
    "region": "hsinchu_city",
    "latitude": 24.7690982,
    "longitude": 120.99448260000001,
    "orderLinks": [
      {
        "id": "d32cf1cd-05fc-4421-b554-d62824b92ca3",
        "platform": "官網",
        "url": "https://www.facebook.com/savagehouse0857/"
      }
    ],
    "rating": 4.8,
    "phone": "0978 651 732"
  },
  {
    "id": "ChIJW71nMwA1aDQRSOswKt0ecxc",
    "name": "小牛比較懶牛肉麵",
    "address": "300台灣新竹市東區高翠路267號",
    "region": "hsinchu_city",
    "latitude": 24.779197999999997,
    "longitude": 120.98611969999999,
    "orderLinks": [
      {
        "id": "8813b38a-2fa6-4937-a8d0-811b6c4bbf1a",
        "platform": "官網",
        "url": "https://www.facebook.com/share/P5F5qMWBuC2ZVxH1/?mibextid=qi2Omg"
      }
    ],
    "rating": 4.7,
    "phone": "03 579 9799"
  },
  {
    "id": "ChIJtcpfxUpJaDQR130S8WNvSSg",
    "name": "麥味登雙豐店",
    "address": "308台灣新竹縣寶山鄉雙豐路170號",
    "region": "hsinchu_city",
    "latitude": 24.7678053,
    "longitude": 120.98861219999998,
    "orderLinks": [
      {
        "id": "f51cc0ce-b178-487a-8d7b-c5bae900027c",
        "platform": "官網",
        "url": "https://www.facebook.com/profile.php?id=61553680222718&mibextid=LQQJ4d"
      }
    ],
    "rating": 4.5,
    "phone": "0938 876 170"
  },
  {
    "id": "ChIJB5J3ngA2aDQR1S75vvpl_Cc",
    "name": "阿信快餐便當",
    "address": "300台灣新竹市東區高翠路171號",
    "region": "hsinchu_city",
    "latitude": 24.781006299999998,
    "longitude": 120.98775429999999,
    "orderLinks": [],
    "rating": 4.4,
    "phone": "03 563 5996"
  },
  {
    "id": "ChIJnZ6SoQA2aDQRA5pm7Mf0IU0",
    "name": "盛美平價快炒",
    "address": "300台灣新竹市東區高翠路151號300號",
    "region": "hsinchu_city",
    "latitude": 24.7813956,
    "longitude": 120.98796569999999,
    "orderLinks": [],
    "rating": 4.4,
    "phone": "0912 235 320"
  },
  {
    "id": "ChIJqVJmniE1aDQRA8vVQJHpaok",
    "name": "輝 手作煎餃",
    "address": "300台灣新竹市東區高翠路191號",
    "region": "hsinchu_city",
    "latitude": 24.7806732,
    "longitude": 120.98762740000001,
    "orderLinks": [],
    "rating": 4.9,
    "phone": "0928 577 249"
  },
  {
    "id": "ChIJA5kiogE2aDQRK5i4pgylbAg",
    "name": "星巴克 研新門市 - 限台積員工",
    "address": "300台灣新竹縣寶山鄉研新二路6號",
    "region": "hsinchu_city",
    "latitude": 24.778514899999998,
    "longitude": 120.9916583,
    "orderLinks": [
      {
        "id": "601418aa-f409-4a4c-bf33-adb867519c47",
        "platform": "官網",
        "url": "https://www.starbucks.com.tw/"
      }
    ],
    "rating": 3.6,
    "phone": "03 578 5032"
  },
  {
    "id": "ChIJF7xNU1xJaDQRQKv2WB8am2c",
    "name": "鑫山複合式KTV（2F）",
    "address": "308台灣新竹縣寶山鄉雙園路二段32號2樓",
    "region": "hsinchu_city",
    "latitude": 24.768459999999997,
    "longitude": 120.998912,
    "orderLinks": [],
    "rating": 4.7,
    "phone": "0981 477 785"
  },
  {
    "id": "ChIJTXBwqQRJaDQR232sM9GkPSQ",
    "name": "STARBUCKS 星巴克 (台積電5門市)",
    "address": "308台灣新竹縣寶山鄉園區三路121號",
    "region": "hsinchu_city",
    "latitude": 24.774071,
    "longitude": 120.9979912,
    "orderLinks": [
      {
        "id": "4e7dfd56-71ec-4a3c-b37f-d1822baecc2e",
        "platform": "官網",
        "url": "https://www.starbucks.com.tw/"
      }
    ],
    "rating": 2.7,
    "phone": "03 578 4754"
  },
  {
    "id": "ChIJxZF9PtBJaDQRjmmMNDSsSoU",
    "name": "Ks’ house",
    "address": "308台灣新竹縣寶山鄉雙園路二段182巷39號",
    "region": "hsinchu_city",
    "latitude": 24.7686673,
    "longitude": 120.99461380000001,
    "orderLinks": [],
    "rating": 4.2,
    "phone": "03 520 1988"
  },
  {
    "id": "ChIJacKTd6JLaDQRZcVp3hBDmLE",
    "name": "橙爺雞排-新竹店",
    "address": "300台灣新竹市東區高翠路319號",
    "region": "hsinchu_city",
    "latitude": 24.778071,
    "longitude": 120.9847338,
    "orderLinks": [
      {
        "id": "ce91eed5-33b1-4bc3-b43e-6e90d5844745",
        "platform": "官網",
        "url": "https://www.facebook.com/profile.php?id=61551438960279"
      }
    ],
    "rating": 4.1,
    "phone": "0905 667 975"
  },
  {
    "id": "ChIJI2-EmwA2aDQRYpJWBICgb-I",
    "name": "8+8 早餐坊（高翠路175號）",
    "address": "300台灣新竹市東區高翠路175號",
    "region": "hsinchu_city",
    "latitude": 24.7808782,
    "longitude": 120.98771769999999,
    "orderLinks": [],
    "rating": 3.9,
    "phone": "03 577 8778"
  },
  {
    "id": "ChIJP3iqhgBKaDQR-_NoLxFsKro",
    "name": "沅滷味",
    "address": "300台灣新竹市東區高翠路333號",
    "region": "hsinchu_city",
    "latitude": 24.7777708,
    "longitude": 120.9843978,
    "orderLinks": [],
    "rating": 4.5,
    "phone": "0987 382 800"
  },
  {
    "id": "ChIJ7eH-gQBKaDQRJRLyAy_BAio",
    "name": "美美麵‧飯食館",
    "address": "300台灣新竹市東區高翠路330號",
    "region": "hsinchu_city",
    "latitude": 24.7781761,
    "longitude": 120.98443729999998,
    "orderLinks": [
      {
        "id": "a8193ef6-eb30-46a7-ac96-dc9cb03ac38d",
        "platform": "官網",
        "url": "https://lin.ee/LBcy47R"
      }
    ],
    "rating": 4,
    "phone": "03 562 3288"
  },
  {
    "id": "ChIJjRhrM-ZLaDQRaL2_jbk78sE",
    "name": "功夫茶 KUNGFUTEA 新竹高翠店",
    "address": "300台灣新竹市東區高翠路373號",
    "region": "hsinchu_city",
    "latitude": 24.777222,
    "longitude": 120.98365510000001,
    "orderLinks": [
      {
        "id": "1fcf1969-9cfd-4e78-8338-bd96d3e19fd2",
        "platform": "官網",
        "url": "https://lin.ee/vtplI47"
      }
    ],
    "rating": 4.8,
    "phone": "03 564 5588"
  },
  {
    "id": "ChIJzwkaiU83aDQRrTLvSAiuABw",
    "name": "SUBWAY-新竹交大店",
    "address": "300台灣新竹市東區大學路1001號",
    "region": "hsinchu_city",
    "latitude": 24.7892323,
    "longitude": 120.9969874,
    "orderLinks": [
      {
        "id": "a8d3a24e-dc84-4d68-aca9-143d50418e3a",
        "platform": "官網",
        "url": "https://subway.com.tw/"
      }
    ],
    "rating": 3.3,
    "phone": "03 572 8798"
  },
  {
    "id": "ChIJeXozo_dJaDQRi4nLpChxHDU",
    "name": "老復興飲食店",
    "address": "308台灣新竹縣寶山鄉雙園路二段359號",
    "region": "hsinchu_city",
    "latitude": 24.7646057,
    "longitude": 120.9898604,
    "orderLinks": [],
    "rating": 4.3,
    "phone": "03 520 1237"
  },
  {
    "id": "ChIJL35glSZKaDQRMdk7N84FAR4",
    "name": "鑫園客家菜餐廳",
    "address": "308台灣新竹縣寶山鄉湳坑路二段130號308",
    "region": "hsinchu_city",
    "latitude": 24.764129,
    "longitude": 120.98974399999999,
    "orderLinks": [
      {
        "id": "6c5bb04a-ff99-42bb-89b3-fcd0577aac93",
        "platform": "官網",
        "url": "https://www.facebook.com/mylove035203706"
      }
    ],
    "rating": 4.2,
    "phone": "03 520 3706"
  },
  {
    "id": "ChIJ-6h7sKdJaDQRUg45gzeh7pA",
    "name": "三本柱薑母鴨x鮮蚵放題 竹科店｜東石鮮蚵｜烤蚵推薦｜新竹必吃｜在地美食｜特色小吃｜秘製烤雞｜台式快炒｜竹科聚會餐廳",
    "address": "308005台灣新竹縣寶山鄉湳坑路二段121巷11號",
    "region": "hsinchu_city",
    "latitude": 24.763390899999997,
    "longitude": 120.98946079999999,
    "orderLinks": [
      {
        "id": "2c4a9146-33dc-49ac-8a91-86b40e5424ea",
        "platform": "官網",
        "url": "https://www.facebook.com/share/NGhstnmfZDKXsLtz/?mibextid=LQQJ4d"
      }
    ],
    "rating": 4.3,
    "phone": "03 520 5209"
  },
  {
    "id": "ChIJgeM8ZR1KaDQRd3ZqnsrYQ_E",
    "name": "佳禾日式炭燒JIAHE(預約優先制)",
    "address": "308台灣新竹縣寶山鄉明湖路57號",
    "region": "hsinchu_city",
    "latitude": 24.764660499999998,
    "longitude": 120.9872098,
    "orderLinks": [],
    "rating": 4.4,
    "phone": "03 520 0660"
  },
  {
    "id": "ChIJr86JnPdJaDQRcNKHSZsX4x0",
    "name": "葉阿姨蔥油餅麵缐糊(廟旁邊)",
    "address": "308台灣新竹縣寶山鄉雙豐路3號",
    "region": "hsinchu_city",
    "latitude": 24.7653681,
    "longitude": 120.9901865,
    "orderLinks": [],
    "rating": 4.5,
    "phone": "0930 098 948"
  },
  {
    "id": "ChIJn_dp-fBJaDQReAvFZbfDiK4",
    "name": "台北江麻辣臭豆腐專賣舖 寶山店",
    "address": "30841台灣新竹縣寶山鄉湳坑路二段121巷1號",
    "region": "hsinchu_city",
    "latitude": 24.7637885,
    "longitude": 120.9895627,
    "orderLinks": [
      {
        "id": "ba16468d-035a-4198-8b8b-a112735ed832",
        "platform": "官網",
        "url": "https://taibeijiang.weebly.com/"
      }
    ],
    "rating": 4.5,
    "phone": "0966 221 298"
  },
  {
    "id": "ChIJdza2palLaDQRR9c0P77T5HE",
    "name": "新寶水煎包",
    "address": "308台灣新竹縣寶山鄉環北路303號",
    "region": "hsinchu_city",
    "latitude": 24.767293499999997,
    "longitude": 120.9843726,
    "orderLinks": [],
    "rating": 4.6,
    "phone": "0984 287 350"
  },
  {
    "id": "ChIJ3-DEIwBJaDQRVzutIaORmkw",
    "name": "米撰雞腿壩王寶山店/池上便當/寶山排隊美食/竹科外送便當/園區外送便當/好吃會議便當/客製活動餐盒/新竹外送午晚餐/新竹排隊便當/來店消費可享免費停車",
    "address": "308台灣新竹縣寶山鄉湳坑路二段121巷15號",
    "region": "hsinchu_city",
    "latitude": 24.763149199999997,
    "longitude": 120.9893962,
    "orderLinks": [
      {
        "id": "e4f0e2a7-9481-4ccb-bc42-431aada12568",
        "platform": "官網",
        "url": "https://lin.ee/8G6JnQUA"
      }
    ],
    "rating": 4.5,
    "phone": "0963 513 150"
  },
  {
    "id": "ChIJ5eNfnPdJaDQRqCZvZPUrfRc",
    "name": "寶山廟口香雞排",
    "address": "308台灣新竹縣寶山鄉雙豐路4號",
    "region": "hsinchu_city",
    "latitude": 24.765302499999997,
    "longitude": 120.99018199999999,
    "orderLinks": [],
    "rating": 4.4,
    "phone": "03 520 6346"
  },
  {
    "id": "ChIJlaisFKdJaDQRyBPeugZvwpg",
    "name": "金正好吃-寶山店",
    "address": "308台灣新竹縣寶山鄉雙園路二段372號",
    "region": "hsinchu_city",
    "latitude": 24.764517599999998,
    "longitude": 120.9894003,
    "orderLinks": [],
    "rating": 3.2,
    "phone": "03 520 7733"
  },
  {
    "id": "ChIJf-tJyfdJaDQRS8oBabB5T9Y",
    "name": "大堂牛肉麵",
    "address": "308台灣新竹縣寶山鄉雙園路二段398號",
    "region": "hsinchu_city",
    "latitude": 24.764199299999998,
    "longitude": 120.9886292,
    "orderLinks": [],
    "rating": 3.9,
    "phone": "0912 603 373"
  },
  {
    "id": "ChIJEYEcmwBKaDQRDPC97J4Y_l0",
    "name": "高翠快餐便當店",
    "address": "308台灣新竹縣寶山鄉湳坑路二段121巷5號",
    "region": "hsinchu_city",
    "latitude": 24.763607699999998,
    "longitude": 120.98955360000001,
    "orderLinks": [
      {
        "id": "a7b4edd0-e41f-4c2a-88ba-66351799ceb9",
        "platform": "官網",
        "url": "http://www.facebook.com/%E9%AB%98%E5%B3%B0%E5%BF%AB%E9%A4%90%E5%8E%9F%E9%AB%98%E5%B3%B0%E6%B3%B0%E5%BC%8F%E6%96%99%E7%90%86-942987065736709/"
      }
    ],
    "rating": 4,
    "phone": "0906 313 772"
  },
  {
    "id": "ChIJp8LEC-NJaDQRZJSGxR2BFHM",
    "name": "雙醬咖哩雙溪店",
    "address": "308台灣新竹縣寶山鄉雙園路二段410號1樓",
    "region": "hsinchu_city",
    "latitude": 24.764014099999997,
    "longitude": 120.98846169999999,
    "orderLinks": [],
    "rating": 4.7,
    "phone": "03 529 0139"
  },
  {
    "id": "ChIJgz6aKfZJaDQRLicClbH9wzQ",
    "name": "胖老爹美式炸雞 新竹寶山店",
    "address": "308台灣新竹縣寶山鄉寶新路一段12號",
    "region": "hsinchu_city",
    "latitude": 24.7636844,
    "longitude": 120.98769899999999,
    "orderLinks": [],
    "rating": 3.4,
    "phone": "03 520 2242"
  },
  {
    "id": "ChIJM7b5WYJLaDQR8R8LcczJyPg",
    "name": "10 種香料印度餐車 | 10 Spices Indian Food Truck",
    "address": "No, No. 55明湖路寶山鄉新竹縣台灣 308",
    "region": "hsinchu_city",
    "latitude": 24.764597,
    "longitude": 120.98725499999999,
    "orderLinks": [],
    "rating": 4.5,
    "phone": "03 520 0660"
  },
  {
    "id": "ChIJt7OF_MNJaDQRUHdp8Z-DNAg",
    "name": "一衖麵",
    "address": "308台灣新竹縣寶山鄉雙園路一段2巷18弄1衖3號",
    "region": "hsinchu_city",
    "latitude": 24.7708534,
    "longitude": 121.0044382,
    "orderLinks": [],
    "rating": 4.4,
    "phone": "0963 518 036"
  },
  {
    "id": "ChIJy7I_vBg3aDQRnTyiDdv3Is0",
    "name": "八方雲集-新竹科館店",
    "address": "30075台灣新竹市東區工業東二路1號",
    "region": "hsinchu_city",
    "latitude": 24.7796931,
    "longitude": 121.005437,
    "orderLinks": [
      {
        "id": "fa79ec90-c8d7-46e6-8628-58baa8ac1b86",
        "platform": "官網",
        "url": "https://www.8way.com.tw/"
      }
    ],
    "rating": 3.2,
    "phone": "03 579 8665"
  },
  {
    "id": "ChIJWy4n6PlJaDQRIJWXs9yU_lM",
    "name": "新寶早餐店 水煎包專賣 - 寶山店",
    "address": "308台灣新竹縣寶山鄉雙園路一段2巷11號",
    "region": "hsinchu_city",
    "latitude": 24.7706837,
    "longitude": 121.00498320000001,
    "orderLinks": [
      {
        "id": "9f277a5c-62b6-43be-bf69-b0f33cbaf9ac",
        "platform": "官網",
        "url": "https://www.facebook.com/Xinbao2/"
      }
    ],
    "rating": 3.9,
    "phone": "03 666 9886"
  },
  {
    "id": "ChIJT3OInnE3aDQRaoK2bk4xQ4w",
    "name": "星巴克 GRC門市",
    "address": "300台灣新竹市東區工業東三路1號",
    "region": "hsinchu_city",
    "latitude": 24.7766722,
    "longitude": 121.007719,
    "orderLinks": [],
    "rating": 4.4,
    "phone": "03 668 7183"
  },
  {
    "id": "ChIJJ8EnqxE3aDQRqCqdVHfpaIU",
    "name": "雙饗丼、鐵板饄竹科店",
    "address": "308台灣新竹縣寶山鄉雙園路一段2巷2號",
    "region": "hsinchu_city",
    "latitude": 24.770774199999998,
    "longitude": 121.00535359999999,
    "orderLinks": [],
    "rating": 3.5,
    "phone": "0920 615 999"
  },
  {
    "id": "ChIJOzIBRRk2aDQRfrEkN8GhbF8",
    "name": "露米亞歐法餐廳",
    "address": "300台灣新竹市東區工業東二路1號3樓",
    "region": "hsinchu_city",
    "latitude": 24.7797591,
    "longitude": 121.00566880000001,
    "orderLinks": [
      {
        "id": "9b00c125-6d52-413d-beb9-3d220c7e7da9",
        "platform": "官網",
        "url": "http://www.facebook.com/LUMIERE.french.restaurant/"
      }
    ],
    "rating": 4.4,
    "phone": "03 563 1213"
  },
  {
    "id": "ChIJSfCPlxFJaDQR-REuB6Z71-8",
    "name": "台灣光罩員工餐廳",
    "address": "308台灣新竹縣寶山鄉創新一路11號",
    "region": "hsinchu_city",
    "latitude": 24.774883,
    "longitude": 120.998159,
    "orderLinks": [],
    "rating": 4,
    "phone": null
  },
  {
    "id": "ChIJw3yGwes3aDQRTaFMjXmE_8o",
    "name": "米諾瓦咖啡｜Minerva Café 晶豪科門市",
    "address": "300台灣新竹市東區工業東四路23號",
    "region": "hsinchu_city",
    "latitude": 24.774535399999998,
    "longitude": 121.0089575,
    "orderLinks": [
      {
        "id": "143b19a7-6149-4ee4-867f-880cf8f8fee8",
        "platform": "官網",
        "url": "http://minerva-cafe.com.tw/"
      }
    ],
    "rating": 4.1,
    "phone": "03 666 8117"
  },
  {
    "id": "ChIJx7T--fpJaDQRs631DZePThU",
    "name": "早餐屋",
    "address": "308台灣新竹縣寶山鄉雙園一街1號",
    "region": "hsinchu_city",
    "latitude": 24.7666936,
    "longitude": 120.9966164,
    "orderLinks": [],
    "rating": 4,
    "phone": "03 529 6663"
  },
  {
    "id": "ChIJxSPSOQA3aDQRL8ijOeNkob0",
    "name": "漢堡王 Burger King 新竹瑞昱店",
    "address": "300台灣新竹市東區園區二路9號",
    "region": "hsinchu_city",
    "latitude": 24.7803839,
    "longitude": 120.99818099999999,
    "orderLinks": [
      {
        "id": "849c8995-6a0e-465d-9b02-c7141112ce08",
        "platform": "官網",
        "url": "https://www.burgerking.com.tw/"
      }
    ],
    "rating": 5,
    "phone": "03 563 8018"
  },
  {
    "id": "ChIJscQdTQBJaDQRNrDgLZMFMDU",
    "name": "葫蘆肚小吃",
    "address": "308台灣新竹縣寶山鄉雙溪村",
    "region": "hsinchu_city",
    "latitude": 24.7665915,
    "longitude": 120.9961431,
    "orderLinks": [],
    "rating": 4.7,
    "phone": "0910 156 149"
  },
  {
    "id": "ChIJoVxJluA1aDQRHY63emw8_Qw",
    "name": "沐嵐 · Moonlight",
    "address": "300台灣新竹市東區西大路240號",
    "region": "hsinchu_city",
    "latitude": 24.7984737,
    "longitude": 120.9684659,
    "orderLinks": [
      {
        "id": "460eda13-94f9-432e-a6ac-92a8a2927645",
        "platform": "官網",
        "url": "https://www.facebook.com/profile.php?id=100063921677920"
      }
    ],
    "rating": 4.4,
    "phone": "0977 053 998"
  },
  {
    "id": "ChIJi8wdhOw1aDQR-wdES8TzUTE",
    "name": "石家魚丸",
    "address": "300台灣新竹市东区兴学街27號2９號",
    "region": "hsinchu_city",
    "latitude": 24.797790199999998,
    "longitude": 120.96785919999998,
    "orderLinks": [
      {
        "id": "aeda353d-2f4d-487c-90eb-8f17c199700c",
        "platform": "官網",
        "url": "https://sfishball.com.tw/"
      }
    ],
    "rating": 4.2,
    "phone": "03 524 2965"
  },
  {
    "id": "ChIJc2x47-41aDQRGRyXzAS-6w4",
    "name": "麥當勞-新竹食品餐廳",
    "address": "300台灣新竹市東區食品路228號",
    "region": "hsinchu_city",
    "latitude": 24.7950926,
    "longitude": 120.972557,
    "orderLinks": [
      {
        "id": "89490a98-c0c2-4f87-b4cc-21d6174134c4",
        "platform": "官網",
        "url": "https://www.mcdonalds.com/tw/zh-tw.html"
      }
    ],
    "rating": 4,
    "phone": "03 562 6201"
  },
  {
    "id": "ChIJIcZk3Og1aDQRdJsrA8DdVxU",
    "name": "小鵲幸 車輪餅 - 新竹東南 起家店",
    "address": "300台灣新竹市東區東南街118號",
    "region": "hsinchu_city",
    "latitude": 24.797784,
    "longitude": 120.97397099999998,
    "orderLinks": [
      {
        "id": "80b1e6af-9628-472c-918f-9a80a1599b0b",
        "platform": "官網",
        "url": "https://m.facebook.com/alittlehappinesscake"
      }
    ],
    "rating": 4.4,
    "phone": "0968 825 608"
  },
  {
    "id": "ChIJGXRRUeY1aDQRSRZx8N61PWM",
    "name": "每天都要吃早餐",
    "address": "300台灣新竹市東區東山街85號",
    "region": "hsinchu_city",
    "latitude": 24.7976983,
    "longitude": 120.97855759999999,
    "orderLinks": [
      {
        "id": "e206434e-b9a2-4954-a603-3ecb9abbd258",
        "platform": "官網",
        "url": "https://www.facebook.com/frogfishhouse/"
      }
    ],
    "rating": 4.3,
    "phone": "03 575 0393"
  },
  {
    "id": "ChIJjao5u-I1aDQRS05YLtXGgXU",
    "name": "新築窟（蔬食）",
    "address": "300台灣新竹市東區南大路166號",
    "region": "hsinchu_city",
    "latitude": 24.800979400000003,
    "longitude": 120.9747396,
    "orderLinks": [
      {
        "id": "ec554f3b-c864-4b43-81cc-5befe4ca1719",
        "platform": "官網",
        "url": "https://oohchacha.net/"
      }
    ],
    "rating": 4.6,
    "phone": "03 562 3005"
  },
  {
    "id": "ChIJdcmEgJ01aDQRYaYnPKu3ONQ",
    "name": "陶板屋 新竹食品店",
    "address": "300台灣新竹市东区食品路305-1號2F",
    "region": "hsinchu_city",
    "latitude": 24.7946699,
    "longitude": 120.97288719999999,
    "orderLinks": [
      {
        "id": "ae6d2174-5481-4776-9f54-0e05b804952c",
        "platform": "官網",
        "url": "https://www.tokiya.com.tw/"
      }
    ],
    "rating": 4.7,
    "phone": "03 561 7168"
  },
  {
    "id": "ChIJ9e6ChgQ1aDQRf24OfsMpnz8",
    "name": "竹美港式茶餐廳 學府店(沒有訂位服務)",
    "address": "300台灣新竹市東區學府路73號",
    "region": "hsinchu_city",
    "latitude": 24.7947709,
    "longitude": 120.9781473,
    "orderLinks": [
      {
        "id": "49658851-2ced-4b2c-8157-9a53820528e3",
        "platform": "官網",
        "url": "https://www.facebook.com/Chumei03"
      }
    ],
    "rating": 4.8,
    "phone": "03 516 0189"
  },
  {
    "id": "ChIJXTIi5-k1aDQR3GLsy69Gx5g",
    "name": "田記烤鴨",
    "address": "30062台灣新竹市東區食品路416號",
    "region": "hsinchu_city",
    "latitude": 24.7938543,
    "longitude": 120.96807129999998,
    "orderLinks": [],
    "rating": 3.8,
    "phone": "03 562 2082"
  },
  {
    "id": "ChIJZ93aQGU1aDQR8CUD11D7p5I",
    "name": "斜角古早味綿綿冰（紅豆湯、燒仙草）",
    "address": "300台灣新竹市東區南大路393號",
    "region": "hsinchu_city",
    "latitude": 24.7966017,
    "longitude": 120.96824509999999,
    "orderLinks": [
      {
        "id": "f14f6654-05bc-4632-955b-c2ed45ed392f",
        "platform": "官網",
        "url": "https://instagram.com/obliqueangle_ice?utm_medium=copy_link"
      }
    ],
    "rating": 4.8,
    "phone": "03 562 1212"
  },
  {
    "id": "ChIJ6Zt5Y481aDQRG8mZ-cJZxMM",
    "name": "太空總薯-韓式2號店",
    "address": "300台灣新竹市東區食品路134巷1號",
    "region": "hsinchu_city",
    "latitude": 24.797800799999997,
    "longitude": 120.9770318,
    "orderLinks": [
      {
        "id": "e3a14ec5-0dfc-4dc4-9bef-35927d60ac68",
        "platform": "官網",
        "url": "https://space-potato.com/chillspace02/"
      }
    ],
    "rating": 4.5,
    "phone": "03 562 9981"
  },
  {
    "id": "ChIJlVNAE141aDQREbYAaPPmb7k",
    "name": "星巴克 新竹動物園門市",
    "address": "300台灣新竹市東區博愛街111號1樓、2樓",
    "region": "hsinchu_city",
    "latitude": 24.800134999999997,
    "longitude": 120.97919449999999,
    "orderLinks": [
      {
        "id": "949231b5-569c-4b36-81cf-2676bfe8cf3c",
        "platform": "官網",
        "url": "http://www.starbucks.com.tw/"
      }
    ],
    "rating": 4.5,
    "phone": "03 561 9940"
  },
  {
    "id": "ChIJL7QPnzU1aDQRicUeA--NAX0",
    "name": "福徠鴨新台式烤鴨Fu DUCK IN",
    "address": "300台灣新竹市東區西大路74號",
    "region": "hsinchu_city",
    "latitude": 24.795923,
    "longitude": 120.971375,
    "orderLinks": [
      {
        "id": "1ce2eb00-dbe1-45cc-95b1-0ef4a35235a6",
        "platform": "官網",
        "url": "https://www.facebook.com/profile.php?id=100090528368797&mibextid=LQQJ4d"
      }
    ],
    "rating": 4.7,
    "phone": "03 562 6208"
  },
  {
    "id": "ChIJQ4a1ouY1aDQROl6yOqnEOAk",
    "name": "阿婆早餐麵店",
    "address": "300台灣新竹市東區東山街6號",
    "region": "hsinchu_city",
    "latitude": 24.7957423,
    "longitude": 120.9804408,
    "orderLinks": [
      {
        "id": "47861a4d-f4e5-4b24-aa86-79966d6a3711",
        "platform": "官網",
        "url": "https://www.facebook.com/%E9%98%BF%E5%A9%86%E6%97%A9%E9%A4%90%E9%BA%B5%E5%BA%97-136808669740035/"
      }
    ],
    "rating": 4.1,
    "phone": "03 573 0765"
  },
  {
    "id": "ChIJ_7fcdME1aDQRWtEib01QRiM",
    "name": "麥當勞-新竹南大餐廳",
    "address": "300台灣新竹市東區南大路337號1樓",
    "region": "hsinchu_city",
    "latitude": 24.7975607,
    "longitude": 120.96976639999998,
    "orderLinks": [
      {
        "id": "ec9f78df-754b-4072-8da4-0a879b7c0e88",
        "platform": "官網",
        "url": "https://www.mcdonalds.com/tw/zh-tw.html"
      }
    ],
    "rating": 3.9,
    "phone": "03 561 0742"
  },
  {
    "id": "ChIJC3sUquk1aDQRNG-5KpPLCY4",
    "name": "六扇門時尚湯鍋 新竹東南店",
    "address": "300台灣新竹市東區東南街55號",
    "region": "hsinchu_city",
    "latitude": 24.7994433,
    "longitude": 120.9730098,
    "orderLinks": [
      {
        "id": "c8e9239b-571c-48ba-8f21-68869da6617f",
        "platform": "官網",
        "url": "https://www.facebook.com/%E5%85%AD%E6%89%87%E9%96%80%E6%99%82%E5%B0%9A%E6%B9%AF%E9%8D%8B-%E6%96%B0%E7%AB%B9%E6%9D%B1%E5%8D%97%E5%BA%97-118580048759570/?fref=ts"
      }
    ],
    "rating": 4,
    "phone": "03 562 3111"
  },
  {
    "id": "ChIJRaoIx901aDQRhhAjzab5Kjs",
    "name": "億品鍋-新竹食品店",
    "address": "300台灣新竹市東區食品路262號",
    "region": "hsinchu_city",
    "latitude": 24.7944326,
    "longitude": 120.9717101,
    "orderLinks": [],
    "rating": 4.6,
    "phone": "03 562 0262"
  },
  {
    "id": "ChIJG9E4koA1aDQR8rDCdDVbitk",
    "name": "TWINS 廚房 正宗西藏青海羊排炕鍋",
    "address": "300台灣新竹市東區南大路107號",
    "region": "hsinchu_city",
    "latitude": 24.8012668,
    "longitude": 120.97574689999999,
    "orderLinks": [
      {
        "id": "fa6622e8-8117-476d-9f20-16bb17283f3a",
        "platform": "官網",
        "url": "https://www.facebook.com/TWINS-%E5%BB%9A%E6%88%BF-%E6%AD%A3%E5%AE%97%E8%A5%BF%E8%97%8F%E9%9D%92%E6%B5%B7%E7%BE%8A%E6%8E%92%E7%82%95%E9%8D%8B-411997322666815/"
      }
    ],
    "rating": 4.4,
    "phone": "0938 625 718"
  },
  {
    "id": "ChIJ4TBgje81aDQRhT5GgrTaF7Q",
    "name": "皇膳湯包 寶山店",
    "address": "300台灣新竹市東區寶山路128號",
    "region": "hsinchu_city",
    "latitude": 24.7924013,
    "longitude": 120.97511909999999,
    "orderLinks": [
      {
        "id": "649027c1-8d25-42da-ba40-bf591d2667d9",
        "platform": "官網",
        "url": "https://zh-tw.facebook.com/%E7%9A%87%E8%86%B3%E6%B9%AF%E5%8C%85-608003859225782/"
      }
    ],
    "rating": 4.4,
    "phone": "0953 622 241"
  },
  {
    "id": "ChIJ_aJ6i-U1aDQRU6l60v2Cvdg",
    "name": "東南漢堡店",
    "address": "300台灣新竹市東區東南街54號",
    "region": "hsinchu_city",
    "latitude": 24.7990116,
    "longitude": 120.9730649,
    "orderLinks": [
      {
        "id": "435b0333-7549-4f84-94e8-e4cc3bbc3957",
        "platform": "官網",
        "url": "https://www.facebook.com/%E6%9D%B1%E5%8D%97%E6%BC%A2%E5%A0%A1%E5%BA%97-155186874639390/"
      }
    ],
    "rating": 4.3,
    "phone": "03 562 3177"
  },
  {
    "id": "ChIJq2H9q4I1aDQRFEE9aMGuIvs",
    "name": "艷麗Pondok Sunny",
    "address": "300台灣新竹市東區南大路52號",
    "region": "hsinchu_city",
    "latitude": 24.802760799999998,
    "longitude": 120.977823,
    "orderLinks": [
      {
        "id": "b36911b2-f20d-40d5-8c1a-00b5ad980f00",
        "platform": "官網",
        "url": "https://www.pondok-sunny.com/"
      }
    ],
    "rating": 4.5,
    "phone": "0965 356 956"
  },
  {
    "id": "ChIJPaT0WVQ1aDQRt5rrq5IsHJ8",
    "name": "柒伍無煙燒肉",
    "address": "300台灣新竹市東區大同路23號",
    "region": "hsinchu_city",
    "latitude": 24.803180599999997,
    "longitude": 120.96967509999999,
    "orderLinks": [
      {
        "id": "05217844-efb4-40c1-9c44-0ecc8d688920",
        "platform": "官網",
        "url": "https://www.facebook.com/pages/category/Restaurant/%E6%9F%92%E4%BC%8D%E7%84%A1%E7%85%99%E7%87%92%E8%82%89-104084347787019/"
      }
    ],
    "rating": 4.9,
    "phone": "03 543 7575"
  },
  {
    "id": "ChIJ350Fswo1aDQR7AoBMbVo2tg",
    "name": "良家手工港式點心坊",
    "address": "300台灣新竹市東區花園街19號",
    "region": "hsinchu_city",
    "latitude": 24.8034714,
    "longitude": 120.9779449,
    "orderLinks": [
      {
        "id": "0d10fd43-9726-4c9d-8e84-6c3e2677c829",
        "platform": "官網",
        "url": "https://lin.ee/foem1Pw"
      }
    ],
    "rating": 4.4,
    "phone": "03 561 2818"
  },
  {
    "id": "ChIJV0TGlME1aDQRy0Kuutn6-Wc",
    "name": "好豆味冰沙豆花",
    "address": "300台灣新竹市東區勝利路20號",
    "region": "hsinchu_city",
    "latitude": 24.803296,
    "longitude": 120.97000309999999,
    "orderLinks": [
      {
        "id": "d9890d08-ac77-4ce5-81db-01d20296e211",
        "platform": "官網",
        "url": "https://www.facebook.com/DouWeiDouHuaDian/"
      }
    ],
    "rating": 4.3,
    "phone": "03 523 2860"
  },
  {
    "id": "ChIJvZU_Teo1aDQRbwKXyGAfAXA",
    "name": "原味鴨肉麵",
    "address": "300台灣新竹市東區勝利路59號",
    "region": "hsinchu_city",
    "latitude": 24.800525200000003,
    "longitude": 120.96841560000001,
    "orderLinks": [
      {
        "id": "edbcb71a-a03b-481d-9dd2-c899e246f217",
        "platform": "官網",
        "url": "https://www.facebook.com/profile.php?id=100057360411659"
      }
    ],
    "rating": 4.3,
    "phone": "03 523 4812"
  },
  {
    "id": "ChIJmSEKN8c1aDQRgY2PNGL1G4Y",
    "name": "竹東邱記排骨酥麵-新竹店",
    "address": "300台灣新竹市東區公園路270號",
    "region": "hsinchu_city",
    "latitude": 24.8031737,
    "longitude": 120.97946820000001,
    "orderLinks": [
      {
        "id": "cc7f149c-908c-4b72-a163-8cb95796e1d8",
        "platform": "官網",
        "url": "https://www.facebook.com/373781029372787/posts/3486399568110902/?extid=qGIX4B0KtmzcKYSQ&d=n"
      }
    ],
    "rating": 4,
    "phone": "03 523 3678"
  },
  {
    "id": "ChIJcSaqW-A1aDQRhWAdEK6Ygws",
    "name": "璽子牛肉麵（新竹博愛店）",
    "address": "300台灣新竹市東區博愛街31號",
    "region": "hsinchu_city",
    "latitude": 24.7974231,
    "longitude": 120.985294,
    "orderLinks": [
      {
        "id": "fd82c826-f79b-4ddb-b145-86c2c6060b9c",
        "platform": "官網",
        "url": "https://sizih2007.weebly.com/"
      }
    ],
    "rating": 4.2,
    "phone": "03 571 5959"
  },
  {
    "id": "ChIJ_7fcdME1aDQRUmPgoQZDOmY",
    "name": "麥當勞-新竹中正餐廳",
    "address": "300台灣新竹市東區中正路34號",
    "region": "hsinchu_city",
    "latitude": 24.803469699999997,
    "longitude": 120.97120249999999,
    "orderLinks": [
      {
        "id": "714edb2a-a3ec-43d3-b12a-a93845e3ba45",
        "platform": "官網",
        "url": "https://www.mcdonalds.com/tw/zh-tw.html"
      }
    ],
    "rating": 3.7,
    "phone": "03 522 0258"
  },
  {
    "id": "ChIJcbhLsOs1aDQRCOeawP2RSxo",
    "name": "刀削麵",
    "address": "300台灣新竹市東區中華路二段572號",
    "region": "hsinchu_city",
    "latitude": 24.799809900000003,
    "longitude": 120.96783789999998,
    "orderLinks": [],
    "rating": 4.3,
    "phone": "03 524 8760"
  },
  {
    "id": "ChIJ-3Eeyt01aDQRYtBEy85vrsI",
    "name": "公園黑乾麵",
    "address": "300台灣新竹市東區體育街82號",
    "region": "hsinchu_city",
    "latitude": 24.802661999999998,
    "longitude": 120.980532,
    "orderLinks": [],
    "rating": 4.1,
    "phone": "03 562 2527"
  },
  {
    "id": "ChIJBxRPBI41aDQRYs7u-Oq4Pm4",
    "name": "春室 SPRING POOL GLASS STUDIO + The POOL",
    "address": "300台灣新竹市東區東大路一段2號",
    "region": "hsinchu_city",
    "latitude": 24.801322499999998,
    "longitude": 120.9784957,
    "orderLinks": [
      {
        "id": "cb6a371b-c70c-4c83-9eb8-7ae8fce3e953",
        "platform": "官網",
        "url": "https://www.glasspoolstore.com/pages/about-springpoolglassstudio"
      }
    ],
    "rating": 4.6,
    "phone": "03 561 1039"
  },
  {
    "id": "ChIJgQJ9bqM1aDQRJcvuSbkJMcg",
    "name": "辛志平校長故居本館(前棟)",
    "address": "300台灣新竹市東區東門街32號",
    "region": "hsinchu_city",
    "latitude": 24.804337500000003,
    "longitude": 120.9739152,
    "orderLinks": [
      {
        "id": "c28227c3-9a0f-4020-bf29-638cb0f87f74",
        "platform": "官網",
        "url": "https://www.facebook.com/Hsinchiping.former.residence/"
      }
    ],
    "rating": 4.4,
    "phone": "03 522 0351"
  },
  {
    "id": "ChIJb9ONMY01aDQRyvNAwiKOhMI",
    "name": "波諾義大利料理 新竹",
    "address": "300台灣新竹市東區南大路525號",
    "region": "hsinchu_city",
    "latitude": 24.791772700000003,
    "longitude": 120.96458659999999,
    "orderLinks": [
      {
        "id": "95f20eab-8f08-447c-9202-070c3c2bc28b",
        "platform": "官網",
        "url": "http://buonobella.com/"
      }
    ],
    "rating": 4.2,
    "phone": "03 561 1172"
  },
  {
    "id": "ChIJC9VFWO81aDQRvPDb8uKg9Tw",
    "name": "Mountain House 山房吐司料理 (不接受訂位）",
    "address": "300台灣新竹市東區東南街245號",
    "region": "hsinchu_city",
    "latitude": 24.795131100000003,
    "longitude": 120.97611289999998,
    "orderLinks": [
      {
        "id": "c852eb4e-cfe1-4e36-b917-127ab8107b7b",
        "platform": "iCHEF",
        "url": "https://shop.ichefpos.com/store/zjOvkAVA/ordering?fbclid=PAAaYm8x5IxYUWbytrhZ6qi6cqQd0LI9D_2_M-ZN7IvKUz92KNjWk3xdrxuDA_aem_AY7ZX-3mafZpxBUn_Sjh1trFRO-NPcRVds_I3DWkEy5C-xDZORFziaxJaQevIflT2Qc"
      }
    ],
    "rating": 3.8,
    "phone": "03 572 0177"
  },
  {
    "id": "ChIJAWQbbvM1aDQRWmfTHScOHh8",
    "name": "嘉味火雞肉飯",
    "address": "300台灣新竹市東區南大路828號",
    "region": "hsinchu_city",
    "latitude": 24.7884863,
    "longitude": 120.9667269,
    "orderLinks": [],
    "rating": 4.3,
    "phone": "03 561 2170"
  },
  {
    "id": "ChIJfSEV7xM1aDQRrZZEsF5pO2s",
    "name": "雞肉男雞肉飯",
    "address": "300台灣新竹市東區食品路221號",
    "region": "hsinchu_city",
    "latitude": 24.7958782,
    "longitude": 120.97444970000001,
    "orderLinks": [
      {
        "id": "fb0e899e-6547-4cc9-b4cf-1043f3c9d646",
        "platform": "官網",
        "url": "https://www.facebook.com/profile.php?id=100089813297122&locale=zh_TW"
      }
    ],
    "rating": 4.4,
    "phone": "03 562 6221"
  },
  {
    "id": "ChIJ9Z3iN2E1aDQR-FE-fsOF368",
    "name": "一私麵宅新竹店",
    "address": "300台灣新竹市東區東南街223號",
    "region": "hsinchu_city",
    "latitude": 24.7957845,
    "longitude": 120.9756169,
    "orderLinks": [],
    "rating": 4.3,
    "phone": "03 561 2714"
  },
  {
    "id": "ChIJHRp2N-81aDQRMfWb-nwV-1c",
    "name": "麵堂拉麵專賣店",
    "address": "300台灣新竹市東區食品路223號",
    "region": "hsinchu_city",
    "latitude": 24.7958744,
    "longitude": 120.9743727,
    "orderLinks": [
      {
        "id": "80b6586f-f66d-4aa1-83ac-f8a981ef1cf0",
        "platform": "官網",
        "url": "https://www.facebook.com/miantang2014/"
      }
    ],
    "rating": 4.4,
    "phone": "03 561 9980"
  },
  {
    "id": "ChIJISOj3OU1aDQRcczo3dgWlOY",
    "name": "La Dolce Vita樂多趣義大利餐廳 店休日請看臉書與IG ～～內用假日低消600",
    "address": "300台灣新竹市東區学府路61巷5-2號",
    "region": "hsinchu_city",
    "latitude": 24.794998099999997,
    "longitude": 120.97791260000001,
    "orderLinks": [
      {
        "id": "d5d7b471-edaa-4012-863b-0e4c3115ad4d",
        "platform": "官網",
        "url": "https://www.facebook.com/dolce0vita/"
      }
    ],
    "rating": 4.4,
    "phone": "03 573 5822"
  },
  {
    "id": "ChIJCVwbK401aDQR9EJK_rACCUU",
    "name": "南大路倪家永和豆漿大王",
    "address": "300台灣新竹市東區南大路716號",
    "region": "hsinchu_city",
    "latitude": 24.7912173,
    "longitude": 120.9641762,
    "orderLinks": [],
    "rating": 4.4,
    "phone": "03 562 3749"
  },
  {
    "id": "ChIJ_8VTWwA1aDQR5F5Ix7-dd6w",
    "name": "貓的堅持（新竹店）創意輕藥膳養生料理",
    "address": "300台灣新竹市東區西大路63號",
    "region": "hsinchu_city",
    "latitude": 24.795660899999998,
    "longitude": 120.97119649999999,
    "orderLinks": [
      {
        "id": "2338221a-a02d-41b5-8dc6-d5b37b38db58",
        "platform": "官網",
        "url": "https://www.facebook.com/profile.php?id=100066772443262&mibextid=LQQJ4d"
      }
    ],
    "rating": 4.6,
    "phone": "0973 525 376"
  },
  {
    "id": "ChIJq0sXzyk1aDQROyG3m3M8GEQ",
    "name": "大爺鹽酥雞",
    "address": "300台灣新竹市東區食品路329號",
    "region": "hsinchu_city",
    "latitude": 24.7943194,
    "longitude": 120.97181549999999,
    "orderLinks": [
      {
        "id": "6e73bc8f-ea54-454e-8b44-037de84eec7b",
        "platform": "官網",
        "url": "https://m.facebook.com/daye035/"
      }
    ],
    "rating": 4.7,
    "phone": "03 562 0989"
  },
  {
    "id": "ChIJ_zOVDUc1aDQR9xqhYJMoIWU",
    "name": "洞心咖啡廳Heartbeat Cafe-新竹深夜咖啡廳/下午茶/手作甜點 手沖/精品/義式咖啡 輕食/蛋糕 咖啡課程體驗 桌遊/親子/包場/約會/網美/打卡 人氣熱門好評推薦 PTT Dcard",
    "address": "300台灣新竹市東區学府路61巷5-1號",
    "region": "hsinchu_city",
    "latitude": 24.795053499999998,
    "longitude": 120.9779442,
    "orderLinks": [
      {
        "id": "b08e1040-a763-472b-997d-7c49223a93e8",
        "platform": "官網",
        "url": "https://heartbeat-cafe.com/"
      }
    ],
    "rating": 4.9,
    "phone": "03 574 0201"
  },
  {
    "id": "ChIJK997kuU1aDQRLsBGt45KTL0",
    "name": "老雲記餃子館",
    "address": "300台灣新竹市東區學府路1號",
    "region": "hsinchu_city",
    "latitude": 24.7941998,
    "longitude": 120.9767696,
    "orderLinks": [
      {
        "id": "d997fa3a-2cda-497c-ab9b-c914b90cfa96",
        "platform": "官網",
        "url": "https://www.facebook.com/pages/%E8%80%81%E9%9B%B2%E8%A8%98%E9%BA%B5%E9%A3%9F%E9%A4%A8/124591950943493"
      }
    ],
    "rating": 4,
    "phone": "03 572 8840"
  },
  {
    "id": "ChIJDX9LQVY1aDQR_xdO1aAAv70",
    "name": "成功牛排 南大店",
    "address": "300台灣新竹市東區南大路816-2號",
    "region": "hsinchu_city",
    "latitude": 24.788716899999997,
    "longitude": 120.9665774,
    "orderLinks": [],
    "rating": 4.8,
    "phone": "03 562 0301"
  },
  {
    "id": "ChIJ5zwU9As2aDQR-mrTEokhMa4",
    "name": "國立清華大學 小吃部",
    "address": "30013台灣新竹市東區光復路二段101號",
    "region": "hsinchu_city",
    "latitude": 24.7931395,
    "longitude": 120.99310419999999,
    "orderLinks": [
      {
        "id": "7f3b3ed7-bff3-443e-8d51-8532fc8f45b6",
        "platform": "官網",
        "url": "http://www.nthu.edu.tw/"
      }
    ],
    "rating": 4,
    "phone": "03 571 5131"
  },
  {
    "id": "ChIJb9VLFUk1aDQRnA0JcAzd3X8",
    "name": "阿美泰泰",
    "address": "300台灣新竹市東區學府路56號1樓",
    "region": "hsinchu_city",
    "latitude": 24.7961851,
    "longitude": 120.98281659999998,
    "orderLinks": [
      {
        "id": "e375b1f4-f34c-41f5-a534-b8ae5bdad047",
        "platform": "官網",
        "url": "https://www.facebook.com/%E9%98%BF%E7%BE%8E%E6%B3%B0%E6%B3%B0-113049507701812/?ref=pages_you_manage"
      }
    ],
    "rating": 4.5,
    "phone": "03 542 0180"
  },
  {
    "id": "ChIJWdjyGww2aDQRNevyzv4kuXg",
    "name": "水木餐廳",
    "address": "300台灣新竹市東區光復路二段101號",
    "region": "hsinchu_city",
    "latitude": 24.7922877,
    "longitude": 120.9940825,
    "orderLinks": [
      {
        "id": "93730c9b-e99f-4d4d-ae91-128514f36e8d",
        "platform": "官網",
        "url": "https://facebook.com/waterwoodfoodcourt/"
      }
    ],
    "rating": 4,
    "phone": "03 571 7708"
  },
  {
    "id": "ChIJ1wJ0WuA1aDQRkRYwPLHwGbg",
    "name": "無名早餐店 饅頭肉排蛋",
    "address": "300台灣新竹市東區學府路112號",
    "region": "hsinchu_city",
    "latitude": 24.7966655,
    "longitude": 120.9841455,
    "orderLinks": [
      {
        "id": "ab2bc6f9-f556-487b-87c2-d48d359d7b57",
        "platform": "官網",
        "url": "https://www.facebook.com/pages/%E7%84%A1%E5%90%8D%E9%A5%85%E9%A0%AD%E8%82%89%E6%8E%92%E8%9B%8B/101511223263792"
      }
    ],
    "rating": 4.3,
    "phone": "03 572 1869"
  },
  {
    "id": "ChIJZZnY0nQ2aDQRaGoa5ALVp4g",
    "name": "麥當勞-新竹清大餐廳",
    "address": "300台灣新竹市東區光復路二段101號清華大學小吃部",
    "region": "hsinchu_city",
    "latitude": 24.792905299999997,
    "longitude": 120.9931201,
    "orderLinks": [
      {
        "id": "1250ab20-e55b-4a98-b6e3-4039ec575600",
        "platform": "官網",
        "url": "https://www.mcdonalds.com/tw/zh-tw.html"
      }
    ],
    "rating": 3.8,
    "phone": "03 572 7800"
  },
  {
    "id": "ChIJ34d2ouY1aDQRWqPCvKGmAOM",
    "name": "阿寶魯肉飯",
    "address": "300台灣新竹市東區學府路165號",
    "region": "hsinchu_city",
    "latitude": 24.795509799999998,
    "longitude": 120.98032979999999,
    "orderLinks": [
      {
        "id": "8f9efe00-1002-4078-9c9c-93f72441dcc7",
        "platform": "官網",
        "url": "https://www.facebook.com/pages/%E9%98%BF%E5%AF%B6%E6%BB%B7%E8%82%89%E9%A3%AF/1666286903389622"
      }
    ],
    "rating": 4.2,
    "phone": "0987 679 907"
  },
  {
    "id": "ChIJKTONuuY1aDQRLfRSLr5A280",
    "name": "學府牛肉麵",
    "address": "300台灣新竹市東區學府路106號",
    "region": "hsinchu_city",
    "latitude": 24.7966438,
    "longitude": 120.9839793,
    "orderLinks": [
      {
        "id": "d81eea96-d2ea-43ca-b71b-ce6d270f0c08",
        "platform": "官網",
        "url": "https://www.facebook.com/xuefu.com.tw/"
      }
    ],
    "rating": 4,
    "phone": "03 571 3889"
  },
  {
    "id": "ChIJ-0IMjD41aDQRNX6ISUK3fM4",
    "name": "富珍鄉豬腳專賣店",
    "address": "300台灣新竹市東區學府路359號",
    "region": "hsinchu_city",
    "latitude": 24.797373999999998,
    "longitude": 120.98541429999999,
    "orderLinks": [
      {
        "id": "38d327bd-5082-4a63-b507-2bdd215763fd",
        "platform": "官網",
        "url": "https://m.facebook.com/%E5%AF%8C%E7%8F%8D%E9%84%89%E8%B1%AC%E8%85%B3%E5%B0%88%E8%B3%A3%E5%BA%97-110670497871850/"
      }
    ],
    "rating": 4.4,
    "phone": "03 571 2448"
  },
  {
    "id": "ChIJAx_vf8k1aDQRrFqfIvZIkj8",
    "name": "德本家 tokumoto_brunch",
    "address": "300台灣新竹市東區學府路349號",
    "region": "hsinchu_city",
    "latitude": 24.797202799999997,
    "longitude": 120.98504899999999,
    "orderLinks": [
      {
        "id": "0ffe2fd1-0c5b-4551-bb03-31c70a9beb4e",
        "platform": "官網",
        "url": "https://store.dudooeat.com/order/store/517182804fc849149d451d726854bf58"
      }
    ],
    "rating": 4.1,
    "phone": "03 575 0025"
  },
  {
    "id": "ChIJby-2HuE1aDQRNArFQxLa3fc",
    "name": "興達飲食店（臭臉麵店）",
    "address": "300台灣新竹市東區學府路289號",
    "region": "hsinchu_city",
    "latitude": 24.7966497,
    "longitude": 120.9835907,
    "orderLinks": [],
    "rating": 4.3,
    "phone": "03 571 1671"
  },
  {
    "id": "ChIJB9M8cFY1aDQRpO-KFUnTIMY",
    "name": "湘月食堂",
    "address": "300台灣新竹市東區學府路126號",
    "region": "hsinchu_city",
    "latitude": 24.796759299999998,
    "longitude": 120.98442409999998,
    "orderLinks": [
      {
        "id": "d9d16ade-05b5-4cb7-a2de-c839a117712d",
        "platform": "官網",
        "url": "https://www.facebook.com/%E6%B9%98%E6%9C%88%E9%A3%9F%E5%A0%82-105523347604292/"
      }
    ],
    "rating": 4.4,
    "phone": "03 572 7990"
  },
  {
    "id": "ChIJ10ye_eA1aDQRjlUTgWdZBhg",
    "name": "丐幫滷味學府分舵",
    "address": "300台灣新竹市東區學府路321號1樓",
    "region": "hsinchu_city",
    "latitude": 24.7968731,
    "longitude": 120.98419659999999,
    "orderLinks": [
      {
        "id": "3b646fbe-cf09-45ea-bb58-f59fbdc8eb0e",
        "platform": "官網",
        "url": "http://www.gaibom.com/"
      }
    ],
    "rating": 4.4,
    "phone": "03 572 0167"
  },
  {
    "id": "ChIJVVVVVdw1aDQRxmQEm2Ub6Y8",
    "name": "168新加坡美食",
    "address": "300台灣新竹市東區學府路307號",
    "region": "hsinchu_city",
    "latitude": 24.7968101,
    "longitude": 120.9840636,
    "orderLinks": [
      {
        "id": "2aea0230-84b8-4df1-97cc-a186926a7645",
        "platform": "官網",
        "url": "https://m.facebook.com/profile.php?id=412430385451571"
      }
    ],
    "rating": 4,
    "phone": "03 572 1881"
  },
  {
    "id": "ChIJs8wLNeE1aDQR0c8v55zprZo",
    "name": "楊家古早味美食（滷肉飯鍋燒麵小卷米粉）",
    "address": "300台灣新竹市東區學府路215號",
    "region": "hsinchu_city",
    "latitude": 24.796045499999998,
    "longitude": 120.98193930000001,
    "orderLinks": [
      {
        "id": "ca0a9059-60b5-4eca-91f9-6bce2c13d40e",
        "platform": "官網",
        "url": "https://www.facebook.com/yang5710520/"
      }
    ],
    "rating": 4.3,
    "phone": "03 571 0520"
  },
  {
    "id": "ChIJgeYQOAA1aDQRDlIctmyNIes",
    "name": "廖哩",
    "address": "300039台灣新竹市東區學府路66號",
    "region": "hsinchu_city",
    "latitude": 24.7962296,
    "longitude": 120.98293489999999,
    "orderLinks": [
      {
        "id": "91ff5f87-d3f1-413d-8bf3-58debf7d18ce",
        "platform": "官網",
        "url": "https://www.facebook.com/profile.php?id=100054571474227"
      }
    ],
    "rating": 4.8,
    "phone": "03 572 0725"
  },
  {
    "id": "ChIJJ2_AGeE1aDQREfl-QL9DvqY",
    "name": "山東饅頭 學府店",
    "address": "300台灣新竹市東區學府路86號",
    "region": "hsinchu_city",
    "latitude": 24.7965517,
    "longitude": 120.98374720000001,
    "orderLinks": [],
    "rating": 4.3,
    "phone": "03 571 0268"
  },
  {
    "id": "ChIJOeu-v0o3aDQRuarZyVxLYAM",
    "name": "森森燒肉 新竹清大店",
    "address": "300台灣新竹市東區光復路二段151號",
    "region": "hsinchu_city",
    "latitude": 24.7980508,
    "longitude": 120.99444240000001,
    "orderLinks": [
      {
        "id": "ee431b0c-f755-494a-93f5-a81ae0793a92",
        "platform": "官網",
        "url": "https://www.facebook.com/morimorifb.tw/"
      }
    ],
    "rating": 4.9,
    "phone": "03 574 5338"
  },
  {
    "id": "ChIJbZAbVnE2aDQRolSy1dAf1Yk",
    "name": "段純貞建功店",
    "address": "300台灣新竹市東區建功一路135號",
    "region": "hsinchu_city",
    "latitude": 24.8026457,
    "longitude": 120.9937853,
    "orderLinks": [
      {
        "id": "672accf4-bbc8-4cf0-ae45-9094c43cd970",
        "platform": "Ocard 線上點",
        "url": "https://order.ocard.co/jiangong/w2O74Q?a&utm_source=bot&utm_medium=line"
      }
    ],
    "rating": 4.1,
    "phone": "03 574 8838"
  },
  {
    "id": "ChIJHy5wqxM2aDQRl3YZgSm68gs",
    "name": "大拇指小館",
    "address": "300台灣新竹市東區光復路二段52號",
    "region": "hsinchu_city",
    "latitude": 24.7918314,
    "longitude": 121.0036282,
    "orderLinks": [
      {
        "id": "17993aac-4d86-46d5-84f2-5bb55a6f7395",
        "platform": "官網",
        "url": "https://www.facebook.com/pages/%E5%A4%A7%E6%8B%87%E6%8C%87%E5%B0%8F%E9%A4%A8/199856016705637"
      }
    ],
    "rating": 4.1,
    "phone": "03 571 2519"
  },
  {
    "id": "ChIJayjir3I2aDQR0TGPgfctBdI",
    "name": "立晉豆花",
    "address": "300台灣新竹市東區建功一路6號",
    "region": "hsinchu_city",
    "latitude": 24.796863600000002,
    "longitude": 120.99839779999999,
    "orderLinks": [
      {
        "id": "915ea2a2-9467-4e20-bff1-08662ac0f36d",
        "platform": "官網",
        "url": "https://www.facebook.com/%E7%AB%8B%E6%99%89%E5%82%B3%E7%B5%B1%E8%B1%86%E8%8A%B1-246909422001492/"
      }
    ],
    "rating": 4,
    "phone": "03 572 8389"
  },
  {
    "id": "ChIJczUaDXQ2aDQRLvxS6dQ5FJA",
    "name": "Go eat Tapas Dining BAR 西班牙餐酒館(新竹)",
    "address": "300台灣新竹市東區新源街108號",
    "region": "hsinchu_city",
    "latitude": 24.802104900000003,
    "longitude": 120.99310759999999,
    "orderLinks": [
      {
        "id": "61d96dc7-05ad-4a39-bf2a-472a5d061f70",
        "platform": "官網",
        "url": "https://www.facebook.com/goeattapas"
      }
    ],
    "rating": 4.4,
    "phone": "03 574 0267"
  },
  {
    "id": "ChIJh6ttAnc3aDQRQZu7vCFQcO8",
    "name": "「拾起回憶」石憶食鍋/restaurants/美食/火鍋",
    "address": "300台灣新竹市東區忠孝路51號",
    "region": "hsinchu_city",
    "latitude": 24.802334199999997,
    "longitude": 120.99077910000001,
    "orderLinks": [
      {
        "id": "29e28c9d-d86d-4346-be2c-80bf84a48f4b",
        "platform": "官網",
        "url": "https://shiyishiguo.weebly.com/"
      }
    ],
    "rating": 4.9,
    "phone": "03 515 3785"
  },
  {
    "id": "ChIJ-9Ii9Kc3aDQRMsTHCBLmwB8",
    "name": "八二親食 將軍村",
    "address": "300台灣新竹市東區金城一路67號",
    "region": "hsinchu_city",
    "latitude": 24.794518099999998,
    "longitude": 121.0028583,
    "orderLinks": [
      {
        "id": "c81ec862-f539-4e1f-9773-7814eedcdb05",
        "platform": "inline",
        "url": "https://inline.app/booking/-MYifWETiFJXKjFOhhSP:inline-live-2/-NJvAdx1DJE0-nV2nhSC"
      }
    ],
    "rating": 4.5,
    "phone": "03 572 5566"
  },
  {
    "id": "ChIJRTzE0HI2aDQRWUCg5LibBp4",
    "name": "星巴克 光復清大門市",
    "address": "300台灣新竹市東區光復路二段406號",
    "region": "hsinchu_city",
    "latitude": 24.7971631,
    "longitude": 120.99669200000001,
    "orderLinks": [
      {
        "id": "7142a321-53db-4830-bcf6-2dd076077f31",
        "platform": "官網",
        "url": "http://www.starbucks.com.tw/"
      }
    ],
    "rating": 4.2,
    "phone": "03 571 9138"
  },
  {
    "id": "ChIJV1SB7Ro3aDQROnas-ElaThE",
    "name": "墨竹亭 燃麵本家 新竹光復店",
    "address": "300台灣新竹市東區光復路二段760號",
    "region": "hsinchu_city",
    "latitude": 24.8009557,
    "longitude": 120.98814689999999,
    "orderLinks": [
      {
        "id": "00e75799-ca05-400a-8ba8-7811f8e0f23b",
        "platform": "官網",
        "url": "http://www.mozhuting.com/"
      }
    ],
    "rating": 4.7,
    "phone": "03 572 6622"
  },
  {
    "id": "ChIJ0bhVjHI2aDQRjzZBJ5TBaqw",
    "name": "白鬍子牛排清大店",
    "address": "300台灣新竹市東區建功一路68號",
    "region": "hsinchu_city",
    "latitude": 24.7984396,
    "longitude": 120.9978967,
    "orderLinks": [
      {
        "id": "a2bddeba-b99c-44b3-b1ca-e3f5fea86c0f",
        "platform": "官網",
        "url": "https://www.facebook.com/WBSHsinchu/"
      }
    ],
    "rating": 4.1,
    "phone": "03 573 7889"
  },
  {
    "id": "ChIJe7ACr8s3aDQRgYuBp_30z4c",
    "name": "夜排檔熱炒",
    "address": "300台灣新竹市東區公道五路二段346號",
    "region": "hsinchu_city",
    "latitude": 24.8029057,
    "longitude": 120.99850509999999,
    "orderLinks": [
      {
        "id": "865c45e4-b4ef-4ef7-9411-528f8fe54452",
        "platform": "官網",
        "url": "https://www.facebook.com/%E5%A4%9C%E6%8E%92%E6%AA%94%E5%95%A4%E9%85%92%E5%B1%8B-206037282746921/"
      }
    ],
    "rating": 4.4,
    "phone": "03 572 5693"
  },
  {
    "id": "ChIJ-wfjv9s3aDQR8dNL3DEilJ0",
    "name": "日出咖啡sunrise cafe",
    "address": "300台灣新竹市東區金城二路4號",
    "region": "hsinchu_city",
    "latitude": 24.7948372,
    "longitude": 121.0031582,
    "orderLinks": [
      {
        "id": "2d4b997e-71a7-4562-93f8-0550ac3b3cec",
        "platform": "官網",
        "url": "https://www.facebook.com/profile.php?id=100086621050212"
      }
    ],
    "rating": 4.5,
    "phone": "03 516 9220"
  },
  {
    "id": "ChIJe97NARM2aDQR2D8S7rJCTmQ",
    "name": "成都老鍋牛肉麵",
    "address": "300台灣新竹市東區光復路二段126號",
    "region": "hsinchu_city",
    "latitude": 24.7929472,
    "longitude": 121.0020443,
    "orderLinks": [
      {
        "id": "25a14487-7ba8-48ce-9816-05351534d8a0",
        "platform": "官網",
        "url": "https://www.facebook.com/%E6%88%90%E9%83%BD%E8%80%81%E9%8D%8B%E9%BA%B5%E9%A3%9F%E9%A4%A8-1793799754176795/"
      }
    ],
    "rating": 4.5,
    "phone": "03 573 6399"
  },
  {
    "id": "ChIJ_7fcdME1aDQRgoB2x52LFZU",
    "name": "麥當勞-新竹光復二餐廳",
    "address": "300台灣新竹市東區光復路二段241、243號",
    "region": "hsinchu_city",
    "latitude": 24.7996388,
    "longitude": 120.99070429999999,
    "orderLinks": [
      {
        "id": "06981274-ef20-4f1b-8cb7-feec58560628",
        "platform": "官網",
        "url": "https://www.mcdonalds.com/tw/zh-tw.html"
      }
    ],
    "rating": 3.5,
    "phone": "03 575 1062"
  },
  {
    "id": "ChIJmXn_p3I2aDQRuxD02EJ1TAM",
    "name": "來來豆漿店",
    "address": "300台灣新竹市東區建功路23號300",
    "region": "hsinchu_city",
    "latitude": 24.7967238,
    "longitude": 120.99900190000001,
    "orderLinks": [],
    "rating": 4.3,
    "phone": "03 572 9750"
  },
  {
    "id": "ChIJGxanrnY2aDQRKcaVOZsSSEY",
    "name": "新竹石頭燒肉火鍋",
    "address": "300台灣新竹市東區水源街99號",
    "region": "hsinchu_city",
    "latitude": 24.803149899999998,
    "longitude": 120.99246629999998,
    "orderLinks": [
      {
        "id": "9302bb5b-36f9-444f-8afa-bfdac636e7e2",
        "platform": "官網",
        "url": "http://stone-yakiniku.com.tw/"
      }
    ],
    "rating": 4.4,
    "phone": "03 574 4168"
  },
  {
    "id": "ChIJu1iwKHQ2aDQR0vhX8ipyNzI",
    "name": "長疆炭燒羊肉爐 新竹忠孝店",
    "address": "300台灣新竹市東區忠孝路75號",
    "region": "hsinchu_city",
    "latitude": 24.8029644,
    "longitude": 120.9911049,
    "orderLinks": [
      {
        "id": "677f2a28-c9c0-4376-8acc-9f106bfd3e60",
        "platform": "官網",
        "url": "https://m.facebook.com/110964513593484/"
      }
    ],
    "rating": 4.1,
    "phone": "03 575 1571"
  },
  {
    "id": "ChIJKTr23BE2aDQRHnwPbEFTM8U",
    "name": "國立陽明交通大學第二餐廳",
    "address": "300台灣新竹市東區大學路1001號",
    "region": "hsinchu_city",
    "latitude": 24.789302,
    "longitude": 120.99719699999999,
    "orderLinks": [
      {
        "id": "2d96dd93-28b2-410b-a5c0-e53e1e762e91",
        "platform": "官網",
        "url": "https://m.facebook.com/nctu.secondrestaurant/?locale2=zh_TW"
      }
    ],
    "rating": 4.3,
    "phone": "03 571 2121"
  },
  {
    "id": "ChIJ2VHNGnk3aDQRIhNo09R4tuk",
    "name": "厚醍牛肉麵 新竹忠孝店",
    "address": "300台灣新竹市東區忠孝路25-1號",
    "region": "hsinchu_city",
    "latitude": 24.8015026,
    "longitude": 120.99012990000001,
    "orderLinks": [
      {
        "id": "559aee40-b363-45f9-b3d5-6c04cf3540d6",
        "platform": "官網",
        "url": "https://houti.com.tw/"
      }
    ],
    "rating": 4.4,
    "phone": "03 575 1186"
  },
  {
    "id": "ChIJ2wj3W8M1aDQRK0HnRKo0ptI",
    "name": "Fleur Lis 芙洛麗大飯店",
    "address": "300台灣新竹市東區民族路69號",
    "region": "hsinchu_city",
    "latitude": 24.807078999999998,
    "longitude": 120.97523100000001,
    "orderLinks": [
      {
        "id": "46c48bd4-ab69-42c5-943c-2d86ce12b845",
        "platform": "官網",
        "url": "https://www.fls.tw/"
      }
    ],
    "rating": 4.2,
    "phone": "03 623 8899"
  },
  {
    "id": "ChIJY6vDqrc3aDQR97rW6lAZhJY",
    "name": "晶宴會館-御豐館",
    "address": "300台灣新竹市東區公道五路三段1號2樓",
    "region": "hsinchu_city",
    "latitude": 24.8053651,
    "longitude": 120.9916119,
    "orderLinks": [
      {
        "id": "25da4348-d76e-4f48-b979-a4b1de1a5897",
        "platform": "官網",
        "url": "https://www.amazinghall.com.tw/"
      }
    ],
    "rating": 4.5,
    "phone": "03 575 0671"
  },
  {
    "id": "ChIJs_sS8to1aDQRAJv-D_RcMmU",
    "name": "老瀋陽酸菜白肉鍋",
    "address": "300台灣新竹市東區三民路125號",
    "region": "hsinchu_city",
    "latitude": 24.8103217,
    "longitude": 120.97878060000001,
    "orderLinks": [
      {
        "id": "909cf550-adfd-43a6-8065-8a8401df53dc",
        "platform": "官網",
        "url": "https://www.facebook.com/%E8%80%81%E7%80%8B%E9%99%BD%E9%85%B8%E7%99%BD%E8%8F%9C%E7%81%AB%E9%8D%8B-395619727199635/"
      }
    ],
    "rating": 4.6,
    "phone": "03 535 3338"
  },
  {
    "id": "ChIJo9bce_A1aDQRJh0Uo0lexW8",
    "name": "八二親食 三民店",
    "address": "300台灣新竹市東區三民路43號1樓",
    "region": "hsinchu_city",
    "latitude": 24.8088154,
    "longitude": 120.9755606,
    "orderLinks": [
      {
        "id": "fb6f1f52-9899-4000-9eee-9d626c49563b",
        "platform": "inline",
        "url": "https://inline.app/booking/-MYifWETiFJXKjFOhhSP:inline-live-2/-MYifWP1-2fNoRgsGxOD"
      }
    ],
    "rating": 4.7,
    "phone": "03 532 2880"
  },
  {
    "id": "ChIJxXgGN4Y1aDQRAPPbDqV62DA",
    "name": "豐華小吃",
    "address": "300台灣新竹市東區民生路147號",
    "region": "hsinchu_city",
    "latitude": 24.810623,
    "longitude": 120.9764186,
    "orderLinks": [],
    "rating": 4.1,
    "phone": "03 535 1234"
  },
  {
    "id": "ChIJ_Z-fVMc1aDQRT3hEKm0RQH8",
    "name": "禾日香古早味魯肉飯",
    "address": "300台灣新竹市東區民族路163號",
    "region": "hsinchu_city",
    "latitude": 24.8091185,
    "longitude": 120.9789441,
    "orderLinks": [
      {
        "id": "18971cbd-b5ef-484a-b84e-d58f2c3d7fd0",
        "platform": "官網",
        "url": "https://www.facebook.com/%E7%A6%BE%E6%97%A5%E9%A6%99-%E9%AD%AF%E8%82%89%E9%A3%AF%E5%B0%88%E9%96%80%E5%BA%97-439450116189275/"
      }
    ],
    "rating": 4,
    "phone": "03 528 0276"
  },
  {
    "id": "ChIJvwcX5kE1aDQR37Nb2Wri1hQ",
    "name": "同樂食鍋 新竹巨城三民店",
    "address": "300台灣新竹市東區三民路158號",
    "region": "hsinchu_city",
    "latitude": 24.809898099999998,
    "longitude": 120.9792166,
    "orderLinks": [
      {
        "id": "d8abd4bc-7c08-417a-8ce2-410867f10885",
        "platform": "官網",
        "url": "https://www.facebook.com/p/%E5%90%8C%E6%A8%82%E9%A3%9F%E9%8D%8B-%E7%9F%B3%E9%A0%AD%E7%81%AB%E9%8D%8B%E6%B6%AE%E6%B6%AE%E9%8D%8B%E5%B0%88%E8%B3%A3-100063518485791/"
      }
    ],
    "rating": 4.8,
    "phone": "03 535 8800"
  },
  {
    "id": "ChIJk7BAC9E1aDQRcKhHolfreyo",
    "name": "Float Dept.微生咖啡「沒有訂位服務」「無室內候位空間」",
    "address": "300台灣新竹市東區民權路111巷23號",
    "region": "hsinchu_city",
    "latitude": 24.8073311,
    "longitude": 120.97451600000001,
    "orderLinks": [
      {
        "id": "85c99c57-c11a-4993-b8a6-e4515a6f6b80",
        "platform": "官網",
        "url": "https://www.facebook.com/Floatdept/?epa=SEARCH_BOX"
      }
    ],
    "rating": 4.4,
    "phone": "03 515 3788"
  },
  {
    "id": "ChIJFxGEqts1aDQRDnK9lzSSAMU",
    "name": "一想一響咖啡 | 無提供訂位 | Last Order 21:00",
    "address": "30043台灣新竹市東區民生路58巷8號",
    "region": "hsinchu_city",
    "latitude": 24.8085247,
    "longitude": 120.97893069999998,
    "orderLinks": [
      {
        "id": "0a8ec3b5-0f66-407e-8a86-0c8f7a2ef391",
        "platform": "官網",
        "url": "https://www.facebook.com/reecho.coffee/"
      }
    ],
    "rating": 4.2,
    "phone": "03 533 6651"
  },
  {
    "id": "ChIJJfegw9Y1aDQR-tI0qA1iKb8",
    "name": "石二鍋 新竹忠孝店",
    "address": "300台灣新竹市東區忠孝路279-7號",
    "region": "hsinchu_city",
    "latitude": 24.804517999999998,
    "longitude": 120.98554700000001,
    "orderLinks": [
      {
        "id": "4915c30e-69c7-4b38-a568-91beacca635d",
        "platform": "官網",
        "url": "https://www.12hotpot.com.tw/"
      }
    ],
    "rating": 4,
    "phone": "03 575 1118"
  },
  {
    "id": "ChIJgz49IhQ1aDQRrsgspC9NxpY",
    "name": "格林小鎮新2.0",
    "address": "300台灣新竹市東區自由路27巷43號",
    "region": "hsinchu_city",
    "latitude": 24.810843799999997,
    "longitude": 120.98057019999999,
    "orderLinks": [
      {
        "id": "ac1ce7f0-52f4-4e19-b42b-ab2d2fe8ad52",
        "platform": "官網",
        "url": "https://www.facebook.com/profile.php?id=100063995439195"
      }
    ],
    "rating": 4.4,
    "phone": "0916 300 149"
  },
  {
    "id": "ChIJ18B0wt41aDQR1-xKN8FiW6s",
    "name": "千葉火鍋 新竹尊爵館 (原忠孝店)",
    "address": "300台灣新竹市東區忠孝路281號",
    "region": "hsinchu_city",
    "latitude": 24.803576399999997,
    "longitude": 120.98383419999999,
    "orderLinks": [
      {
        "id": "9229f0c8-7eec-4044-a75a-2bb012f8a58f",
        "platform": "官網",
        "url": "https://cyhotpot.net/GShome"
      }
    ],
    "rating": 4.4,
    "phone": "03 572 3525"
  },
  {
    "id": "ChIJ4x8tVGY1aDQRFMfEWoevWjA",
    "name": "蔣好的味道",
    "address": "300台灣新竹市東區鐵道路一段28巷81號",
    "region": "hsinchu_city",
    "latitude": 24.8124319,
    "longitude": 120.9846131,
    "orderLinks": [
      {
        "id": "8cefa019-43cb-43d7-93e5-9a004aa42b2d",
        "platform": "官網",
        "url": "https://m.facebook.com/pages/category/Restaurant/%E8%94%A3%E5%A5%BD%E7%9A%84%E5%91%B3%E9%81%93-320575941851148/"
      }
    ],
    "rating": 4.4,
    "phone": "0924 128 866"
  },
  {
    "id": "ChIJT_jE4RE2aDQROKOEdLQnfsw",
    "name": "漢堡邦",
    "address": "300台灣新竹市東區大學路1005號",
    "region": "hsinchu_city",
    "latitude": 24.7895988,
    "longitude": 120.99930250000001,
    "orderLinks": [],
    "rating": 4.4,
    "phone": "03 516 5912"
  },
  {
    "id": "ChIJy2emtaA3aDQR8ZB6mCYIKLU",
    "name": "Here Space 這家咖啡｜冰滴手沖專売｜甜點｜餐盒外燴｜入所請降低音量（有門禁，請來電）",
    "address": "300台灣新竹市東區大學路1001號第二餐廳３樓",
    "region": "hsinchu_city",
    "latitude": 24.789275,
    "longitude": 120.99709920000001,
    "orderLinks": [],
    "rating": 4.9,
    "phone": "0971 818 434"
  },
  {
    "id": "ChIJ2bPUJAs2aDQRMyEuc3UiISM",
    "name": "清華大學 第二招待所",
    "address": "300台灣新竹市東區光復路二段101號",
    "region": "hsinchu_city",
    "latitude": 24.797029799999997,
    "longitude": 120.9912045,
    "orderLinks": [],
    "rating": 3.9,
    "phone": "03 571 5131#35245"
  },
  {
    "id": "ChIJDSKUxeE1aDQRmjh99J0YA20",
    "name": "種籽蔬食養生早午餐",
    "address": "300台灣新竹市東區博愛街5巷61號",
    "region": "hsinchu_city",
    "latitude": 24.7955971,
    "longitude": 120.98664749999999,
    "orderLinks": [
      {
        "id": "cacb26f6-df04-4417-94a4-3d7150b0f74d",
        "platform": "官網",
        "url": "https://www.facebook.com/%E7%A8%AE%E7%B1%BD%E8%94%AC%E9%A3%9F-351888888528841/"
      }
    ],
    "rating": 4.6,
    "phone": "03 571 3508"
  },
  {
    "id": "ChIJ27R6Bwc2aDQRFopW3o0XlAg",
    "name": "創義食族",
    "address": "300台灣新竹市東區寶山路416號",
    "region": "hsinchu_city",
    "latitude": 24.7848866,
    "longitude": 120.9899167,
    "orderLinks": [],
    "rating": 3.9,
    "phone": "03 668 7798"
  },
  {
    "id": "ChIJh4CYXzs3aDQRxhvOPkO80EE",
    "name": "南部好滋味",
    "address": "300台灣新竹市東區光復路二段155巷78號",
    "region": "hsinchu_city",
    "latitude": 24.7975143,
    "longitude": 120.99234009999999,
    "orderLinks": [
      {
        "id": "5bceef38-e72c-4352-8cd5-290c60c93f60",
        "platform": "官網",
        "url": "https://www.facebook.com/AlenChen5720771"
      }
    ],
    "rating": 3.8,
    "phone": "03 572 0771"
  },
  {
    "id": "ChIJ0-X0_g43aDQRNVZPMfEoTi0",
    "name": "軒邑快餐",
    "address": "300台灣新竹市東區寶山路426號1樓",
    "region": "hsinchu_city",
    "latitude": 24.7847412,
    "longitude": 120.9900049,
    "orderLinks": [
      {
        "id": "1d3b9abe-0510-476c-87c2-9d068911769a",
        "platform": "官網",
        "url": "https://www.facebook.com/profile.php?id=100063660831692&mibextid=ZbWKwL"
      }
    ],
    "rating": 4,
    "phone": "03 666 1949"
  },
  {
    "id": "ChIJTZG0XuA1aDQRVuZEkf_I2Q8",
    "name": "如意麵食館 牛肉麵",
    "address": "300台灣新竹市東區光復路二段746號",
    "region": "hsinchu_city",
    "latitude": 24.8007396,
    "longitude": 120.98862,
    "orderLinks": [
      {
        "id": "b786a880-f7a7-4427-8d12-2fbe40ab5de3",
        "platform": "官網",
        "url": "https://www.facebook.com/Ruiibeafnoodles/?__tn__=,d,P-R&eid=ARB16HM6yKFhOQDFzg_CbQFaVTSY3I2RiruZ1ve0Gb3CsOh-P_adzgFUsIVhNbKEGQb7Ds1yZSjOdD7b"
      }
    ],
    "rating": 4.6,
    "phone": "03 571 0212"
  },
  {
    "id": "ChIJw49gEwA3aDQRlt8g1IbZiJM",
    "name": "亞丁尼義式麵屋 清大店-新竹美食推薦|在地推薦餐廳|必吃義大利麵|平價義大利麵|人氣餐廳|焗烤義大利麵|義式燉飯|焗烤推薦",
    "address": "300台灣新竹市東區光復路二段352號",
    "region": "hsinchu_city",
    "latitude": 24.7963825,
    "longitude": 120.99772989999998,
    "orderLinks": [
      {
        "id": "a50205e4-7ecc-4836-96a6-c64ffa36a0f4",
        "platform": "官網",
        "url": "https://www.instagram.com/yadingni?igsh=MTRlbjQ4eHF0bTFkNA==&utm_source=qr"
      }
    ],
    "rating": 4.8,
    "phone": "03 516 0000"
  },
  {
    "id": "ChIJKcZXvC03aDQR_r2e5qnlOJE",
    "name": "幸福客家麵食館",
    "address": "300台灣新竹市東區光復路二段171號173號",
    "region": "hsinchu_city",
    "latitude": 24.7992079,
    "longitude": 120.99208699999998,
    "orderLinks": [
      {
        "id": "bec0ec93-2b7c-465b-a525-2832d1166f58",
        "platform": "官網",
        "url": "https://www.facebook.com/p/%E5%B9%B8%E7%A6%8F%E5%AE%A2%E5%AE%B6%E9%BA%B5%E9%A3%9F%E9%A4%A8-100063983715533/"
      }
    ],
    "rating": 4.4,
    "phone": "03 516 0118"
  },
  {
    "id": "ChIJASR-N5U1aDQR5OnPyt0zoBU",
    "name": "一百種味道 總店外帶店",
    "address": "300台灣新竹市北區勝利路183號",
    "region": "hsinchu_city",
    "latitude": 24.801403099999998,
    "longitude": 120.96442169999999,
    "orderLinks": [
      {
        "id": "f0f16f1e-b31a-4fc6-b57b-08b28eaf362d",
        "platform": "官網",
        "url": "https://www.100tastes.com.tw/"
      }
    ],
    "rating": 4.4,
    "phone": null
  },
  {
    "id": "ChIJU1UV0-o1aDQRfb1nhfpbegA",
    "name": "海底撈火鍋 新竹店",
    "address": "300台灣新竹市東區西大路323號4樓",
    "region": "hsinchu_city",
    "latitude": 24.8018619,
    "longitude": 120.96466599999998,
    "orderLinks": [
      {
        "id": "74a3c2f6-c68a-40bc-acf8-a8c6d1f0e69c",
        "platform": "inline",
        "url": "https://inline.app/booking/-LamXb5SAQN7JcJfyRKi:inline-live-2a466/-LbuaqbC2ccoRJPiNuyB"
      }
    ],
    "rating": 4.8,
    "phone": "03 523 3370"
  },
  {
    "id": "ChIJzerQyOo1aDQRWcfl4b61Ekk",
    "name": "鼎泰豐 新竹店",
    "address": "300台灣新竹市東區西大路323號B1",
    "region": "hsinchu_city",
    "latitude": 24.8015395,
    "longitude": 120.96460320000001,
    "orderLinks": [
      {
        "id": "6aebc1c8-6fe6-4123-b369-e6f015d83622",
        "platform": "官網",
        "url": "https://www.dintaifung.com.tw/"
      }
    ],
    "rating": 4.5,
    "phone": "03 523 6222"
  },
  {
    "id": "ChIJr1_Szuo1aDQRgiJ4vR0u1e4",
    "name": "饗食天堂 新竹店",
    "address": "300台灣新竹市東區西大路323號9樓",
    "region": "hsinchu_city",
    "latitude": 24.8019347,
    "longitude": 120.9648374,
    "orderLinks": [
      {
        "id": "8ecd1c14-e08d-470a-ade6-3aa6d4c4aa98",
        "platform": "官網",
        "url": "https://www.eatogether.com.tw/zh-TW/home"
      }
    ],
    "rating": 4.2,
    "phone": "03 527 8800"
  },
  {
    "id": "ChIJ4QlrdXM1aDQRHncxGKw15cU",
    "name": "山田麻糬製造所",
    "address": "300台灣新竹市東區文昌街85號",
    "region": "hsinchu_city",
    "latitude": 24.8020976,
    "longitude": 120.9667146,
    "orderLinks": [
      {
        "id": "17cfc591-68fe-4d7b-80b7-1aedae4aa8d0",
        "platform": "官網",
        "url": "https://yamadamochiya.com/"
      }
    ],
    "rating": 4.2,
    "phone": "0928 325 001"
  },
  {
    "id": "ChIJ3dnarZQ1aDQR9cqxIVNQxcM",
    "name": "墨咖啡 INK COFFEE",
    "address": "300台灣新竹市東區林森路180號",
    "region": "hsinchu_city",
    "latitude": 24.799274,
    "longitude": 120.9643338,
    "orderLinks": [
      {
        "id": "2eb5e02f-99c5-4b43-9319-328af29935a2",
        "platform": "官網",
        "url": "https://line.me/R/ti/p/@225cjqbm"
      }
    ],
    "rating": 4.6,
    "phone": "03 522 0608"
  },
  {
    "id": "ChIJ4XDG8eo1aDQR3-DL--Irw7k",
    "name": "老港陳",
    "address": "300台灣新竹市東區南門街55號",
    "region": "hsinchu_city",
    "latitude": 24.8015537,
    "longitude": 120.96699729999999,
    "orderLinks": [
      {
        "id": "0b26f0b7-e13e-4dcb-bd75-b30e9044bd7a",
        "platform": "官網",
        "url": "https://www.instagram.com/chenqiaoyin2/"
      }
    ],
    "rating": 4,
    "phone": "03 527 8186"
  },
  {
    "id": "ChIJ0ajpYOo1aDQRFvj0fx5fkgI",
    "name": "榮記客家湯圓",
    "address": "300台灣新竹市東區武昌街64號",
    "region": "hsinchu_city",
    "latitude": 24.8021834,
    "longitude": 120.96786259999999,
    "orderLinks": [],
    "rating": 4.1,
    "phone": "03 523 8238"
  },
  {
    "id": "ChIJg1aZ5ZQ1aDQRxib5yEmSpr8",
    "name": "貳參咖啡-西門店「無訂位服務」",
    "address": "300台灣新竹市北區西門街152號",
    "region": "hsinchu_city",
    "latitude": 24.801079299999998,
    "longitude": 120.96268510000002,
    "orderLinks": [
      {
        "id": "b112b603-d924-40cd-829d-1a412061093f",
        "platform": "官網",
        "url": "https://www.instagram.com/23coffeeroasters2.0?igsh=MWNkZm1ucXgxNjYzcQ=="
      }
    ],
    "rating": 4.7,
    "phone": "03 523 2223"
  },
  {
    "id": "ChIJyfCDFoc1aDQRJduqajHrdPA",
    "name": "築間幸福鍋物 新竹中華店",
    "address": "300台灣新竹市北區中華路三段6號",
    "region": "hsinchu_city",
    "latitude": 24.7973231,
    "longitude": 120.9632943,
    "orderLinks": [
      {
        "id": "a71a45b6-31f7-422a-b51b-bd38f4694fe9",
        "platform": "官網",
        "url": "https://linktr.ee/jhujian6666"
      }
    ],
    "rating": 4.5,
    "phone": "03 524 3337"
  },
  {
    "id": "ChIJuTJ0aBQ1aDQRv323E4Wjtnk",
    "name": "嗑肉石鍋-新竹西門店(二代店)",
    "address": "300台灣新竹市北區西門街66號",
    "region": "hsinchu_city",
    "latitude": 24.802438,
    "longitude": 120.9646465,
    "orderLinks": [
      {
        "id": "7814354c-7554-42b4-965d-59e9fb086cfd",
        "platform": "官網",
        "url": "https://www.meatshotpot.com/"
      }
    ],
    "rating": 4.7,
    "phone": "03 526 6068"
  },
  {
    "id": "ChIJ1-ChtNQ1aDQRdpyukPL0qz4",
    "name": "海瑞摃丸新竹西門總店",
    "address": "300台灣新竹市北區西門街98號",
    "region": "hsinchu_city",
    "latitude": 24.801802499999997,
    "longitude": 120.96379119999997,
    "orderLinks": [
      {
        "id": "1fffd4e8-9f75-44f5-9401-4d03ab060098",
        "platform": "官網",
        "url": "https://www.hairei.com.tw/"
      }
    ],
    "rating": 4.3,
    "phone": "03 526 1115#11"
  },
  {
    "id": "ChIJgxLtY8g1aDQRhdQ0l6licm0",
    "name": "鴨肉許（中央店）",
    "address": "300台灣新竹市東區中央路296號",
    "region": "hsinchu_city",
    "latitude": 24.8100637,
    "longitude": 120.9777522,
    "orderLinks": [],
    "rating": 3.9,
    "phone": "03 532 3683"
  },
  {
    "id": "ChIJQyv318Q1aDQRYz_krC4mdb4",
    "name": "Big City遠東巨城購物中心",
    "address": "30041台灣新竹市東區中央路229號",
    "region": "hsinchu_city",
    "latitude": 24.8098161,
    "longitude": 120.9751319,
    "orderLinks": [
      {
        "id": "404a0924-b2ba-444f-ab15-2e192265203f",
        "platform": "官網",
        "url": "https://www.febigcity.com/bigcity"
      }
    ],
    "rating": 4.4,
    "phone": "03 623 8000"
  },
  {
    "id": "ChIJRU8ga8Q1aDQRtHRng5DN6V4",
    "name": "菜園上海餐廳",
    "address": "300台灣新竹市東區東大路一段136號",
    "region": "hsinchu_city",
    "latitude": 24.808519,
    "longitude": 120.97211199999998,
    "orderLinks": [],
    "rating": 4.5,
    "phone": "03 543 8898"
  },
  {
    "id": "ChIJ4-UpTj01aDQRRyUgXMxYZeg",
    "name": "享鴨 烤鴨與中華料理 新竹北大店",
    "address": "300台灣新竹市北區北大路140號",
    "region": "hsinchu_city",
    "latitude": 24.8102748,
    "longitude": 120.9684104,
    "orderLinks": [
      {
        "id": "9b271201-4365-4ae4-bda5-8b50376cb93d",
        "platform": "官網",
        "url": "https://www.facebook.com/XIANGDUCK/"
      }
    ],
    "rating": 4.8,
    "phone": "03 535 8689"
  },
  {
    "id": "ChIJETQYfME1aDQRia25uG7BIzg",
    "name": "私嚐の吃飯",
    "address": "300台灣新竹市東區中正路96巷16號300",
    "region": "hsinchu_city",
    "latitude": 24.8056537,
    "longitude": 120.97012289999999,
    "orderLinks": [
      {
        "id": "b61d762a-5435-4407-b6ab-e8caa4b5a4e9",
        "platform": "官網",
        "url": "https://www.facebook.com/eat20170319/"
      }
    ],
    "rating": 4.8,
    "phone": "03 525 2006"
  },
  {
    "id": "ChIJh0Kn1Qs1aDQRG5uBSCxubkY",
    "name": "麥當勞 新竹經國店",
    "address": "300台灣新竹市東區經國路一段522號號1樓",
    "region": "hsinchu_city",
    "latitude": 24.814601099999997,
    "longitude": 120.9767868,
    "orderLinks": [
      {
        "id": "e45a45fc-38b1-4303-bb67-676b334e2299",
        "platform": "官網",
        "url": "https://www.mcdonalds.com/tw/zh-tw/full-menu/mccafe.html"
      }
    ],
    "rating": 3.7,
    "phone": "03 535 6469"
  },
  {
    "id": "ChIJK_BsJwM1aDQRrSAouGbezP8",
    "name": "硬派主廚的軟嫩料理-東門市場",
    "address": "300台灣新竹市東區東門市場1143號中央路102巷10號",
    "region": "hsinchu_city",
    "latitude": 24.805497499999998,
    "longitude": 120.96914029999998,
    "orderLinks": [
      {
        "id": "b16cb431-6da5-41eb-8767-88c67956dbc8",
        "platform": "官網",
        "url": "https://www.instagram.com/hardcorechiefs?igsh=MTAyYjViaGYwMGlxcQ%3D%3D&utm_source=qr"
      }
    ],
    "rating": 4.5,
    "phone": "03 525 1323"
  },
  {
    "id": "ChIJe8VtwBw1aDQRgk0e3DIGfd8",
    "name": "招財咖啡",
    "address": "300台灣新竹市北區英明街6-1號",
    "region": "hsinchu_city",
    "latitude": 24.8069243,
    "longitude": 120.96746850000001,
    "orderLinks": [
      {
        "id": "2e6253b8-33cc-4f4b-ac28-4780e6a619c5",
        "platform": "inline",
        "url": "https://inline.app/booking/-Mtzt-ua60-H69xtv-9o:inline-live-2/-Mtzt07e6zaky3nEcqx0"
      }
    ],
    "rating": 4.6,
    "phone": "03 525 5602"
  },
  {
    "id": "ChIJPau9rjc1aDQRsSxlBGUC_jM",
    "name": "星巴克 新竹州圖門市",
    "address": "300台灣新竹市東區文化街8號",
    "region": "hsinchu_city",
    "latitude": 24.805214799999998,
    "longitude": 120.9712339,
    "orderLinks": [
      {
        "id": "962fde4e-30be-45d8-8aa2-3afd6476f9e8",
        "platform": "官網",
        "url": "https://www.starbucks.com.tw/home/index.jspx?r=15"
      }
    ],
    "rating": 4.3,
    "phone": "03 522 8587"
  },
  {
    "id": "ChIJ_9ABIMc1aDQRCO1p9dxKbCo",
    "name": "小稻甜 Cafe",
    "address": "300台灣新竹市北區北大路166巷1弄1號",
    "region": "hsinchu_city",
    "latitude": 24.809946999999998,
    "longitude": 120.96754619999999,
    "orderLinks": [
      {
        "id": "439f1508-52c9-4015-bfe7-05bd51458295",
        "platform": "官網",
        "url": "http://www.facebook.com/%E5%B0%8F%E7%A8%BB%E7%94%9Ccafe-1759074137656305/"
      }
    ],
    "rating": 4.3,
    "phone": "03 522 5539"
  },
  {
    "id": "ChIJx6GoixY1aDQRxsR6FvE2zQI",
    "name": "JAI宅 義大利麵 新竹巨城",
    "address": "300台灣新竹市東區民權路195號",
    "region": "hsinchu_city",
    "latitude": 24.809943699999998,
    "longitude": 120.9732233,
    "orderLinks": [
      {
        "id": "1f00b2be-cbd9-418e-844d-8cd068762150",
        "platform": "官網",
        "url": "https://www.zunhongtw.com/"
      }
    ],
    "rating": 4.5,
    "phone": "03 543 9988"
  },
  {
    "id": "ChIJpdWHNb01aDQRqHZADwn0ETU",
    "name": "皿富器食 minfood",
    "address": "300台灣新竹市東區錦華街18巷22號",
    "region": "hsinchu_city",
    "latitude": 24.8095958,
    "longitude": 120.9735533,
    "orderLinks": [
      {
        "id": "a91951e2-7793-417b-877c-25b8dc923e48",
        "platform": "官網",
        "url": "https://www.facebook.com/pages/category/Restaurant/%E7%9A%BF%E5%AF%8C%E5%99%A8%E9%A3%9F-min-food-730091614009830/"
      }
    ],
    "rating": 4.2,
    "phone": "03 535 0908"
  },
  {
    "id": "ChIJu4Mmbrw1aDQRQRhtKEo2d0g",
    "name": "夯下去和牛燒肉放題-新竹經國店",
    "address": "300台灣新竹市東區經國路一段673號寶雅、燦坤對面1樓",
    "region": "hsinchu_city",
    "latitude": 24.813608799999997,
    "longitude": 120.96849619999999,
    "orderLinks": [
      {
        "id": "80b9f26f-bd2e-4f92-9de1-f623a0ee015f",
        "platform": "官網",
        "url": "https://www.facebook.com/profile.php?id=100092665744582"
      }
    ],
    "rating": 4.5,
    "phone": "03 531 0363"
  },
  {
    "id": "ChIJJTpUEMA1aDQRze7yA22mBgw",
    "name": "新竹市城隍廟夜市",
    "address": "300台灣新竹市北區中山路75號",
    "region": "hsinchu_city",
    "latitude": 24.804381000000003,
    "longitude": 120.9656054,
    "orderLinks": [],
    "rating": 4.3,
    "phone": "03 522 3666"
  },
  {
    "id": "ChIJRY-PXcA1aDQRKxwFiYrBaBU",
    "name": "許二姊",
    "address": "300台灣新竹市北區北門街35號",
    "region": "hsinchu_city",
    "latitude": 24.8056834,
    "longitude": 120.9657791,
    "orderLinks": [
      {
        "id": "83251da3-73e7-4185-83a7-06bd5b6f6cfd",
        "platform": "官網",
        "url": "https://www.facebook.com/HsinchuDuckBoss"
      }
    ],
    "rating": 3.9,
    "phone": "03 524 6574"
  },
  {
    "id": "ChIJDXIE_781aDQRqmf_04ObosU",
    "name": "廟口鴨香飯",
    "address": "300台灣新竹市北區中山路142號",
    "region": "hsinchu_city",
    "latitude": 24.804113899999997,
    "longitude": 120.96450829999999,
    "orderLinks": [
      {
        "id": "a4658560-536a-4167-b4ff-237023eddbb2",
        "platform": "官網",
        "url": "https://www.facebook.com/%E5%BB%9F%E5%8F%A3%E9%B4%A8%E9%A6%99%E9%A3%AF-208058359219862/"
      }
    ],
    "rating": 4.2,
    "phone": "03 523 1190"
  },
  {
    "id": "ChIJsYKD1781aDQRG5QMKQH-qNA",
    "name": "西大發",
    "address": "300台灣新竹市北區長安街3號",
    "region": "hsinchu_city",
    "latitude": 24.8047547,
    "longitude": 120.96548,
    "orderLinks": [
      {
        "id": "8f7cec70-f5e5-4068-9ae5-999e4a3a2000",
        "platform": "官網",
        "url": "https://www.shidafa.com.tw/"
      }
    ],
    "rating": 3.8,
    "phone": "03 525 9115"
  },
  {
    "id": "ChIJ44IrY8c1aDQRNEqX2EYgtmU",
    "name": "源味燉品屋",
    "address": "300台灣新竹市北區中正路217號",
    "region": "hsinchu_city",
    "latitude": 24.811301399999998,
    "longitude": 120.9647876,
    "orderLinks": [
      {
        "id": "8dc25a46-ddcc-4e2f-824a-56352d850504",
        "platform": "官網",
        "url": "https://www.facebook.com/pages/%E5%8E%9F%E5%91%B3%E7%87%89%E5%93%81%E5%B1%8B/331001370363962"
      }
    ],
    "rating": 4,
    "phone": "03 525 1361"
  },
  {
    "id": "ChIJu6cle7g1aDQRwuqiQ4MHZQI",
    "name": "華麗風采宴會館",
    "address": "300台灣新竹市北區中正路245號6樓",
    "region": "hsinchu_city",
    "latitude": 24.8124576,
    "longitude": 120.9639005,
    "orderLinks": [
      {
        "id": "4b8b95c2-609b-4ba4-88ee-a88f22741d68",
        "platform": "官網",
        "url": "http://5359898.com/"
      }
    ],
    "rating": 4.4,
    "phone": "03 535 9898"
  },
  {
    "id": "ChIJ1chtBMA1aDQRg41-cUvrhag",
    "name": "西市汕頭館總店",
    "address": "300台灣新竹市北區西安街70號",
    "region": "hsinchu_city",
    "latitude": 24.8042221,
    "longitude": 120.965153,
    "orderLinks": [
      {
        "id": "3847d10a-405d-4268-9021-f8d7d745e18c",
        "platform": "官網",
        "url": "https://www.facebook.com/westmarketseto/"
      }
    ],
    "rating": 4.2,
    "phone": "03 524 4430"
  },
  {
    "id": "ChIJJ0LUXJM1aDQRVwVa1zUeW30",
    "name": "西堤牛排 新竹中正店",
    "address": "300台灣新竹市北區中正路178號2樓",
    "region": "hsinchu_city",
    "latitude": 24.8097468,
    "longitude": 120.96640889999998,
    "orderLinks": [
      {
        "id": "d649ead8-3deb-4e26-acde-d438002f8142",
        "platform": "官網",
        "url": "http://www.tasty.com.tw/"
      }
    ],
    "rating": 4.8,
    "phone": "03 524 5522"
  },
  {
    "id": "ChIJT2fcS8c1aDQR9SAPp2Frt-Y",
    "name": "滿美吐司部",
    "address": "300台灣新竹市北區北門街216號",
    "region": "hsinchu_city",
    "latitude": 24.8095366,
    "longitude": 120.9655368,
    "orderLinks": [
      {
        "id": "9154e1e3-480a-427c-a196-23832b4d1505",
        "platform": "官網",
        "url": "https://facebook.com/manmeitoast/"
      }
    ],
    "rating": 4.2,
    "phone": null
  },
  {
    "id": "ChIJ74RKjLE1aDQRmppg4eWQnRY",
    "name": "Hidden off",
    "address": "300台灣新竹市北區建興街13號",
    "region": "hsinchu_city",
    "latitude": 24.8079581,
    "longitude": 120.9668323,
    "orderLinks": [
      {
        "id": "1f6e1b1d-c207-40a8-8218-2973507d6499",
        "platform": "官網",
        "url": "https://www.instagram.com/hiddenoff.off/"
      }
    ],
    "rating": 4.7,
    "phone": null
  },
  {
    "id": "ChIJDX6EJuY1aDQR90hL9fG62uY",
    "name": "涮樂和牛鍋物 食べ放題 第一品牌-新竹經國店",
    "address": "300台灣新竹市東區經國路一段673-1號2F",
    "region": "hsinchu_city",
    "latitude": 24.813608799999997,
    "longitude": 120.96849619999999,
    "orderLinks": [
      {
        "id": "1f89bcf7-08f4-426f-ae80-ec680124faa0",
        "platform": "官網",
        "url": "https://www.facebook.com/enjoyshabushabu/"
      }
    ],
    "rating": 4.8,
    "phone": "03 531 0373"
  },
  {
    "id": "ChIJy1_6TbI1aDQRywttBN2aJds",
    "name": "陳阿姨火鍋灶咖 新竹店",
    "address": "300台灣新竹市北區經國路二段382號",
    "region": "hsinchu_city",
    "latitude": 24.8074867,
    "longitude": 120.95725059999998,
    "orderLinks": [
      {
        "id": "1fad39d7-8573-41cd-b42f-4f715fc5d5c9",
        "platform": "官網",
        "url": "https://www.facebook.com/110091038501061/posts/pfbid0h8PbZJMqgV4TYtpe3oXCruTBjtPrL3KLuz4fwCimcUAkPb3yKuup8xdyaZu94X9xl/?d=n"
      }
    ],
    "rating": 4.5,
    "phone": "0966 888 072"
  },
  {
    "id": "ChIJlfxHtcs1aDQRaM6NSK5SY1w",
    "name": "荷竹園",
    "address": "300台灣新竹市北區湳中街63號",
    "region": "hsinchu_city",
    "latitude": 24.820538499999998,
    "longitude": 120.96565559999999,
    "orderLinks": [
      {
        "id": "55c7eeb7-ae46-4829-a04e-49d2f03f60f8",
        "platform": "官網",
        "url": "http://www.hochuyuan.com.tw/"
      }
    ],
    "rating": 4.5,
    "phone": "03 531 3816"
  },
  {
    "id": "ChIJ0yYxW8c1aDQRiele0iAXXxY",
    "name": "鴨肉許（中正店）",
    "address": "300台灣新竹市北區中正路212號",
    "region": "hsinchu_city",
    "latitude": 24.81067,
    "longitude": 120.96578799999999,
    "orderLinks": [],
    "rating": 3.3,
    "phone": "03 525 3290"
  },
  {
    "id": "ChIJWZDhZ8c1aDQRlhhQ1Ce9gsc",
    "name": "大埔鐵板燒（中正店）",
    "address": "300台灣新竹市北區中正路197號",
    "region": "hsinchu_city",
    "latitude": 24.810443799999998,
    "longitude": 120.9653115,
    "orderLinks": [
      {
        "id": "daba3716-339b-4874-9e40-bb0144abc6ad",
        "platform": "官網",
        "url": "https://www.facebook.com/pages/%E5%A4%A7%E5%9F%94%E9%90%B5%E6%9D%BF%E7%87%92%E6%96%B0%E7%AB%B9%E4%B8%AD%E6%AD%A3%E5%BA%97/168041996579359"
      }
    ],
    "rating": 4,
    "phone": "03 523 1112"
  },
  {
    "id": "ChIJl-Yif8c1aDQRVj--UtRGWDg",
    "name": "廟口鴨香飯中正店",
    "address": "300台灣新竹市北區中正路258號",
    "region": "hsinchu_city",
    "latitude": 24.8116713,
    "longitude": 120.9648148,
    "orderLinks": [
      {
        "id": "edec5a80-791c-42a7-a989-63ef8d6f368f",
        "platform": "官網",
        "url": "https://www.facebook.com/p/%E5%BB%9F%E5%8F%A3%E9%B4%A8%E9%A6%99%E9%A3%AF-100063589943815/?locale=zh_TW"
      }
    ],
    "rating": 4.3,
    "phone": "03 535 9298"
  },
  {
    "id": "ChIJAUKyi8Y1aDQR4AafREeOXcs",
    "name": "西市汕頭館 北大店",
    "address": "300台灣新竹市北區北大路106號",
    "region": "hsinchu_city",
    "latitude": 24.8107184,
    "longitude": 120.96922149999999,
    "orderLinks": [
      {
        "id": "6aa157cc-1e2e-4730-bc4f-6a0565d84845",
        "platform": "官網",
        "url": "https://www.facebook.com/westmarketseto"
      }
    ],
    "rating": 3.8,
    "phone": "03 534 0065"
  },
  {
    "id": "ChIJXWGWksY1aDQRFrauvUJKv8w",
    "name": "星巴克 新竹北大門市",
    "address": "300台灣新竹市北區北大路109號",
    "region": "hsinchu_city",
    "latitude": 24.810272100000002,
    "longitude": 120.9690116,
    "orderLinks": [
      {
        "id": "99e982c3-c8ab-40de-b08a-5c4f63ac7baf",
        "platform": "官網",
        "url": "http://www.starbucks.com.tw/"
      }
    ],
    "rating": 4.2,
    "phone": "03 531 8292"
  },
  {
    "id": "ChIJo-U5MLI1aDQRbKfqi2OG-0U",
    "name": "邊境串燒 SideBBQ 新竹",
    "address": "300台灣新竹市北區北大路166巷8弄3號在演藝路上",
    "region": "hsinchu_city",
    "latitude": 24.8104743,
    "longitude": 120.9677721,
    "orderLinks": [
      {
        "id": "2229ac9e-5af5-4ee0-95b7-861297ab602d",
        "platform": "iCHEF",
        "url": "https://shop.ichefpos.com/store/6zS4IhgL/ordering"
      }
    ],
    "rating": 4.5,
    "phone": "03 543 0050"
  },
  {
    "id": "ChIJaeigl8k1aDQRlHfeFZn18lw",
    "name": "段純貞牛肉麵",
    "address": "300台灣新竹市北區武陵路96號",
    "region": "hsinchu_city",
    "latitude": 24.818184,
    "longitude": 120.9669774,
    "orderLinks": [
      {
        "id": "130ff828-0242-4962-93bf-cb8d75543348",
        "platform": "官網",
        "url": "https://quickorder.prox.com.tw/d674caac-3997-4676-8935-3cfce3006f68"
      }
    ],
    "rating": 4.2,
    "phone": "03 540 8165"
  },
  {
    "id": "ChIJB8V2xr01aDQRGXzZdJdFuNw",
    "name": "家欣樓",
    "address": "300台灣新竹市北區經國路二段399號",
    "region": "hsinchu_city",
    "latitude": 24.807381499999998,
    "longitude": 120.95765279999999,
    "orderLinks": [
      {
        "id": "07955437-9185-44e3-a2aa-8bc42b9c5e79",
        "platform": "官網",
        "url": "https://zh-tw.facebook.com/JIASHIN399.restaurant/"
      }
    ],
    "rating": 4,
    "phone": "03 521 6802"
  },
  {
    "id": "ChIJPe-V-Tw1aDQR9Fx85Hvlotk",
    "name": "陳記胡椒豬肚雞",
    "address": "300台灣新竹市北區東大路二段156號1樓",
    "region": "hsinchu_city",
    "latitude": 24.8152963,
    "longitude": 120.96652250000001,
    "orderLinks": [
      {
        "id": "00f0542c-6e52-4897-8f91-0d90aaf24bbe",
        "platform": "官網",
        "url": "https://m.facebook.com/chenji156/"
      }
    ],
    "rating": 4.7,
    "phone": "03 535 2685"
  },
  {
    "id": "ChIJwUDGSiw1aDQRKGVZEjkvruw",
    "name": "El Mundo墨多(統一官方Line訂位）不定期公休",
    "address": "300台灣新竹市北區士林一街50號",
    "region": "hsinchu_city",
    "latitude": 24.820452400000004,
    "longitude": 120.95420289999998,
    "orderLinks": [
      {
        "id": "4c003825-57cf-41f0-97f2-a86e1a42bd01",
        "platform": "官網",
        "url": "https://lin.ee/zsMlxtB"
      }
    ],
    "rating": 4.6,
    "phone": null
  },
  {
    "id": "ChIJDSVMuMs1aDQRxdBCLoH3p44",
    "name": "喝ㄐㄧㄡˇ大學 瑞禎海鮮",
    "address": "300台灣新竹市北區東大路二段736號",
    "region": "hsinchu_city",
    "latitude": 24.825108699999998,
    "longitude": 120.9571639,
    "orderLinks": [
      {
        "id": "238c90ab-3630-4248-8b6d-a2455e2f349d",
        "platform": "官網",
        "url": "https://www.facebook.com/1832312126817128/"
      }
    ],
    "rating": 4.2,
    "phone": "03 535 3111"
  },
  {
    "id": "ChIJE2d9b7o1aDQRbjUEH-8UgwY",
    "name": "哈囉炸醬麵",
    "address": "300台灣新竹市北區成功路37號",
    "region": "hsinchu_city",
    "latitude": 24.8155381,
    "longitude": 120.9568,
    "orderLinks": [
      {
        "id": "eace7887-c116-43e4-b9d3-f7f968502c17",
        "platform": "官網",
        "url": "https://www.facebook.com/ParrotHelloNoodle/"
      }
    ],
    "rating": 4,
    "phone": "03 533 8849"
  },
  {
    "id": "ChIJ5VgelgQ1aDQRFYHygK1NsDk",
    "name": "青丹扎西龍松店",
    "address": "No. 273號, No. 273東大路二段北區新竹市台灣 300",
    "region": "hsinchu_city",
    "latitude": 24.817280999999998,
    "longitude": 120.96363339999999,
    "orderLinks": [],
    "rating": 4.8,
    "phone": "03 531 0178"
  },
  {
    "id": "ChIJ3x7spAc1aDQR3l2qAdLbgp0",
    "name": "栖穗 Nanasai | 不定期店休請參閱粉絲專頁",
    "address": "300台灣新竹市北區東大路二段220號",
    "region": "hsinchu_city",
    "latitude": 24.817828499999997,
    "longitude": 120.9639668,
    "orderLinks": [
      {
        "id": "60fc0203-49b6-4cb8-bd6e-4ff647bbc8e5",
        "platform": "官網",
        "url": "https://www.instagram.com/nanasai_hsinchu"
      }
    ],
    "rating": 4.8,
    "phone": "0987 685 326"
  },
  {
    "id": "ChIJX-prvbk1aDQRqe9vX5PnLLw",
    "name": "正莊山東饅頭",
    "address": "300台灣新竹市北區竹光路67號",
    "region": "hsinchu_city",
    "latitude": 24.813672099999998,
    "longitude": 120.96045600000001,
    "orderLinks": [
      {
        "id": "9f433709-1747-40ce-a53d-4b8a14b8d68a",
        "platform": "官網",
        "url": "https://www.facebook.com/%E6%AD%A3%E8%8E%8A%E5%B1%B1%E6%9D%B1%E9%A5%85%E9%A0%AD-118071031615325/"
      }
    ],
    "rating": 4.3,
    "phone": "03 534 0519"
  },
  {
    "id": "ChIJfRwarG81aDQRjmhl47qMWCY",
    "name": "發財關東煮-日式屋台餐車(近日家中有事情 暫停營業)",
    "address": "300台灣新竹市北區中正路768號",
    "region": "hsinchu_city",
    "latitude": 24.819652400000003,
    "longitude": 120.953814,
    "orderLinks": [
      {
        "id": "3ca6b75e-8f72-4755-bcd6-0b5fe0e9fb02",
        "platform": "官網",
        "url": "https://www.facebook.com/%E7%99%BC%E8%B2%A1%E9%97%9C%E6%9D%B1%E7%85%AE-%E6%97%A5%E5%BC%8F%E5%B1%8B%E5%8F%B0%E9%A4%90%E8%BB%8A-101270355560736"
      }
    ],
    "rating": 4.7,
    "phone": "0930 300 700"
  },
  {
    "id": "ChIJ0fnidm01aDQR2HbIJfXqpKo",
    "name": "【岩嶼塘 x Salt Sugar】新竹早午餐 私廚包場 不定期公休請至IG查詢",
    "address": "300台灣新竹市北區金雅三街95巷9號",
    "region": "hsinchu_city",
    "latitude": 24.826956499999998,
    "longitude": 120.96389190000001,
    "orderLinks": [
      {
        "id": "5367982b-c77f-4b77-9952-80c7b146abca",
        "platform": "官網",
        "url": "http://www.facebook.com/saltandsugartaiwan"
      }
    ],
    "rating": 4.5,
    "phone": "03 535 1771"
  },
  {
    "id": "ChIJwRudyfw1aDQRWIDS6qytZoY",
    "name": "騎士漢堡 Knight Burger（不定休 請參考IG",
    "address": "300台灣新竹市北區士林西路12號",
    "region": "hsinchu_city",
    "latitude": 24.8208375,
    "longitude": 120.9534628,
    "orderLinks": [
      {
        "id": "2700b665-5d0e-40ad-a34e-4ec629df420a",
        "platform": "官網",
        "url": "https://instagram.com/knightburger_?igshid=MzRlODBiNWFlZA=="
      }
    ],
    "rating": 4.8,
    "phone": "03 534 9998"
  },
  {
    "id": "ChIJPRJbNNQ1aDQR0cgLih6d-4g",
    "name": "想咖啡・Miss Café",
    "address": "300台灣新竹市北區金雅一街16號",
    "region": "hsinchu_city",
    "latitude": 24.8242041,
    "longitude": 120.96300110000001,
    "orderLinks": [
      {
        "id": "fc9b5d88-8a94-4c42-93bd-2ec9e9de8644",
        "platform": "官網",
        "url": "http://www.facebook.com/misscafe20"
      }
    ],
    "rating": 4.7,
    "phone": "0903 088 420"
  },
  {
    "id": "ChIJVXsfjrY1aDQRJXgOvfNmPU0",
    "name": "樹林頭麵店",
    "address": "300台灣新竹市北區東大路二段423號",
    "region": "hsinchu_city",
    "latitude": 24.8198474,
    "longitude": 120.9611573,
    "orderLinks": [
      {
        "id": "d825e38e-10aa-4139-b59a-0768e0bcde6c",
        "platform": "官網",
        "url": "https://www.facebook.com/pages/category/Local-Business/%E6%A8%B9%E6%9E%97%E9%A0%AD%E9%BA%B5%E5%BA%97-150190075089196"
      }
    ],
    "rating": 4.2,
    "phone": "03 531 4945"
  },
  {
    "id": "ChIJt6d-z5c1aDQRlSDkSPN3BpQ",
    "name": "金陵包子",
    "address": "300台灣新竹市北區成功路91號",
    "region": "hsinchu_city",
    "latitude": 24.8146874,
    "longitude": 120.9557095,
    "orderLinks": [
      {
        "id": "f44f9b6b-41a8-4c4d-afa2-f960fe34cb04",
        "platform": "官網",
        "url": "https://www.facebook.com/JinlingBuns"
      }
    ],
    "rating": 3.8,
    "phone": "03 535 0728"
  },
  {
    "id": "ChIJ-2jnobA1aDQRYWyz5ypuEdk",
    "name": "Easy Life Cafe 簡單生活",
    "address": "300台灣新竹市北區中正路516號",
    "region": "hsinchu_city",
    "latitude": 24.8165317,
    "longitude": 120.95760589999999,
    "orderLinks": [],
    "rating": 4.1,
    "phone": "03 533 9373"
  },
  {
    "id": "ChIJ7_X7Ds41aDQREwnLn-aW3BQ",
    "name": "傻瓜麵創意料理",
    "address": "300台灣新竹市北區湳中街80-1號",
    "region": "hsinchu_city",
    "latitude": 24.821690699999998,
    "longitude": 120.96454489999999,
    "orderLinks": [
      {
        "id": "ca2a8457-0219-4977-9a97-514c694b0bfa",
        "platform": "官網",
        "url": "https://www.facebook.com/Kou9551/"
      }
    ],
    "rating": 4.2,
    "phone": "03 531 5175"
  },
  {
    "id": "ChIJdWYm67c1aDQR__x7sfAgGRk",
    "name": "綠舍奇蹟健康蔬食",
    "address": "300台灣新竹市北區武陵路30號",
    "region": "hsinchu_city",
    "latitude": 24.816032999999997,
    "longitude": 120.9632401,
    "orderLinks": [],
    "rating": 4.3,
    "phone": "03 532 2727"
  },
  {
    "id": "ChIJx6bL33U1aDQRkcu0AajGFyM",
    "name": "法諾義式廚房-金雅店-新竹推薦義式料理|人氣義式餐廳|必吃義大利麵|手做比薩推薦|平價義大利麵|平價美食推薦",
    "address": "300台灣新竹市北區金雅六街72號1樓",
    "region": "hsinchu_city",
    "latitude": 24.8265751,
    "longitude": 120.9654374,
    "orderLinks": [
      {
        "id": "d9039ece-140d-42ec-aa45-b54623f06d82",
        "platform": "官網",
        "url": "https://store.dudooeat.com/order/store/1b1408d295c1456bbeda2af555edf801"
      }
    ],
    "rating": 4.1,
    "phone": "03 542 0292"
  },
  {
    "id": "ChIJd3ZI2M81aDQRQvzyACz4vTI",
    "name": "民生阿典廚房",
    "address": "300台灣新竹市北區中正路538號",
    "region": "hsinchu_city",
    "latitude": 24.816900000000004,
    "longitude": 120.95700199999999,
    "orderLinks": [
      {
        "id": "6c64ef72-1248-49b2-8a40-3f8e39a623f2",
        "platform": "官網",
        "url": "https://www.facebook.com/tel035347794/"
      }
    ],
    "rating": 3.9,
    "phone": "03 534 7794"
  },
  {
    "id": "ChIJg4wERuA1aDQRuGdBaoKHBbw",
    "name": "麥味登新竹竹文店-新竹電話點餐自取早餐店",
    "address": "300台灣新竹市北區竹光路46號",
    "region": "hsinchu_city",
    "latitude": 24.814465799999997,
    "longitude": 120.9607772,
    "orderLinks": [
      {
        "id": "d3be3cd1-269c-4efd-9abf-7bd0b61c2366",
        "platform": "官網",
        "url": "http://www.mwd.com.tw/"
      }
    ],
    "rating": 4.1,
    "phone": "03 533 3181"
  },
  {
    "id": "ChIJB4G6K6E1aDQRYeIazexvVf0",
    "name": "光之食艷室 咖啡&披薩 LIGHT FOOD STUDIO Coffee&Pizza｛僅供外帶｝",
    "address": "300台灣新竹市北區金雅路133巷8弄38號",
    "region": "hsinchu_city",
    "latitude": 24.825073999999997,
    "longitude": 120.9649591,
    "orderLinks": [
      {
        "id": "61905340-ecd1-4192-bded-24165f35f4f0",
        "platform": "官網",
        "url": "https://www.facebook.com/lightfoodstudio/?locale=zh_TW"
      }
    ],
    "rating": 4.7,
    "phone": "0928 931 680"
  },
  {
    "id": "ChIJVytuY5o1aDQRJT6neMfAez4",
    "name": "麥當勞-新竹經國二餐廳－設有得來速",
    "address": "300台灣新竹市香山區經國路三段11號",
    "region": "hsinchu_city",
    "latitude": 24.7999215,
    "longitude": 120.9539195,
    "orderLinks": [
      {
        "id": "ca24b77f-ed06-4e94-bd5a-2616d9a2d998",
        "platform": "官網",
        "url": "https://www.mcdonalds.com/tw/zh-tw.html"
      }
    ],
    "rating": 3.8,
    "phone": "03 539 9826"
  },
  {
    "id": "ChIJSe6LCb41aDQR_xnUlsUXSBk",
    "name": "老店薑母雞 全臺首創薑母雞-推薦在地必吃平價美食 火鍋(新竹北區)夜間宵夜 露營必備美食菜單 薑母鴨 薑母雞 狀元雞 首烏雞 淮蔘雞 烏骨雞肉 溫體雞 火鍋 中藥燉煮 PTT",
    "address": "300台灣新竹市北區少年街51號",
    "region": "hsinchu_city",
    "latitude": 24.806205799999997,
    "longitude": 120.9590554,
    "orderLinks": [
      {
        "id": "03a2cedc-3b6e-41ac-a0de-99919c93a03e",
        "platform": "官網",
        "url": "http://www.classicchicken.com.tw/"
      }
    ],
    "rating": 4.3,
    "phone": "03 528 4895"
  },
  {
    "id": "ChIJWwpCmJA1aDQR1BqykmKoEAY",
    "name": "くら寿司 藏壽司 新竹經國路店",
    "address": "300台灣新竹市香山區經國路三段33號2樓",
    "region": "hsinchu_city",
    "latitude": 24.799683599999998,
    "longitude": 120.9538126,
    "orderLinks": [
      {
        "id": "331c8e67-d3c2-46e4-8f92-a1f74d8c4ec1",
        "platform": "官網",
        "url": "https://kurasushi.tw/shops"
      }
    ],
    "rating": 4.1,
    "phone": null
  },
  {
    "id": "ChIJNUPAjJc1aDQR7weL5SivAj8",
    "name": "延平大飯店",
    "address": "300台灣新竹市北區延平路一段236號號旁",
    "region": "hsinchu_city",
    "latitude": 24.8051642,
    "longitude": 120.9538438,
    "orderLinks": [
      {
        "id": "12e180d9-4f26-4bbc-b67f-b09fc2ab377a",
        "platform": "官網",
        "url": "https://ywayway.pixnet.net/blog/post/117096860"
      }
    ],
    "rating": 4.1,
    "phone": "03 522 1026"
  },
  {
    "id": "ChIJ88ADo8Y1aDQRvLtldNhfiEg",
    "name": "薯霸早餐",
    "address": "30042台灣新竹市東區世界街88號",
    "region": "hsinchu_city",
    "latitude": 24.8090599,
    "longitude": 120.96968969999999,
    "orderLinks": [],
    "rating": 4.3,
    "phone": "03 542 2571"
  },
  {
    "id": "ChIJs7r1FAY1aDQRCVgCJdd1Xvs",
    "name": "福氣廚房-新竹世界店",
    "address": "300台灣新竹市東區世界街95號",
    "region": "hsinchu_city",
    "latitude": 24.8089391,
    "longitude": 120.96976199999999,
    "orderLinks": [
      {
        "id": "0c7fc259-332d-4571-aca9-82ff737229b7",
        "platform": "官網",
        "url": "https://www.facebook.com/pg/%E7%A6%8F%E6%B0%A3%E5%B9%B8%E3%81%9B-%E6%96%B0%E7%AB%B9%E4%B8%96%E7%95%8C%E5%BA%97-101764435114171/about/?ref=page_internal"
      }
    ],
    "rating": 4.6,
    "phone": "03 533 5899"
  },