[
  {
    "id": "ChIJ8-Ir3xE2aDQRe7VYwqceEkQ",
    "name": "麥當勞-新竹交大餐廳",
    "address": "300台灣新竹市東區女二舍國立交通大學B棟1F大學路1001號之",
    "region": "hsinchu_city",
    "latitude": 24.784781499999998,
    "longitude": 120.99912020000001,
    "orderLinks": [
      {
        "id": "09a291fc-9a2f-4ff3-86ca-8e3d6b291737",
        "platform": "官網",
        "url": "https://www.mcdonalds.com/tw/zh-tw.html"
      }
    ],
    "rating": 4
  },
  {
    "id": "ChIJk5rJxR42aDQRUs45baSmRHI",
    "name": "漢堡王 Burger King 竹科店",
    "address": "300台灣新竹市東區工業東二路1號",
    "region": "hsinchu_city",
    "latitude": 24.779784799999998,
    "longitude": 121.005538,
    "orderLinks": [
      {
        "id": "ccaa40f2-9fd6-4e41-aca7-807b8a1404f5",
        "platform": "官網",
        "url": "https://www.burgerking.com.tw/"
      }
    ],
    "rating": 4
  },
  {
    "id": "ChIJixrR5xE2aDQRcSR1SqrnbRs",
    "name": "小木屋鬆餅 交大店",
    "address": "300台灣新竹市東區大學路1001號交通大學資訊技術服務中心前餐亭",
    "region": "hsinchu_city",
    "latitude": 24.7876683,
    "longitude": 120.99761310000001,
    "orderLinks": [
      {
        "id": "9b4afdf6-9b97-460b-8df1-5124a5013967",
        "platform": "官網",
        "url": "https://shinemood2006.com/"
      }
    ],
    "rating": 4.4
  },
  {
    "id": "ChIJ76MBfAA3aDQRi_IbQ18TJnw",
    "name": "星巴克 瑞昱門市",
    "address": "300台灣新竹市東區園區二路9號",
    "region": "hsinchu_city",
    "latitude": 24.7806554,
    "longitude": 120.99812329999997,
    "orderLinks": [],
    "rating": 4.2
  },
  {
    "id": "ChIJOUiFNwQ3aDQRjdcM2Tsh48c",
    "name": "安妞韓國烤肉食堂-新竹竹科店",
    "address": "30075台灣新竹市東區工業東二路1號科技生活館1樓",
    "region": "hsinchu_city",
    "latitude": 24.7798448,
    "longitude": 121.0056449,
    "orderLinks": [
      {
        "id": "2632a55f-0680-4d0c-9625-2cfbfbe5f271",
        "platform": "inline",
        "url": "https://inline.app/booking/-MxlOnofn8Ew22KvmQpW:inline-live-2/-N5hr_1uGdyl7aNIYR5l"
      }
    ],
    "rating": 4.7
  },
  {
    "id": "ChIJ1R1lGRA2aDQR0OU4Hv0sMnU",
    "name": "LALA Kitchen 交大店",
    "address": "300台灣新竹市東區大學路1001號",
    "region": "hsinchu_city",
    "latitude": 24.786283599999997,
    "longitude": 120.99969309999999,
    "orderLinks": [
      {
        "id": "563b0bda-179d-4374-8d3c-63dd3fc5a41f",
        "platform": "官網",
        "url": "https://www.facebook.com/NolaKitchenNCTU"
      }
    ],
    "rating": 3.8
  },
  {
    "id": "ChIJEaCmPQc2aDQRU3KNyg4as2I",
    "name": "車庫町日式咖哩，丼飯",
    "address": "300台灣新竹市東區寶山路452巷8弄13號",
    "region": "hsinchu_city",
    "latitude": 24.7834315,
    "longitude": 120.98986389999997,
    "orderLinks": [
      {
        "id": "3a2b64ad-664e-4005-8b9c-69084c9096a1",
        "platform": "官網",
        "url": "https://www.facebook.com/%E8%BB%8A%E5%BA%AB%E7%94%BA%E6%97%A5%E5%BC%8F%E5%92%96%E5%93%A9%E4%B8%BC%E9%A3%AF-400392670359308/"
      }
    ],
    "rating": 4.2
  },
  {
    "id": "ChIJO34F0_81aDQRFoGVWM8hLR4",
    "name": "雲南泰式小吃",
    "address": "300台灣新竹市東區高翠路217號",
    "region": "hsinchu_city",
    "latitude": 24.7799384,
    "longitude": 120.98697219999998,
    "orderLinks": [
      {
        "id": "7d1a5536-27e9-4a87-85d3-08243e89ecd6",
        "platform": "官網",
        "url": "https://amy77.com/blog/post/26204574"
      }
    ],
    "rating": 4.3
  },
  {
    "id": "ChIJsdKBkTc3aDQRWXucR4NgusY",
    "name": "漢堡王 交大店",
    "address": "300台灣新竹市東區大學路1001號研三舍餐廳",
    "region": "hsinchu_city",
    "latitude": 24.783808999999998,
    "longitude": 120.9971564,
    "orderLinks": [
      {
        "id": "5c74b94b-ba7e-40f4-b6c8-64aff3151fa4",
        "platform": "官網",
        "url": "http://www.burgerking.com.tw/"
      }
    ],
    "rating": 4.1
  },
  {
    "id": "ChIJ_X-SXBk2aDQR2gweJGKLUEA",
    "name": "禾園茶館",
    "address": "300台灣新竹市東區工業東二路1號3樓",
    "region": "hsinchu_city",
    "latitude": 24.779719099999998,
    "longitude": 121.00542099999998,
    "orderLinks": [
      {
        "id": "2b47153f-81cd-4398-8abc-a78d88c90317",
        "platform": "官網",
        "url": "https://www.facebook.com/Heyuan.tea/"
      }
    ],
    "rating": 4.5
  },
  {
    "id": "ChIJhw6zlas3aDQRzYz7p8GDrUo",
    "name": "安好食 寶山店",
    "address": "300台灣新竹市東區寶山路418號",
    "region": "hsinchu_city",
    "latitude": 24.7848501,
    "longitude": 120.9899493,
    "orderLinks": [
      {
        "id": "246f84fe-ca22-4cc3-a70a-8e83d5649c51",
        "platform": "官網",
        "url": "https://app.eats365pos.com/tw/tc/anhao_food_treasure_mountain"
      }
    ],
    "rating": 4.8
  },
  {
    "id": "ChIJiYFArvY3aDQRRNGDeggpPCk",
    "name": "Nude 裸色茶啡",
    "address": "300台灣新竹市東區創新二路7號",
    "region": "hsinchu_city",
    "latitude": 24.7791463,
    "longitude": 120.9962314,
    "orderLinks": [
      {
        "id": "11005947-a0a4-4469-aa44-06b2d63b7592",
        "platform": "官網",
        "url": "https://www.facebook.com/nudetrendycafe/"
      }
    ],
    "rating": 4.4
  },
  {
    "id": "ChIJ4WQ8CAA3aDQR-emAFviWHvs",
    "name": "義早早午餐-新竹交大店",
    "address": "300台灣新竹市東區大學路1001號研三舍",
    "region": "hsinchu_city",
    "latitude": 24.7839058,
    "longitude": 120.99730149999998,
    "orderLinks": [
      {
        "id": "c688f768-ba8e-46fb-80c4-2a371adbfa33",
        "platform": "官網",
        "url": "https://www.facebook.com/eatmorning162"
      }
    ],
    "rating": 4.4
  },
  {
    "id": "ChIJ-y2DwP81aDQR4EAk6ILKkHA",
    "name": "六家麵店(新竹高翠店)",
    "address": "300台灣新竹市東區高翠路255號",
    "region": "hsinchu_city",
    "latitude": 24.7793441,
    "longitude": 120.98628199999999,
    "orderLinks": [],
    "rating": 4
  },
  {
    "id": "ChIJoRAKjho2aDQRyTO0-JxnIf4",
    "name": "Lim Coffee咖啡館",
    "address": "300台灣新竹市東區展業一路11號",
    "region": "hsinchu_city",
    "latitude": 24.7837075,
    "longitude": 121.0006945,
    "orderLinks": [
      {
        "id": "78f166ae-8899-4224-8df1-938fdcbe7865",
        "platform": "官網",
        "url": "https://m.facebook.com/Lim-coffee-983335088378049/"
      }
    ],
    "rating": 4.5
  },
  {
    "id": "ChIJz_hO70E3aDQRQ1ewGMF2lDg",
    "name": "天晟燒臘",
    "address": "300093台灣新竹市東區大學路1001-2號",
    "region": "hsinchu_city",
    "latitude": 24.784494199999997,
    "longitude": 120.99952859999998,
    "orderLinks": [],
    "rating": 4.2
  },
  {
    "id": "ChIJbTgnHxA2aDQR3WiUvpbZUzk",
    "name": "國立陽明交通大學第一餐廳",
    "address": "300台灣新竹市東區大學路1001號",
    "region": "hsinchu_city",
    "latitude": 24.786524,
    "longitude": 120.9993977,
    "orderLinks": [],
    "rating": 3.8
  },
  {
    "id": "ChIJK38UiQc2aDQRH_2NF9sR0EY",
    "name": "雙饗丼 新竹寶山店",
    "address": "300台灣新竹市東區寶山路430號",
    "region": "hsinchu_city",
    "latitude": 24.784720399999998,
    "longitude": 120.99010989999998,
    "orderLinks": [
      {
        "id": "a302ac45-dd0b-4104-bf7a-4410cff410b1",
        "platform": "官網",
        "url": "https://lin.ee/loAkfyQ"
      }
    ],
    "rating": 4.1
  },
  {
    "id": "ChIJl6JrUf5JaDQRGF2HXgwR8Ws",
    "name": "STARBUCKS 星巴克 (園區門市)不對外開放",
    "address": "300台灣新竹縣寶山鄉研新一路9號",
    "region": "hsinchu_city",
    "latitude": 24.7752198,
    "longitude": 120.9902335,
    "orderLinks": [
      {
        "id": "9bcc6e7f-dddd-42fc-b2be-0b1b50509515",
        "platform": "官網",
        "url": "https://www.starbucks.com.tw/stores/storesearch.jspx?fetchStore=storehours"
      }
    ],
    "rating": 3.3
  },
  {
    "id": "ChIJY6QMvPw1aDQRU5d1WnGvPRg",
    "name": "拉亞漢堡 新竹寶山",
    "address": "300台灣新竹市東區寶山路440號",
    "region": "hsinchu_city",
    "latitude": 24.7846902,
    "longitude": 120.9903403,
    "orderLinks": [
      {
        "id": "1b30c23a-54f0-4cbb-becb-4f73e613806e",
        "platform": "官網",
        "url": "https://now.laya.com.tw/table?store=64a4deabc06ca680d4ab24b6"
      }
    ],
    "rating": 3.3
  },
  {
    "id": "ChIJ10olRPhJaDQRt9RVWbLiFeo",
    "name": "海水屋 寶山雙豐店",
    "address": "308台灣新竹縣寶山鄉雙豐路168號",
    "region": "hsinchu_city",
    "latitude": 24.768032100000003,
    "longitude": 120.9889537,
    "orderLinks": [
      {
        "id": "9569a126-133b-4f29-8c1f-7f85c41b5f37",
        "platform": "官網",
        "url": "https://www.facebook.com/hisweetwu/"
      }
    ],
    "rating": 3.9
  },
  {
    "id": "ChIJe4dmNGZJaDQRB3jetIrgeNY",
    "name": "鑫山複合式餐廳｜進仔薑母鴨",
    "address": "308台灣新竹縣寶山鄉雙園路二段32號",
    "region": "hsinchu_city",
    "latitude": 24.7682945,
    "longitude": 120.99927859999998,
    "orderLinks": [
      {
        "id": "e3b609a8-60ac-4b5e-b514-1516e8629639",
        "platform": "官網",
        "url": "https://www.facebook.com/profile.php?id=100093607753716&mibextid=LQQJ4d"
      }
    ],
    "rating": 4.8
  },
  {
    "id": "ChIJK3tjlv81aDQRrhSz9c_f9ho",
    "name": "孫子文牛肉麵",
    "address": "300台灣新竹市東區高翠路275號",
    "region": "hsinchu_city",
    "latitude": 24.779013,
    "longitude": 120.98591719999999,
    "orderLinks": [
      {
        "id": "5d11e4cd-2e40-4728-8f8a-3c1f50b9f37e",
        "platform": "官網",
        "url": "https://zh-tw.facebook.com/pages/category/Diner/%E9%87%8D%E6%85%B6%E5%AD%AB%E5%AD%90%E6%96%87%E7%89%9B%E8%82%89%E9%BA%B5-%E9%AB%98%E7%BF%A0%E5%BA%97-332508577104967/"
      }
    ],
    "rating": 4.2
  },
  {
    "id": "ChIJlyob0xc3aDQR61rgFrg_pnw",
    "name": "(3/14～4/5公休 )野夫手作義式披薩(用餐請預約訂位)",
    "address": "308台灣新竹縣寶山鄉雙園路二段182巷55號",
    "region": "hsinchu_city",
    "latitude": 24.7690982,
    "longitude": 120.99448260000001,
    "orderLinks": [
      {
        "id": "c7f1f655-5882-4f40-a8e7-0a71fb8780ec",
        "platform": "官網",
        "url": "https://www.facebook.com/savagehouse0857/"
      }
    ],
    "rating": 4.8
  },
  {
    "id": "ChIJW71nMwA1aDQRSOswKt0ecxc",
    "name": "小牛比較懶牛肉麵",
    "address": "300台灣新竹市東區高翠路267號",
    "region": "hsinchu_city",
    "latitude": 24.779197999999997,
    "longitude": 120.98611969999999,
    "orderLinks": [
      {
        "id": "31c4bd21-0a83-4291-9ebc-117716c23310",
        "platform": "官網",
        "url": "https://www.facebook.com/share/P5F5qMWBuC2ZVxH1/?mibextid=qi2Omg"
      }
    ],
    "rating": 4.7
  },
  {
    "id": "ChIJtcpfxUpJaDQR130S8WNvSSg",
    "name": "麥味登雙豐店",
    "address": "308台灣新竹縣寶山鄉雙豐路170號",
    "region": "hsinchu_city",
    "latitude": 24.7678053,
    "longitude": 120.98861219999998,
    "orderLinks": [
      {
        "id": "b069a3f2-2f74-469b-b1fb-0487f49cd60d",
        "platform": "官網",
        "url": "https://www.facebook.com/profile.php?id=61553680222718&mibextid=LQQJ4d"
      }
    ],
    "rating": 4.5
  },
  {
    "id": "ChIJB5J3ngA2aDQR1S75vvpl_Cc",
    "name": "阿信快餐便當",
    "address": "300台灣新竹市東區高翠路171號",
    "region": "hsinchu_city",
    "latitude": 24.781006299999998,
    "longitude": 120.98775429999999,
    "orderLinks": [],
    "rating": 4.4
  },
  {
    "id": "ChIJnZ6SoQA2aDQRA5pm7Mf0IU0",
    "name": "盛美平價快炒",
    "address": "300台灣新竹市東區高翠路151號300號",
    "region": "hsinchu_city",
    "latitude": 24.7813956,
    "longitude": 120.98796569999999,
    "orderLinks": [],
    "rating": 4.4
  },
  {
    "id": "ChIJqVJmniE1aDQRA8vVQJHpaok",
    "name": "輝 手作煎餃",
    "address": "300台灣新竹市東區高翠路191號",
    "region": "hsinchu_city",
    "latitude": 24.7806732,
    "longitude": 120.98762740000001,
    "orderLinks": [],
    "rating": 4.9
  },
  {
    "id": "ChIJA5kiogE2aDQRK5i4pgylbAg",
    "name": "星巴克 研新門市 - 限台積員工",
    "address": "300台灣新竹縣寶山鄉研新二路6號",
    "region": "hsinchu_city",
    "latitude": 24.778514899999998,
    "longitude": 120.9916583,
    "orderLinks": [
      {
        "id": "e3f14991-c970-4aca-b262-44b1c938babf",
        "platform": "官網",
        "url": "https://www.starbucks.com.tw/"
      }
    ],
    "rating": 3.6
  },
  {
    "id": "ChIJF7xNU1xJaDQRQKv2WB8am2c",
    "name": "鑫山複合式KTV（2F）",
    "address": "308台灣新竹縣寶山鄉雙園路二段32號2樓",
    "region": "hsinchu_city",
    "latitude": 24.768459999999997,
    "longitude": 120.998912,
    "orderLinks": [],
    "rating": 4.7
  },
  {
    "id": "ChIJTXBwqQRJaDQR232sM9GkPSQ",
    "name": "STARBUCKS 星巴克 (台積電5門市)",
    "address": "308台灣新竹縣寶山鄉園區三路121號",
    "region": "hsinchu_city",
    "latitude": 24.774071,
    "longitude": 120.9979912,
    "orderLinks": [
      {
        "id": "0ec372e8-09d7-44c5-8378-c6897a3f73a9",
        "platform": "官網",
        "url": "https://www.starbucks.com.tw/"
      }
    ],
    "rating": 2.7
  },
  {
    "id": "ChIJxZF9PtBJaDQRjmmMNDSsSoU",
    "name": "Ks’ house",
    "address": "308台灣新竹縣寶山鄉雙園路二段182巷39號",
    "region": "hsinchu_city",
    "latitude": 24.7686673,
    "longitude": 120.99461380000001,
    "orderLinks": [],
    "rating": 4.2
  },
  {
    "id": "ChIJacKTd6JLaDQRZcVp3hBDmLE",
    "name": "橙爺雞排-新竹店",
    "address": "300台灣新竹市東區高翠路319號",
    "region": "hsinchu_city",
    "latitude": 24.778071,
    "longitude": 120.9847338,
    "orderLinks": [
      {
        "id": "9b8b7b0c-856f-44d5-88b0-1e8065220940",
        "platform": "官網",
        "url": "https://www.facebook.com/profile.php?id=61551438960279"
      }
    ],
    "rating": 4.1
  },
  {
    "id": "ChIJI2-EmwA2aDQRYpJWBICgb-I",
    "name": "8+8 早餐坊（高翠路175號）",
    "address": "300台灣新竹市東區高翠路175號",
    "region": "hsinchu_city",
    "latitude": 24.7808782,
    "longitude": 120.98771769999999,
    "orderLinks": [],
    "rating": 3.9
  },
  {
    "id": "ChIJP3iqhgBKaDQR-_NoLxFsKro",
    "name": "沅滷味",
    "address": "300台灣新竹市東區高翠路333號",
    "region": "hsinchu_city",
    "latitude": 24.7777708,
    "longitude": 120.9843978,
    "orderLinks": [],
    "rating": 4.5
  },
  {
    "id": "ChIJ7eH-gQBKaDQRJRLyAy_BAio",
    "name": "美美麵‧飯食館",
    "address": "300台灣新竹市東區高翠路330號",
    "region": "hsinchu_city",
    "latitude": 24.7781761,
    "longitude": 120.98443729999998,
    "orderLinks": [
      {
        "id": "910a9df8-ff73-45aa-ae20-aeb8f6e712aa",
        "platform": "官網",
        "url": "https://lin.ee/LBcy47R"
      }
    ],
    "rating": 4
  },
  {
    "id": "ChIJjRhrM-ZLaDQRaL2_jbk78sE",
    "name": "功夫茶 KUNGFUTEA 新竹高翠店",
    "address": "300台灣新竹市東區高翠路373號",
    "region": "hsinchu_city",
    "latitude": 24.777222,
    "longitude": 120.98365510000001,
    "orderLinks": [
      {
        "id": "9188098e-72c9-45fa-a515-0496885e63e6",
        "platform": "官網",
        "url": "https://lin.ee/vtplI47"
      }
    ],
    "rating": 4.8
  },
  {
    "id": "ChIJzwkaiU83aDQRrTLvSAiuABw",
    "name": "SUBWAY-新竹交大店",
    "address": "300台灣新竹市東區大學路1001號",
    "region": "hsinchu_city",
    "latitude": 24.7892323,
    "longitude": 120.9969874,
    "orderLinks": [
      {
        "id": "aefd603d-811a-42e3-b37c-50b739debb48",
        "platform": "官網",
        "url": "https://subway.com.tw/"
      }
    ],
    "rating": 3.3
  },
  {
    "id": "ChIJeXozo_dJaDQRi4nLpChxHDU",
    "name": "老復興飲食店",
    "address": "308台灣新竹縣寶山鄉雙園路二段359號",
    "region": "hsinchu_city",
    "latitude": 24.7646057,
    "longitude": 120.9898604,
    "orderLinks": [],
    "rating": 4.3
  },
  {
    "id": "ChIJL35glSZKaDQRMdk7N84FAR4",
    "name": "鑫園客家菜餐廳",
    "address": "308台灣新竹縣寶山鄉湳坑路二段130號308",
    "region": "hsinchu_city",
    "latitude": 24.764129,
    "longitude": 120.98974399999999,
    "orderLinks": [
      {
        "id": "91eb9178-b18f-42fb-8a00-b8bac2ca14b1",
        "platform": "官網",
        "url": "https://www.facebook.com/mylove035203706"
      }
    ],
    "rating": 4.2
  },
  {
    "id": "ChIJ-6h7sKdJaDQRUg45gzeh7pA",
    "name": "三本柱薑母鴨x鮮蚵放題 竹科店｜東石鮮蚵｜烤蚵推薦｜新竹必吃｜在地美食｜特色小吃｜秘製烤雞｜台式快炒｜竹科聚會餐廳",
    "address": "308005台灣新竹縣寶山鄉湳坑路二段121巷11號",
    "region": "hsinchu_city",
    "latitude": 24.763390899999997,
    "longitude": 120.98946079999999,
    "orderLinks": [
      {
        "id": "889ba03e-90a1-4a4a-ae77-be7d7c1a1dab",
        "platform": "官網",
        "url": "https://www.facebook.com/share/NGhstnmfZDKXsLtz/?mibextid=LQQJ4d"
      }
    ],
    "rating": 4.3
  },
  {
    "id": "ChIJgeM8ZR1KaDQRd3ZqnsrYQ_E",
    "name": "佳禾日式炭燒JIAHE(預約優先制)",
    "address": "308台灣新竹縣寶山鄉明湖路57號",
    "region": "hsinchu_city",
    "latitude": 24.764660499999998,
    "longitude": 120.9872098,
    "orderLinks": [],
    "rating": 4.4
  },
  {
    "id": "ChIJr86JnPdJaDQRcNKHSZsX4x0",
    "name": "葉阿姨蔥油餅麵缐糊(廟旁邊)",
    "address": "308台灣新竹縣寶山鄉雙豐路3號",
    "region": "hsinchu_city",
    "latitude": 24.7653681,
    "longitude": 120.9901865,
    "orderLinks": [],
    "rating": 4.5
  },
  {
    "id": "ChIJn_dp-fBJaDQReAvFZbfDiK4",
    "name": "台北江麻辣臭豆腐專賣舖 寶山店",
    "address": "30841台灣新竹縣寶山鄉湳坑路二段121巷1號",
    "region": "hsinchu_city",
    "latitude": 24.7637885,
    "longitude": 120.9895627,
    "orderLinks": [
      {
        "id": "fb51a6e9-3716-4a93-bccb-6285b037b366",
        "platform": "官網",
        "url": "https://taibeijiang.weebly.com/"
      }
    ],
    "rating": 4.5
  },
  {
    "id": "ChIJdza2palLaDQRR9c0P77T5HE",
    "name": "新寶水煎包",
    "address": "308台灣新竹縣寶山鄉環北路303號",
    "region": "hsinchu_city",
    "latitude": 24.767293499999997,
    "longitude": 120.9843726,
    "orderLinks": [],
    "rating": 4.6
  },
  {
    "id": "ChIJ3-DEIwBJaDQRVzutIaORmkw",
    "name": "米撰雞腿壩王寶山店/池上便當/寶山排隊美食/竹科外送便當/園區外送便當/好吃會議便當/客製活動餐盒/新竹外送午晚餐/新竹排隊便當/來店消費可享免費停車",
    "address": "308台灣新竹縣寶山鄉湳坑路二段121巷15號",
    "region": "hsinchu_city",
    "latitude": 24.763149199999997,
    "longitude": 120.9893962,
    "orderLinks": [
      {
        "id": "abd3b486-654a-44e7-8418-5c0d6e180eb5",
        "platform": "官網",
        "url": "https://lin.ee/8G6JnQUA"
      }
    ],
    "rating": 4.5
  },
  {
    "id": "ChIJ5eNfnPdJaDQRqCZvZPUrfRc",
    "name": "寶山廟口香雞排",
    "address": "308台灣新竹縣寶山鄉雙豐路4號",
    "region": "hsinchu_city",
    "latitude": 24.765302499999997,
    "longitude": 120.99018199999999,
    "orderLinks": [],
    "rating": 4.4
  },
  {
    "id": "ChIJlaisFKdJaDQRyBPeugZvwpg",
    "name": "金正好吃-寶山店",
    "address": "308台灣新竹縣寶山鄉雙園路二段372號",
    "region": "hsinchu_city",
    "latitude": 24.764517599999998,
    "longitude": 120.9894003,
    "orderLinks": [],
    "rating": 3.2
  },
  {
    "id": "ChIJf-tJyfdJaDQRS8oBabB5T9Y",
    "name": "大堂牛肉麵",
    "address": "308台灣新竹縣寶山鄉雙園路二段398號",
    "region": "hsinchu_city",
    "latitude": 24.764199299999998,
    "longitude": 120.9886292,
    "orderLinks": [],
    "rating": 3.9
  },
  {
    "id": "ChIJEYEcmwBKaDQRDPC97J4Y_l0",
    "name": "高翠快餐便當店",
    "address": "308台灣新竹縣寶山鄉湳坑路二段121巷5號",
    "region": "hsinchu_city",
    "latitude": 24.763607699999998,
    "longitude": 120.98955360000001,
    "orderLinks": [
      {
        "id": "8e8aab87-4fde-4af5-acf9-7400bde6d07e",
        "platform": "官網",
        "url": "http://www.facebook.com/%E9%AB%98%E5%B3%B0%E5%BF%AB%E9%A4%90%E5%8E%9F%E9%AB%98%E5%B3%B0%E6%B3%B0%E5%BC%8F%E6%96%99%E7%90%86-942987065736709/"
      }
    ],
    "rating": 4
  },
  {
    "id": "ChIJp8LEC-NJaDQRZJSGxR2BFHM",
    "name": "雙醬咖哩雙溪店",
    "address": "308台灣新竹縣寶山鄉雙園路二段410號1樓",
    "region": "hsinchu_city",
    "latitude": 24.764014099999997,
    "longitude": 120.98846169999999,
    "orderLinks": [],
    "rating": 4.7
  },
  {
    "id": "ChIJgz6aKfZJaDQRLicClbH9wzQ",
    "name": "胖老爹美式炸雞 新竹寶山店",
    "address": "308台灣新竹縣寶山鄉寶新路一段12號",
    "region": "hsinchu_city",
    "latitude": 24.7636844,
    "longitude": 120.98769899999999,
    "orderLinks": [],
    "rating": 3.4
  },
  {
    "id": "ChIJM7b5WYJLaDQR8R8LcczJyPg",
    "name": "10 種香料印度餐車 | 10 Spices Indian Food Truck",
    "address": "No, No. 55明湖路寶山鄉新竹縣台灣 308",
    "region": "hsinchu_city",
    "latitude": 24.764597,
    "longitude": 120.98725499999999,
    "orderLinks": [],
    "rating": 4.5
  },
  {
    "id": "ChIJt7OF_MNJaDQRUHdp8Z-DNAg",
    "name": "一衖麵",
    "address": "308台灣新竹縣寶山鄉雙園路一段2巷18弄1衖3號",
    "region": "hsinchu_city",
    "latitude": 24.7708534,
    "longitude": 121.0044382,
    "orderLinks": [],
    "rating": 4.4
  },
  {
    "id": "ChIJy7I_vBg3aDQRnTyiDdv3Is0",
    "name": "八方雲集-新竹科館店",
    "address": "30075台灣新竹市東區工業東二路1號",
    "region": "hsinchu_city",
    "latitude": 24.7796931,
    "longitude": 121.005437,
    "orderLinks": [
      {
        "id": "9577c879-a07f-4c24-a048-cab9c3096668",
        "platform": "官網",
        "url": "https://www.8way.com.tw/"
      }
    ],
    "rating": 3.2
  },
  {
    "id": "ChIJWy4n6PlJaDQRIJWXs9yU_lM",
    "name": "新寶早餐店 水煎包專賣 - 寶山店",
    "address": "308台灣新竹縣寶山鄉雙園路一段2巷11號",
    "region": "hsinchu_city",
    "latitude": 24.7706837,
    "longitude": 121.00498320000001,
    "orderLinks": [
      {
        "id": "d9ac6da1-ca82-4e26-bdbf-f48c06363a5b",
        "platform": "官網",
        "url": "https://www.facebook.com/Xinbao2/"
      }
    ],
    "rating": 3.9
  },
  {
    "id": "ChIJT3OInnE3aDQRaoK2bk4xQ4w",
    "name": "星巴克 GRC門市",
    "address": "300台灣新竹市東區工業東三路1號",
    "region": "hsinchu_city",
    "latitude": 24.7766722,
    "longitude": 121.007719,
    "orderLinks": [],
    "rating": 4.4
  },
  {
    "id": "ChIJJ8EnqxE3aDQRqCqdVHfpaIU",
    "name": "雙饗丼、鐵板饄竹科店",
    "address": "308台灣新竹縣寶山鄉雙園路一段2巷2號",
    "region": "hsinchu_city",
    "latitude": 24.770774199999998,
    "longitude": 121.00535359999999,
    "orderLinks": [],
    "rating": 3.5
  },
  {
    "id": "ChIJOzIBRRk2aDQRfrEkN8GhbF8",
    "name": "露米亞歐法餐廳",
    "address": "300台灣新竹市東區工業東二路1號3樓",
    "region": "hsinchu_city",
    "latitude": 24.7797591,
    "longitude": 121.00566880000001,
    "orderLinks": [
      {
        "id": "3a3a1b6d-9057-4253-81a5-69aeaf2e9d13",
        "platform": "官網",
        "url": "http://www.facebook.com/LUMIERE.french.restaurant/"
      }
    ],
    "rating": 4.4
  },
  {
    "id": "ChIJSfCPlxFJaDQR-REuB6Z71-8",
    "name": "台灣光罩員工餐廳",
    "address": "308台灣新竹縣寶山鄉創新一路11號",
    "region": "hsinchu_city",
    "latitude": 24.774883,
    "longitude": 120.998159,
    "orderLinks": [],
    "rating": 4
  },
  {
    "id": "ChIJw3yGwes3aDQRTaFMjXmE_8o",
    "name": "米諾瓦咖啡｜Minerva Café 晶豪科門市",
    "address": "300台灣新竹市東區工業東四路23號",
    "region": "hsinchu_city",
    "latitude": 24.774535399999998,
    "longitude": 121.0089575,
    "orderLinks": [
      {
        "id": "ad2d1cd9-052b-4774-b3e2-7843395bbaa3",
        "platform": "官網",
        "url": "http://minerva-cafe.com.tw/"
      }
    ],
    "rating": 4.1
  },
  {
    "id": "ChIJx7T--fpJaDQRs631DZePThU",
    "name": "早餐屋",
    "address": "308台灣新竹縣寶山鄉雙園一街1號",
    "region": "hsinchu_city",
    "latitude": 24.7666936,
    "longitude": 120.9966164,
    "orderLinks": [],
    "rating": 4
  },
  {
    "id": "ChIJxSPSOQA3aDQRL8ijOeNkob0",
    "name": "漢堡王 Burger King 新竹瑞昱店",
    "address": "300台灣新竹市東區園區二路9號",
    "region": "hsinchu_city",
    "latitude": 24.7803839,
    "longitude": 120.99818099999999,
    "orderLinks": [
      {
        "id": "950f78e5-86a6-44fd-bd1b-3b651aece344",
        "platform": "官網",
        "url": "https://www.burgerking.com.tw/"
      }
    ],
    "rating": 5
  },
  {
    "id": "ChIJscQdTQBJaDQRNrDgLZMFMDU",
    "name": "葫蘆肚小吃",
    "address": "308台灣新竹縣寶山鄉雙溪村",
    "region": "hsinchu_city",
    "latitude": 24.7665915,
    "longitude": 120.9961431,
    "orderLinks": [],
    "rating": 4.7
  },
  {
    "id": "ChIJoVxJluA1aDQRHY63emw8_Qw",
    "name": "沐嵐 · Moonlight",
    "address": "300台灣新竹市東區西大路240號",
    "region": "hsinchu_city",
    "latitude": 24.7984737,
    "longitude": 120.9684659,
    "orderLinks": [
      {
        "id": "d0fdf04c-01e7-43ce-a291-6788902ded04",
        "platform": "官網",
        "url": "https://www.facebook.com/profile.php?id=100063921677920"
      }
    ],
    "rating": 4.4
  },
  {
    "id": "ChIJi8wdhOw1aDQR-wdES8TzUTE",
    "name": "石家魚丸",
    "address": "300台灣新竹市东区兴学街27號2９號",
    "region": "hsinchu_city",
    "latitude": 24.797790199999998,
    "longitude": 120.96785919999998,
    "orderLinks": [
      {
        "id": "a6573630-4f9a-4556-ae7f-1c583ef03cd7",
        "platform": "官網",
        "url": "https://sfishball.com.tw/"
      }
    ],
    "rating": 4.2
  },
  {
    "id": "ChIJc2x47-41aDQRGRyXzAS-6w4",
    "name": "麥當勞-新竹食品餐廳",
    "address": "300台灣新竹市東區食品路228號",
    "region": "hsinchu_city",
    "latitude": 24.7950926,
    "longitude": 120.972557,
    "orderLinks": [
      {
        "id": "bfffc574-3e9f-4859-8d89-12d78244019c",
        "platform": "官網",
        "url": "https://www.mcdonalds.com/tw/zh-tw.html"
      }
    ],
    "rating": 4
  },
  {
    "id": "ChIJIcZk3Og1aDQRdJsrA8DdVxU",
    "name": "小鵲幸 車輪餅 - 新竹東南 起家店",
    "address": "300台灣新竹市東區東南街118號",
    "region": "hsinchu_city",
    "latitude": 24.797784,
    "longitude": 120.97397099999998,
    "orderLinks": [
      {
        "id": "dc500e86-2688-4a0b-8479-bc13896852c1",
        "platform": "官網",
        "url": "https://m.facebook.com/alittlehappinesscake"
      }
    ],
    "rating": 4.4
  },
  {
    "id": "ChIJGXRRUeY1aDQRSRZx8N61PWM",
    "name": "每天都要吃早餐",
    "address": "300台灣新竹市東區東山街85號",
    "region": "hsinchu_city",
    "latitude": 24.7976983,
    "longitude": 120.97855759999999,
    "orderLinks": [
      {
        "id": "0148651c-cf2b-4044-bce1-7f8de800144d",
        "platform": "官網",
        "url": "https://www.facebook.com/frogfishhouse/"
      }
    ],
    "rating": 4.3
  },
  {
    "id": "ChIJjao5u-I1aDQRS05YLtXGgXU",
    "name": "新築窟（蔬食）",
    "address": "300台灣新竹市東區南大路166號",
    "region": "hsinchu_city",
    "latitude": 24.800979400000003,
    "longitude": 120.9747396,
    "orderLinks": [
      {
        "id": "ec5afbd6-bf06-412f-8899-ab81c721229d",
        "platform": "官網",
        "url": "https://oohchacha.net/"
      }
    ],
    "rating": 4.6
  },
  {
    "id": "ChIJdcmEgJ01aDQRYaYnPKu3ONQ",
    "name": "陶板屋 新竹食品店",
    "address": "300台灣新竹市东区食品路305-1號2F",
    "region": "hsinchu_city",
    "latitude": 24.7946699,
    "longitude": 120.97288719999999,
    "orderLinks": [
      {
        "id": "4e27d992-133e-45d9-9197-5df7e3c0ba04",
        "platform": "官網",
        "url": "https://www.tokiya.com.tw/"
      }
    ],
    "rating": 4.7
  },
  {
    "id": "ChIJ9e6ChgQ1aDQRf24OfsMpnz8",
    "name": "竹美港式茶餐廳 學府店(沒有訂位服務)",
    "address": "300台灣新竹市東區學府路73號",
    "region": "hsinchu_city",
    "latitude": 24.7947709,
    "longitude": 120.9781473,
    "orderLinks": [
      {
        "id": "173fbe27-8be9-4e83-9414-85181ba8ad47",
        "platform": "官網",
        "url": "https://www.facebook.com/Chumei03"
      }
    ],
    "rating": 4.8
  },
  {
    "id": "ChIJXTIi5-k1aDQR3GLsy69Gx5g",
    "name": "田記烤鴨",
    "address": "30062台灣新竹市東區食品路416號",
    "region": "hsinchu_city",
    "latitude": 24.7938543,
    "longitude": 120.96807129999998,
    "orderLinks": [],
    "rating": 3.8
  },
  {
    "id": "ChIJZ93aQGU1aDQR8CUD11D7p5I",
    "name": "斜角古早味綿綿冰（紅豆湯、燒仙草）",
    "address": "300台灣新竹市東區南大路393號",
    "region": "hsinchu_city",
    "latitude": 24.7966017,
    "longitude": 120.96824509999999,
    "orderLinks": [
      {
        "id": "d6b4c12b-af17-4a6c-b3da-46f1ff11a717",
        "platform": "官網",
        "url": "https://instagram.com/obliqueangle_ice?utm_medium=copy_link"
      }
    ],
    "rating": 4.8
  },
  {
    "id": "ChIJ6Zt5Y481aDQRG8mZ-cJZxMM",
    "name": "太空總薯-韓式2號店",
    "address": "300台灣新竹市東區食品路134巷1號",
    "region": "hsinchu_city",
    "latitude": 24.797800799999997,
    "longitude": 120.9770318,
    "orderLinks": [
      {
        "id": "d780673a-7091-48c8-ba0f-a06d097fe14e",
        "platform": "官網",
        "url": "https://space-potato.com/chillspace02/"
      }
    ],
    "rating": 4.5
  },
  {
    "id": "ChIJlVNAE141aDQREbYAaPPmb7k",
    "name": "星巴克 新竹動物園門市",
    "address": "300台灣新竹市東區博愛街111號1樓、2樓",
    "region": "hsinchu_city",
    "latitude": 24.800134999999997,
    "longitude": 120.97919449999999,
    "orderLinks": [
      {
        "id": "763278fc-b653-4be9-911d-5b38b867fe21",
        "platform": "官網",
        "url": "http://www.starbucks.com.tw/"
      }
    ],
    "rating": 4.5
  },
  {
    "id": "ChIJL7QPnzU1aDQRicUeA--NAX0",
    "name": "福徠鴨新台式烤鴨Fu DUCK IN",
    "address": "300台灣新竹市東區西大路74號",
    "region": "hsinchu_city",
    "latitude": 24.795923,
    "longitude": 120.971375,
    "orderLinks": [
      {
        "id": "069b2600-95f5-44dd-b289-cb9888c18e8c",
        "platform": "官網",
        "url": "https://www.facebook.com/profile.php?id=100090528368797&mibextid=LQQJ4d"
      }
    ],
    "rating": 4.7
  },
  {
    "id": "ChIJQ4a1ouY1aDQROl6yOqnEOAk",
    "name": "阿婆早餐麵店",
    "address": "300台灣新竹市東區東山街6號",
    "region": "hsinchu_city",
    "latitude": 24.7957423,
    "longitude": 120.9804408,
    "orderLinks": [
      {
        "id": "9b5e3bad-0f2e-4159-9e2c-349cc90348c7",
        "platform": "官網",
        "url": "https://www.facebook.com/%E9%98%BF%E5%A9%86%E6%97%A9%E9%A4%90%E9%BA%B5%E5%BA%97-136808669740035/"
      }
    ],
    "rating": 4.1
  },
  {
    "id": "ChIJ_7fcdME1aDQRWtEib01QRiM",
    "name": "麥當勞-新竹南大餐廳",
    "address": "300台灣新竹市東區南大路337號1樓",
    "region": "hsinchu_city",
    "latitude": 24.7975607,
    "longitude": 120.96976639999998,
    "orderLinks": [
      {
        "id": "030deda1-0458-483a-9307-74c28684bcd0",
        "platform": "官網",
        "url": "https://www.mcdonalds.com/tw/zh-tw.html"
      }
    ],
    "rating": 3.9
  },
  {
    "id": "ChIJC3sUquk1aDQRNG-5KpPLCY4",
    "name": "六扇門時尚湯鍋 新竹東南店",
    "address": "300台灣新竹市東區東南街55號",
    "region": "hsinchu_city",
    "latitude": 24.7994433,
    "longitude": 120.9730098,
    "orderLinks": [
      {
        "id": "0f5112f6-a34f-4633-8a9a-7a75d1395041",
        "platform": "官網",
        "url": "https://www.facebook.com/%E5%85%AD%E6%89%87%E9%96%80%E6%99%82%E5%B0%9A%E6%B9%AF%E9%8D%8B-%E6%96%B0%E7%AB%B9%E6%9D%B1%E5%8D%97%E5%BA%97-118580048759570/?fref=ts"
      }
    ],
    "rating": 4
  },
  {
    "id": "ChIJRaoIx901aDQRhhAjzab5Kjs",
    "name": "億品鍋-新竹食品店",
    "address": "300台灣新竹市東區食品路262號",
    "region": "hsinchu_city",
    "latitude": 24.7944326,
    "longitude": 120.9717101,
    "orderLinks": [],
    "rating": 4.6
  },
  {
    "id": "ChIJG9E4koA1aDQR8rDCdDVbitk",
    "name": "TWINS 廚房 正宗西藏青海羊排炕鍋",
    "address": "300台灣新竹市東區南大路107號",
    "region": "hsinchu_city",
    "latitude": 24.8012668,
    "longitude": 120.97574689999999,
    "orderLinks": [
      {
        "id": "2fb0ab21-a3ea-443c-bbee-678c37737e08",
        "platform": "官網",
        "url": "https://www.facebook.com/TWINS-%E5%BB%9A%E6%88%BF-%E6%AD%A3%E5%AE%97%E8%A5%BF%E8%97%8F%E9%9D%92%E6%B5%B7%E7%BE%8A%E6%8E%92%E7%82%95%E9%8D%8B-411997322666815/"
      }
    ],
    "rating": 4.4
  },
  {
    "id": "ChIJ4TBgje81aDQRhT5GgrTaF7Q",
    "name": "皇膳湯包 寶山店",
    "address": "300台灣新竹市東區寶山路128號",
    "region": "hsinchu_city",
    "latitude": 24.7924013,
    "longitude": 120.97511909999999,
    "orderLinks": [
      {
        "id": "37195027-dbec-47ba-8020-9bb6ec493ffc",
        "platform": "官網",
        "url": "https://zh-tw.facebook.com/%E7%9A%87%E8%86%B3%E6%B9%AF%E5%8C%85-608003859225782/"
      }
    ],
    "rating": 4.4
  },
  {
    "id": "ChIJ_aJ6i-U1aDQRU6l60v2Cvdg",
    "name": "東南漢堡店",
    "address": "300台灣新竹市東區東南街54號",
    "region": "hsinchu_city",
    "latitude": 24.7990116,
    "longitude": 120.9730649,
    "orderLinks": [
      {
        "id": "18160351-dbbc-4d4f-9a77-04cb0a90ebc5",
        "platform": "官網",
        "url": "https://www.facebook.com/%E6%9D%B1%E5%8D%97%E6%BC%A2%E5%A0%A1%E5%BA%97-155186874639390/"
      }
    ],
    "rating": 4.3
  },
  {
    "id": "ChIJq2H9q4I1aDQRFEE9aMGuIvs",
    "name": "艷麗Pondok Sunny",
    "address": "300台灣新竹市東區南大路52號",
    "region": "hsinchu_city",
    "latitude": 24.802760799999998,
    "longitude": 120.977823,
    "orderLinks": [
      {
        "id": "f3300581-6ddf-423a-b790-e3b668bfc7c8",
        "platform": "官網",
        "url": "https://www.pondok-sunny.com/"
      }
    ],
    "rating": 4.5
  },
  {
    "id": "ChIJPaT0WVQ1aDQRt5rrq5IsHJ8",
    "name": "柒伍無煙燒肉",
    "address": "300台灣新竹市東區大同路23號",
    "region": "hsinchu_city",
    "latitude": 24.803180599999997,
    "longitude": 120.96967509999999,
    "orderLinks": [
      {
        "id": "b735e24e-ea1a-40fd-9e61-bf3a43d41871",
        "platform": "官網",
        "url": "https://www.facebook.com/pages/category/Restaurant/%E6%9F%92%E4%BC%8D%E7%84%A1%E7%85%99%E7%87%92%E8%82%89-104084347787019/"
      }
    ],
    "rating": 4.9
  },
  {
    "id": "ChIJ350Fswo1aDQR7AoBMbVo2tg",
    "name": "良家手工港式點心坊",
    "address": "300台灣新竹市東區花園街19號",
    "region": "hsinchu_city",
    "latitude": 24.8034714,
    "longitude": 120.9779449,
    "orderLinks": [
      {
        "id": "497ab82a-018e-4436-b827-d5fea73cd897",
        "platform": "官網",
        "url": "https://lin.ee/foem1Pw"
      }
    ],
    "rating": 4.4
  },
  {
    "id": "ChIJV0TGlME1aDQRy0Kuutn6-Wc",
    "name": "好豆味冰沙豆花",
    "address": "300台灣新竹市東區勝利路20號",
    "region": "hsinchu_city",
    "latitude": 24.803296,
    "longitude": 120.97000309999999,
    "orderLinks": [
      {
        "id": "f2674c27-541b-4e92-ba22-6c4d32ca4463",
        "platform": "官網",
        "url": "https://www.facebook.com/DouWeiDouHuaDian/"
      }
    ],
    "rating": 4.3
  },
  {
    "id": "ChIJvZU_Teo1aDQRbwKXyGAfAXA",
    "name": "原味鴨肉麵",
    "address": "300台灣新竹市東區勝利路59號",
    "region": "hsinchu_city",
    "latitude": 24.800525200000003,
    "longitude": 120.96841560000001,
    "orderLinks": [
      {
        "id": "72bc53f0-c169-43fb-a241-1a598c0fa293",
        "platform": "官網",
        "url": "https://www.facebook.com/profile.php?id=100057360411659"
      }
    ],
    "rating": 4.3
  },
  {
    "id": "ChIJmSEKN8c1aDQRgY2PNGL1G4Y",
    "name": "竹東邱記排骨酥麵-新竹店",
    "address": "300台灣新竹市東區公園路270號",
    "region": "hsinchu_city",
    "latitude": 24.8031737,
    "longitude": 120.97946820000001,
    "orderLinks": [
      {
        "id": "425cef09-0095-4cc3-853b-8df5ac670e46",
        "platform": "官網",
        "url": "https://www.facebook.com/373781029372787/posts/3486399568110902/?extid=qGIX4B0KtmzcKYSQ&d=n"
      }
    ],
    "rating": 4
  },
  {
    "id": "ChIJcSaqW-A1aDQRhWAdEK6Ygws",
    "name": "璽子牛肉麵（新竹博愛店）",
    "address": "300台灣新竹市東區博愛街31號",
    "region": "hsinchu_city",
    "latitude": 24.7974231,
    "longitude": 120.985294,
    "orderLinks": [
      {
        "id": "c75794c6-b055-4dc7-889f-e40f65c27c42",
        "platform": "官網",
        "url": "https://sizih2007.weebly.com/"
      }
    ],
    "rating": 4.2
  },
  {
    "id": "ChIJ_7fcdME1aDQRUmPgoQZDOmY",
    "name": "麥當勞-新竹中正餐廳",
    "address": "300台灣新竹市東區中正路34號",
    "region": "hsinchu_city",
    "latitude": 24.803469699999997,
    "longitude": 120.97120249999999,
    "orderLinks": [
      {
        "id": "6bf53a1a-c9b6-4ab1-aaee-adaff467a511",
        "platform": "官網",
        "url": "https://www.mcdonalds.com/tw/zh-tw.html"
      }
    ],
    "rating": 3.7
  },
  {
    "id": "ChIJcbhLsOs1aDQRCOeawP2RSxo",
    "name": "刀削麵",
    "address": "300台灣新竹市東區中華路二段572號",
    "region": "hsinchu_city",
    "latitude": 24.799809900000003,
    "longitude": 120.96783789999998,
    "orderLinks": [],
    "rating": 4.3
  },
  {
    "id": "ChIJ-3Eeyt01aDQRYtBEy85vrsI",
    "name": "公園黑乾麵",
    "address": "300台灣新竹市東區體育街82號",
    "region": "hsinchu_city",
    "latitude": 24.802661999999998,
    "longitude": 120.980532,
    "orderLinks": [],
    "rating": 4.1
  },
  {
    "id": "ChIJBxRPBI41aDQRYs7u-Oq4Pm4",
    "name": "春室 SPRING POOL GLASS STUDIO + The POOL",
    "address": "300台灣新竹市東區東大路一段2號",
    "region": "hsinchu_city",
    "latitude": 24.801322499999998,
    "longitude": 120.9784957,
    "orderLinks": [
      {
        "id": "13bd1ac1-772d-40a5-a1e0-cefdeaa4dee8",
        "platform": "官網",
        "url": "https://www.glasspoolstore.com/pages/about-springpoolglassstudio"
      }
    ],
    "rating": 4.6
  },
  {
    "id": "ChIJgQJ9bqM1aDQRJcvuSbkJMcg",
    "name": "辛志平校長故居本館(前棟)",
    "address": "300台灣新竹市東區東門街32號",
    "region": "hsinchu_city",
    "latitude": 24.804337500000003,
    "longitude": 120.9739152,
    "orderLinks": [
      {
        "id": "32a9e997-ea8e-4e90-9dee-8dc4ad55647a",
        "platform": "官網",
        "url": "https://www.facebook.com/Hsinchiping.former.residence/"
      }
    ],
    "rating": 4.4
  },
  {
    "id": "ChIJb9ONMY01aDQRyvNAwiKOhMI",
    "name": "波諾義大利料理 新竹",
    "address": "300台灣新竹市東區南大路525號",
    "region": "hsinchu_city",
    "latitude": 24.791772700000003,
    "longitude": 120.96458659999999,
    "orderLinks": [
      {
        "id": "0d12ea25-f018-4050-9333-dc7c59a55587",
        "platform": "官網",
        "url": "http://buonobella.com/"
      }
    ],
    "rating": 4.2
  },
  {
    "id": "ChIJC9VFWO81aDQRvPDb8uKg9Tw",
    "name": "Mountain House 山房吐司料理 (不接受訂位）",
    "address": "300台灣新竹市東區東南街245號",
    "region": "hsinchu_city",
    "latitude": 24.795131100000003,
    "longitude": 120.97611289999998,
    "orderLinks": [
      {
        "id": "8e66c5d2-a4f2-47ee-983a-43341f138c1b",
        "platform": "iCHEF",
        "url": "https://shop.ichefpos.com/store/zjOvkAVA/ordering?fbclid=PAAaYm8x5IxYUWbytrhZ6qi6cqQd0LI9D_2_M-ZN7IvKUz92KNjWk3xdrxuDA_aem_AY7ZX-3mafZpxBUn_Sjh1trFRO-NPcRVds_I3DWkEy5C-xDZORFziaxJaQevIflT2Qc"
      }
    ],
    "rating": 3.8
  },
  {
    "id": "ChIJAWQbbvM1aDQRWmfTHScOHh8",
    "name": "嘉味火雞肉飯",
    "address": "300台灣新竹市東區南大路828號",
    "region": "hsinchu_city",
    "latitude": 24.7884863,
    "longitude": 120.9667269,
    "orderLinks": [],
    "rating": 4.3
  },
  {
    "id": "ChIJfSEV7xM1aDQRrZZEsF5pO2s",
    "name": "雞肉男雞肉飯",
    "address": "300台灣新竹市東區食品路221號",
    "region": "hsinchu_city",
    "latitude": 24.7958782,
    "longitude": 120.97444970000001,
    "orderLinks": [
      {
        "id": "34757bb2-17c1-4dd7-8ade-3f49575db739",
        "platform": "官網",
        "url": "https://www.facebook.com/profile.php?id=100089813297122&locale=zh_TW"
      }
    ],
    "rating": 4.4
  },
  {
    "id": "ChIJ9Z3iN2E1aDQR-FE-fsOF368",
    "name": "一私麵宅新竹店",
    "address": "300台灣新竹市東區東南街223號",
    "region": "hsinchu_city",
    "latitude": 24.7957845,
    "longitude": 120.9756169,
    "orderLinks": [],
    "rating": 4.3
  },
  {
    "id": "ChIJHRp2N-81aDQRMfWb-nwV-1c",
    "name": "麵堂拉麵專賣店",
    "address": "300台灣新竹市東區食品路223號",
    "region": "hsinchu_city",
    "latitude": 24.7958744,
    "longitude": 120.9743727,
    "orderLinks": [
      {
        "id": "68e4333d-1166-4b48-9f44-a4f3086c50e8",
        "platform": "官網",
        "url": "https://www.facebook.com/miantang2014/"
      }
    ],
    "rating": 4.4
  },
  {
    "id": "ChIJISOj3OU1aDQRcczo3dgWlOY",
    "name": "La Dolce Vita樂多趣義大利餐廳 店休日請看臉書與IG ～～內用假日低消600",
    "address": "300台灣新竹市東區学府路61巷5-2號",
    "region": "hsinchu_city",
    "latitude": 24.794998099999997,
    "longitude": 120.97791260000001,
    "orderLinks": [
      {
        "id": "afe1a827-8f10-4cac-be57-cb3db6f3af64",
        "platform": "官網",
        "url": "https://www.facebook.com/dolce0vita/"
      }
    ],
    "rating": 4.4
  },
  {
    "id": "ChIJCVwbK401aDQR9EJK_rACCUU",
    "name": "南大路倪家永和豆漿大王",
    "address": "300台灣新竹市東區南大路716號",
    "region": "hsinchu_city",
    "latitude": 24.7912173,
    "longitude": 120.9641762,
    "orderLinks": [],
    "rating": 4.4
  },
  {
    "id": "ChIJ_8VTWwA1aDQR5F5Ix7-dd6w",
    "name": "貓的堅持（新竹店）創意輕藥膳養生料理",
    "address": "300台灣新竹市東區西大路63號",
    "region": "hsinchu_city",
    "latitude": 24.795660899999998,
    "longitude": 120.97119649999999,
    "orderLinks": [
      {
        "id": "639246f0-2787-43bd-acdf-5790944bb7f9",
        "platform": "官網",
        "url": "https://www.facebook.com/profile.php?id=100066772443262&mibextid=LQQJ4d"
      }
    ],
    "rating": 4.6
  },
  {
    "id": "ChIJq0sXzyk1aDQROyG3m3M8GEQ",
    "name": "大爺鹽酥雞",
    "address": "300台灣新竹市東區食品路329號",
    "region": "hsinchu_city",
    "latitude": 24.7943194,
    "longitude": 120.97181549999999,
    "orderLinks": [
      {
        "id": "4ee0e8aa-a204-434c-92cd-07b0b50de6e2",
        "platform": "官網",
        "url": "https://m.facebook.com/daye035/"
      }
    ],
    "rating": 4.7
  },
  {
    "id": "ChIJ_zOVDUc1aDQR9xqhYJMoIWU",
    "name": "洞心咖啡廳Heartbeat Cafe-新竹深夜咖啡廳/下午茶/手作甜點 手沖/精品/義式咖啡 輕食/蛋糕 咖啡課程體驗 桌遊/親子/包場/約會/網美/打卡 人氣熱門好評推薦 PTT Dcard",
    "address": "300台灣新竹市東區学府路61巷5-1號",
    "region": "hsinchu_city",
    "latitude": 24.795053499999998,
    "longitude": 120.9779442,
    "orderLinks": [
      {
        "id": "35122e51-f74e-45b0-b096-c650d4fbec7b",
        "platform": "官網",
        "url": "https://heartbeat-cafe.com/"
      }
    ],
    "rating": 4.9
  },
  {
    "id": "ChIJK997kuU1aDQRLsBGt45KTL0",
    "name": "老雲記餃子館",
    "address": "300台灣新竹市東區學府路1號",
    "region": "hsinchu_city",
    "latitude": 24.7941998,
    "longitude": 120.9767696,
    "orderLinks": [
      {
        "id": "a1e8d9b5-3dcb-4002-8f4c-2b7832fc3be5",
        "platform": "官網",
        "url": "https://www.facebook.com/pages/%E8%80%81%E9%9B%B2%E8%A8%98%E9%BA%B5%E9%A3%9F%E9%A4%A8/124591950943493"
      }
    ],
    "rating": 4
  },
  {
    "id": "ChIJDX9LQVY1aDQR_xdO1aAAv70",
    "name": "成功牛排 南大店",
    "address": "300台灣新竹市東區南大路816-2號",
    "region": "hsinchu_city",
    "latitude": 24.788716899999997,
    "longitude": 120.9665774,
    "orderLinks": [],
    "rating": 4.8
  },
  {
    "id": "ChIJ5zwU9As2aDQR-mrTEokhMa4",
    "name": "國立清華大學 小吃部",
    "address": "30013台灣新竹市東區光復路二段101號",
    "region": "hsinchu_city",
    "latitude": 24.7931395,
    "longitude": 120.99310419999999,
    "orderLinks": [
      {
        "id": "3304331b-75eb-4f2f-9f3c-aa29f5f943b2",
        "platform": "官網",
        "url": "http://www.nthu.edu.tw/"
      }
    ],
    "rating": 4
  },
  {
    "id": "ChIJb9VLFUk1aDQRnA0JcAzd3X8",
    "name": "阿美泰泰",
    "address": "300台灣新竹市東區學府路56號1樓",
    "region": "hsinchu_city",
    "latitude": 24.7961851,
    "longitude": 120.98281659999998,
    "orderLinks": [
      {
        "id": "5c9fd11b-7fed-4513-ad69-e446617d622b",
        "platform": "官網",
        "url": "https://www.facebook.com/%E9%98%BF%E7%BE%8E%E6%B3%B0%E6%B3%B0-113049507701812/?ref=pages_you_manage"
      }
    ],
    "rating": 4.5
  },
  {
    "id": "ChIJWdjyGww2aDQRNevyzv4kuXg",
    "name": "水木餐廳",
    "address": "300台灣新竹市東區光復路二段101號",
    "region": "hsinchu_city",
    "latitude": 24.7922877,
    "longitude": 120.9940825,
    "orderLinks": [
      {
        "id": "a7b95a42-d77d-4478-bf24-488ebf814fe1",
        "platform": "官網",
        "url": "https://facebook.com/waterwoodfoodcourt/"
      }
    ],
    "rating": 4
  },
  {
    "id": "ChIJ1wJ0WuA1aDQRkRYwPLHwGbg",
    "name": "無名早餐店 饅頭肉排蛋",
    "address": "300台灣新竹市東區學府路112號",
    "region": "hsinchu_city",
    "latitude": 24.7966655,
    "longitude": 120.9841455,
    "orderLinks": [
      {
        "id": "0dcacc5f-474b-4286-92ad-fd00d5b1a5fc",
        "platform": "官網",
        "url": "https://www.facebook.com/pages/%E7%84%A1%E5%90%8D%E9%A5%85%E9%A0%AD%E8%82%89%E6%8E%92%E8%9B%8B/101511223263792"
      }
    ],
    "rating": 4.3
  },
  {
    "id": "ChIJZZnY0nQ2aDQRaGoa5ALVp4g",
    "name": "麥當勞-新竹清大餐廳",
    "address": "300台灣新竹市東區光復路二段101號清華大學小吃部",
    "region": "hsinchu_city",
    "latitude": 24.792905299999997,
    "longitude": 120.9931201,
    "orderLinks": [
      {
        "id": "e492e2fa-4657-404f-9e4e-eace07299c6c",
        "platform": "官網",
        "url": "https://www.mcdonalds.com/tw/zh-tw.html"
      }
    ],
    "rating": 3.8
  },
  {
    "id": "ChIJ34d2ouY1aDQRWqPCvKGmAOM",
    "name": "阿寶魯肉飯",
    "address": "300台灣新竹市東區學府路165號",
    "region": "hsinchu_city",
    "latitude": 24.795509799999998,
    "longitude": 120.98032979999999,
    "orderLinks": [
      {
        "id": "62acbe9d-c9a4-426e-97b7-70e6582837cf",
        "platform": "官網",
        "url": "https://www.facebook.com/pages/%E9%98%BF%E5%AF%B6%E6%BB%B7%E8%82%89%E9%A3%AF/1666286903389622"
      }
    ],
    "rating": 4.2
  },
  {
    "id": "ChIJKTONuuY1aDQRLfRSLr5A280",
    "name": "學府牛肉麵",
    "address": "300台灣新竹市東區學府路106號",
    "region": "hsinchu_city",
    "latitude": 24.7966438,
    "longitude": 120.9839793,
    "orderLinks": [
      {
        "id": "adcc2c52-aad2-45e4-9175-0321298d5f29",
        "platform": "官網",
        "url": "https://www.facebook.com/xuefu.com.tw/"
      }
    ],
    "rating": 4
  },
  {
    "id": "ChIJ-0IMjD41aDQRNX6ISUK3fM4",
    "name": "富珍鄉豬腳專賣店",
    "address": "300台灣新竹市東區學府路359號",
    "region": "hsinchu_city",
    "latitude": 24.797373999999998,
    "longitude": 120.98541429999999,
    "orderLinks": [
      {
        "id": "d86a6998-a2ad-4337-ac79-66bf8cefcad7",
        "platform": "官網",
        "url": "https://m.facebook.com/%E5%AF%8C%E7%8F%8D%E9%84%89%E8%B1%AC%E8%85%B3%E5%B0%88%E8%B3%A3%E5%BA%97-110670497871850/"
      }
    ],
    "rating": 4.4
  },
  {
    "id": "ChIJAx_vf8k1aDQRrFqfIvZIkj8",
    "name": "德本家 tokumoto_brunch",
    "address": "300台灣新竹市東區學府路349號",
    "region": "hsinchu_city",
    "latitude": 24.797202799999997,
    "longitude": 120.98504899999999,
    "orderLinks": [
      {
        "id": "f99264d0-4e63-4b8f-afdd-7cd0556e8ac3",
        "platform": "官網",
        "url": "https://store.dudooeat.com/order/store/517182804fc849149d451d726854bf58"
      }
    ],
    "rating": 4.1
  },
  {
    "id": "ChIJby-2HuE1aDQRNArFQxLa3fc",
    "name": "興達飲食店（臭臉麵店）",
    "address": "300台灣新竹市東區學府路289號",
    "region": "hsinchu_city",
    "latitude": 24.7966497,
    "longitude": 120.9835907,
    "orderLinks": [],
    "rating": 4.3
  },
  {
    "id": "ChIJB9M8cFY1aDQRpO-KFUnTIMY",
    "name": "湘月食堂",
    "address": "300台灣新竹市東區學府路126號",
    "region": "hsinchu_city",
    "latitude": 24.796759299999998,
    "longitude": 120.98442409999998,
    "orderLinks": [
      {
        "id": "9585b654-3f70-4072-ba05-56d5f7d26997",
        "platform": "官網",
        "url": "https://www.facebook.com/%E6%B9%98%E6%9C%88%E9%A3%9F%E5%A0%82-105523347604292/"
      }
    ],
    "rating": 4.4
  },
  {
    "id": "ChIJ10ye_eA1aDQRjlUTgWdZBhg",
    "name": "丐幫滷味學府分舵",
    "address": "300台灣新竹市東區學府路321號1樓",
    "region": "hsinchu_city",
    "latitude": 24.7968731,
    "longitude": 120.98419659999999,
    "orderLinks": [
      {
        "id": "0cad5756-ad32-4cab-b062-c15e5672dbf0",
        "platform": "官網",
        "url": "http://www.gaibom.com/"
      }
    ],
    "rating": 4.4
  },
  {
    "id": "ChIJVVVVVdw1aDQRxmQEm2Ub6Y8",
    "name": "168新加坡美食",
    "address": "300台灣新竹市東區學府路307號",
    "region": "hsinchu_city",
    "latitude": 24.7968101,
    "longitude": 120.9840636,
    "orderLinks": [
      {
        "id": "730cd382-6933-46ec-acd7-c6e0747acf30",
        "platform": "官網",
        "url": "https://m.facebook.com/profile.php?id=412430385451571"
      }
    ],
    "rating": 4
  },
  {
    "id": "ChIJs8wLNeE1aDQR0c8v55zprZo",
    "name": "楊家古早味美食（滷肉飯鍋燒麵小卷米粉）",
    "address": "300台灣新竹市東區學府路215號",
    "region": "hsinchu_city",
    "latitude": 24.796045499999998,
    "longitude": 120.98193930000001,
    "orderLinks": [
      {
        "id": "3c7f8c9d-eec7-4c94-aa68-96c8d16f4087",
        "platform": "官網",
        "url": "https://www.facebook.com/yang5710520/"
      }
    ],
    "rating": 4.3
  },
  {
    "id": "ChIJgeYQOAA1aDQRDlIctmyNIes",
    "name": "廖哩",
    "address": "300039台灣新竹市東區學府路66號",
    "region": "hsinchu_city",
    "latitude": 24.7962296,
    "longitude": 120.98293489999999,
    "orderLinks": [
      {
        "id": "7fb2f114-1f92-4647-96a8-e7dab86b92e6",
        "platform": "官網",
        "url": "https://www.facebook.com/profile.php?id=100054571474227"
      }
    ],
    "rating": 4.8
  },
  {
    "id": "ChIJJ2_AGeE1aDQREfl-QL9DvqY",
    "name": "山東饅頭 學府店",
    "address": "300台灣新竹市東區學府路86號",
    "region": "hsinchu_city",
    "latitude": 24.7965517,
    "longitude": 120.98374720000001,
    "orderLinks": [],
    "rating": 4.3
  },
  {
    "id": "ChIJOeu-v0o3aDQRuarZyVxLYAM",
    "name": "森森燒肉 新竹清大店",
    "address": "300台灣新竹市東區光復路二段151號",
    "region": "hsinchu_city",
    "latitude": 24.7980508,
    "longitude": 120.99444240000001,
    "orderLinks": [
      {
        "id": "52eb52d3-328a-459f-b8c0-0005994d6ae3",
        "platform": "官網",
        "url": "https://www.facebook.com/morimorifb.tw/"
      }
    ],
    "rating": 4.9
  },
  {
    "id": "ChIJbZAbVnE2aDQRolSy1dAf1Yk",
    "name": "段純貞建功店",
    "address": "300台灣新竹市東區建功一路135號",
    "region": "hsinchu_city",
    "latitude": 24.8026457,
    "longitude": 120.9937853,
    "orderLinks": [
      {
        "id": "0192aa6f-491e-45d5-97bd-f202b3af4bc0",
        "platform": "Ocard 線上點",
        "url": "https://order.ocard.co/jiangong/w2O74Q?a&utm_source=bot&utm_medium=line"
      }
    ],
    "rating": 4.1
  },
  {
    "id": "ChIJHy5wqxM2aDQRl3YZgSm68gs",
    "name": "大拇指小館",
    "address": "300台灣新竹市東區光復路二段52號",
    "region": "hsinchu_city",
    "latitude": 24.7918314,
    "longitude": 121.0036282,
    "orderLinks": [
      {
        "id": "2dff4535-4960-4483-aa4e-a2b98630bef4",
        "platform": "官網",
        "url": "https://www.facebook.com/pages/%E5%A4%A7%E6%8B%87%E6%8C%87%E5%B0%8F%E9%A4%A8/199856016705637"
      }
    ],
    "rating": 4.1
  },
  {
    "id": "ChIJayjir3I2aDQR0TGPgfctBdI",
    "name": "立晉豆花",
    "address": "300台灣新竹市東區建功一路6號",
    "region": "hsinchu_city",
    "latitude": 24.796863600000002,
    "longitude": 120.99839779999999,
    "orderLinks": [
      {
        "id": "868e35bc-b827-4cdf-ac8c-6b579fc0c964",
        "platform": "官網",
        "url": "https://www.facebook.com/%E7%AB%8B%E6%99%89%E5%82%B3%E7%B5%B1%E8%B1%86%E8%8A%B1-246909422001492/"
      }
    ],
    "rating": 4
  },
  {
    "id": "ChIJczUaDXQ2aDQRLvxS6dQ5FJA",
    "name": "Go eat Tapas Dining BAR 西班牙餐酒館(新竹)",
    "address": "300台灣新竹市東區新源街108號",
    "region": "hsinchu_city",
    "latitude": 24.802104900000003,
    "longitude": 120.99310759999999,
    "orderLinks": [
      {
        "id": "23b753d8-d1ea-4f3d-9b1c-3560bf81077e",
        "platform": "官網",
        "url": "https://www.facebook.com/goeattapas"
      }
    ],
    "rating": 4.4
  },
  {
    "id": "ChIJh6ttAnc3aDQRQZu7vCFQcO8",
    "name": "「拾起回憶」石憶食鍋/restaurants/美食/火鍋",
    "address": "300台灣新竹市東區忠孝路51號",
    "region": "hsinchu_city",
    "latitude": 24.802334199999997,
    "longitude": 120.99077910000001,
    "orderLinks": [
      {
        "id": "fe6e2fe0-93ea-4306-a70c-5266ed661365",
        "platform": "官網",
        "url": "https://shiyishiguo.weebly.com/"
      }
    ],
    "rating": 4.9
  },
  {
    "id": "ChIJ-9Ii9Kc3aDQRMsTHCBLmwB8",
    "name": "八二親食 將軍村",
    "address": "300台灣新竹市東區金城一路67號",
    "region": "hsinchu_city",
    "latitude": 24.794518099999998,
    "longitude": 121.0028583,
    "orderLinks": [
      {
        "id": "ba2de20f-b95f-4936-a61b-35ca5b6e0efc",
        "platform": "inline",
        "url": "https://inline.app/booking/-MYifWETiFJXKjFOhhSP:inline-live-2/-NJvAdx1DJE0-nV2nhSC"
      }
    ],
    "rating": 4.5
  },
  {
    "id": "ChIJRTzE0HI2aDQRWUCg5LibBp4",
    "name": "星巴克 光復清大門市",
    "address": "300台灣新竹市東區光復路二段406號",
    "region": "hsinchu_city",
    "latitude": 24.7971631,
    "longitude": 120.99669200000001,
    "orderLinks": [
      {
        "id": "dca0b2c8-b59f-4975-9816-69545b149988",
        "platform": "官網",
        "url": "http://www.starbucks.com.tw/"
      }
    ],
    "rating": 4.2
  },
  {
    "id": "ChIJV1SB7Ro3aDQROnas-ElaThE",
    "name": "墨竹亭 燃麵本家 新竹光復店",
    "address": "300台灣新竹市東區光復路二段760號",
    "region": "hsinchu_city",
    "latitude": 24.8009557,
    "longitude": 120.98814689999999,
    "orderLinks": [
      {
        "id": "139322b2-ce7e-4fb1-bac3-0326385056b1",
        "platform": "官網",
        "url": "http://www.mozhuting.com/"
      }
    ],
    "rating": 4.7
  },
  {
    "id": "ChIJ0bhVjHI2aDQRjzZBJ5TBaqw",
    "name": "白鬍子牛排清大店",
    "address": "300台灣新竹市東區建功一路68號",
    "region": "hsinchu_city",
    "latitude": 24.7984396,
    "longitude": 120.9978967,
    "orderLinks": [
      {
        "id": "1cbc3bd6-d510-4007-a782-88ba795f85cf",
        "platform": "官網",
        "url": "https://www.facebook.com/WBSHsinchu/"
      }
    ],
    "rating": 4.1
  },
  {
    "id": "ChIJe7ACr8s3aDQRgYuBp_30z4c",
    "name": "夜排檔熱炒",
    "address": "300台灣新竹市東區公道五路二段346號",
    "region": "hsinchu_city",
    "latitude": 24.8029057,
    "longitude": 120.99850509999999,
    "orderLinks": [
      {
        "id": "8d05b117-4778-4b0f-be4f-21ac8cbd9538",
        "platform": "官網",
        "url": "https://www.facebook.com/%E5%A4%9C%E6%8E%92%E6%AA%94%E5%95%A4%E9%85%92%E5%B1%8B-206037282746921/"
      }
    ],
    "rating": 4.4
  },
  {
    "id": "ChIJ-wfjv9s3aDQR8dNL3DEilJ0",
    "name": "日出咖啡sunrise cafe",
    "address": "300台灣新竹市東區金城二路4號",
    "region": "hsinchu_city",
    "latitude": 24.7948372,
    "longitude": 121.0031582,
    "orderLinks": [
      {
        "id": "66f3defa-0810-4e03-bd77-5de68082e8c1",
        "platform": "官網",
        "url": "https://www.facebook.com/profile.php?id=100086621050212"
      }
    ],
    "rating": 4.5
  },
  {
    "id": "ChIJe97NARM2aDQR2D8S7rJCTmQ",
    "name": "成都老鍋牛肉麵",
    "address": "300台灣新竹市東區光復路二段126號",
    "region": "hsinchu_city",
    "latitude": 24.7929472,
    "longitude": 121.0020443,
    "orderLinks": [
      {
        "id": "14114fe4-b720-4a89-9675-90323c36bf95",
        "platform": "官網",
        "url": "https://www.facebook.com/%E6%88%90%E9%83%BD%E8%80%81%E9%8D%8B%E9%BA%B5%E9%A3%9F%E9%A4%A8-1793799754176795/"
      }
    ],
    "rating": 4.5
  },
  {
    "id": "ChIJ_7fcdME1aDQRgoB2x52LFZU",
    "name": "麥當勞-新竹光復二餐廳",
    "address": "300台灣新竹市東區光復路二段241、243號",
    "region": "hsinchu_city",
    "latitude": 24.7996388,
    "longitude": 120.99070429999999,
    "orderLinks": [
      {
        "id": "b14f16de-1ad3-4d44-89f4-743cf3d85e74",
        "platform": "官網",
        "url": "https://www.mcdonalds.com/tw/zh-tw.html"
      }
    ],
    "rating": 3.5
  },
  {
    "id": "ChIJmXn_p3I2aDQRuxD02EJ1TAM",
    "name": "來來豆漿店",
    "address": "300台灣新竹市東區建功路23號300",
    "region": "hsinchu_city",
    "latitude": 24.7967238,
    "longitude": 120.99900190000001,
    "orderLinks": [],
    "rating": 4.3
  },
  {
    "id": "ChIJGxanrnY2aDQRKcaVOZsSSEY",
    "name": "新竹石頭燒肉火鍋",
    "address": "300台灣新竹市東區水源街99號",
    "region": "hsinchu_city",
    "latitude": 24.803149899999998,
    "longitude": 120.99246629999998,
    "orderLinks": [
      {
        "id": "e67c58b4-a781-46b9-b96b-0fde1e3c5955",
        "platform": "官網",
        "url": "http://stone-yakiniku.com.tw/"
      }
    ],
    "rating": 4.4
  },
  {
    "id": "ChIJu1iwKHQ2aDQR0vhX8ipyNzI",
    "name": "長疆炭燒羊肉爐 新竹忠孝店",
    "address": "300台灣新竹市東區忠孝路75號",
    "region": "hsinchu_city",
    "latitude": 24.8029644,
    "longitude": 120.9911049,
    "orderLinks": [
      {
        "id": "1c66dab6-d8d0-412c-9125-b98720fe7850",
        "platform": "官網",
        "url": "https://m.facebook.com/110964513593484/"
      }
    ],
    "rating": 4.1
  },
  {
    "id": "ChIJKTr23BE2aDQRHnwPbEFTM8U",
    "name": "國立陽明交通大學第二餐廳",
    "address": "300台灣新竹市東區大學路1001號",
    "region": "hsinchu_city",
    "latitude": 24.789302,
    "longitude": 120.99719699999999,
    "orderLinks": [
      {
        "id": "7590b4d2-d1ce-4c0f-bcd6-a586276cb91c",
        "platform": "官網",
        "url": "https://m.facebook.com/nctu.secondrestaurant/?locale2=zh_TW"
      }
    ],
    "rating": 4.3
  },
  {
    "id": "ChIJ2VHNGnk3aDQRIhNo09R4tuk",
    "name": "厚醍牛肉麵 新竹忠孝店",
    "address": "300台灣新竹市東區忠孝路25-1號",
    "region": "hsinchu_city",
    "latitude": 24.8015026,
    "longitude": 120.99012990000001,
    "orderLinks": [
      {
        "id": "3f712c54-5a28-46a4-909e-c2be044f478a",
        "platform": "官網",
        "url": "https://houti.com.tw/"
      }
    ],
    "rating": 4.4
  },
  {
    "id": "ChIJ2wj3W8M1aDQRK0HnRKo0ptI",
    "name": "Fleur Lis 芙洛麗大飯店",
    "address": "300台灣新竹市東區民族路69號",
    "region": "hsinchu_city",
    "latitude": 24.807078999999998,
    "longitude": 120.97523100000001,
    "orderLinks": [
      {
        "id": "e6c2583c-3f85-4f4e-a466-c2bcb2ef8489",
        "platform": "官網",
        "url": "https://www.fls.tw/"
      }
    ],
    "rating": 4.2
  },
  {
    "id": "ChIJY6vDqrc3aDQR97rW6lAZhJY",
    "name": "晶宴會館-御豐館",
    "address": "300台灣新竹市東區公道五路三段1號2樓",
    "region": "hsinchu_city",
    "latitude": 24.8053651,
    "longitude": 120.9916119,
    "orderLinks": [
      {
        "id": "8256a660-66a2-4638-a3ef-c542ac1e26be",
        "platform": "官網",
        "url": "https://www.amazinghall.com.tw/"
      }
    ],
    "rating": 4.5
  },
  {
    "id": "ChIJs_sS8to1aDQRAJv-D_RcMmU",
    "name": "老瀋陽酸菜白肉鍋",
    "address": "300台灣新竹市東區三民路125號",
    "region": "hsinchu_city",
    "latitude": 24.8103217,
    "longitude": 120.97878060000001,
    "orderLinks": [
      {
        "id": "0cdf6bb5-637d-457f-9204-cacaac1e22ed",
        "platform": "官網",
        "url": "https://www.facebook.com/%E8%80%81%E7%80%8B%E9%99%BD%E9%85%B8%E7%99%BD%E8%8F%9C%E7%81%AB%E9%8D%8B-395619727199635/"
      }
    ],
    "rating": 4.6
  },
  {
    "id": "ChIJo9bce_A1aDQRJh0Uo0lexW8",
    "name": "八二親食 三民店",
    "address": "300台灣新竹市東區三民路43號1樓",
    "region": "hsinchu_city",
    "latitude": 24.8088154,
    "longitude": 120.9755606,
    "orderLinks": [
      {
        "id": "885bee34-20ad-46b9-b951-463b0ef9426f",
        "platform": "inline",
        "url": "https://inline.app/booking/-MYifWETiFJXKjFOhhSP:inline-live-2/-MYifWP1-2fNoRgsGxOD"
      }
    ],
    "rating": 4.7
  },
  {
    "id": "ChIJxXgGN4Y1aDQRAPPbDqV62DA",
    "name": "豐華小吃",
    "address": "300台灣新竹市東區民生路147號",
    "region": "hsinchu_city",
    "latitude": 24.810623,
    "longitude": 120.9764186,
    "orderLinks": [],
    "rating": 4.1
  },
  {
    "id": "ChIJ_Z-fVMc1aDQRT3hEKm0RQH8",
    "name": "禾日香古早味魯肉飯",
    "address": "300台灣新竹市東區民族路163號",
    "region": "hsinchu_city",
    "latitude": 24.8091185,
    "longitude": 120.9789441,
    "orderLinks": [
      {
        "id": "23b992c6-1d4c-4863-a5eb-923755e89a81",
        "platform": "官網",
        "url": "https://www.facebook.com/%E7%A6%BE%E6%97%A5%E9%A6%99-%E9%AD%AF%E8%82%89%E9%A3%AF%E5%B0%88%E9%96%80%E5%BA%97-439450116189275/"
      }
    ],
    "rating": 4
  },
  {
    "id": "ChIJvwcX5kE1aDQR37Nb2Wri1hQ",
    "name": "同樂食鍋 新竹巨城三民店",
    "address": "300台灣新竹市東區三民路158號",
    "region": "hsinchu_city",
    "latitude": 24.809898099999998,
    "longitude": 120.9792166,
    "orderLinks": [
      {
        "id": "5a764a2f-c416-4bbd-825f-0c48255877a2",
        "platform": "官網",
        "url": "https://www.facebook.com/p/%E5%90%8C%E6%A8%82%E9%A3%9F%E9%8D%8B-%E7%9F%B3%E9%A0%AD%E7%81%AB%E9%8D%8B%E6%B6%AE%E6%B6%AE%E9%8D%8B%E5%B0%88%E8%B3%A3-100063518485791/"
      }
    ],
    "rating": 4.8
  },
  {
    "id": "ChIJk7BAC9E1aDQRcKhHolfreyo",
    "name": "Float Dept.微生咖啡「沒有訂位服務」「無室內候位空間」",
    "address": "300台灣新竹市東區民權路111巷23號",
    "region": "hsinchu_city",
    "latitude": 24.8073311,
    "longitude": 120.97451600000001,
    "orderLinks": [
      {
        "id": "1ba7e678-46d1-4bde-9cab-f1545f575a3a",
        "platform": "官網",
        "url": "https://www.facebook.com/Floatdept/?epa=SEARCH_BOX"
      }
    ],
    "rating": 4.4
  },
  {
    "id": "ChIJFxGEqts1aDQRDnK9lzSSAMU",
    "name": "一想一響咖啡 | 無提供訂位 | Last Order 21:00",
    "address": "30043台灣新竹市東區民生路58巷8號",
    "region": "hsinchu_city",
    "latitude": 24.8085247,
    "longitude": 120.97893069999998,
    "orderLinks": [
      {
        "id": "80cf72c2-1d8c-435e-a721-dabed73ed956",
        "platform": "官網",
        "url": "https://www.facebook.com/reecho.coffee/"
      }
    ],
    "rating": 4.2
  },
  {
    "id": "ChIJJfegw9Y1aDQR-tI0qA1iKb8",
    "name": "石二鍋 新竹忠孝店",
    "address": "300台灣新竹市東區忠孝路279-7號",
    "region": "hsinchu_city",
    "latitude": 24.804517999999998,
    "longitude": 120.98554700000001,
    "orderLinks": [
      {
        "id": "baeb8bef-ef80-4e70-b3a1-a1d20c132868",
        "platform": "官網",
        "url": "https://www.12hotpot.com.tw/"
      }
    ],
    "rating": 4
  },
  {
    "id": "ChIJgz49IhQ1aDQRrsgspC9NxpY",
    "name": "格林小鎮新2.0",
    "address": "300台灣新竹市東區自由路27巷43號",
    "region": "hsinchu_city",
    "latitude": 24.810843799999997,
    "longitude": 120.98057019999999,
    "orderLinks": [
      {
        "id": "a621d72d-fe3a-4c83-a74c-05e73e87989a",
        "platform": "官網",
        "url": "https://www.facebook.com/profile.php?id=100063995439195"
      }
    ],
    "rating": 4.4
  },
  {
    "id": "ChIJ18B0wt41aDQR1-xKN8FiW6s",
    "name": "千葉火鍋 新竹尊爵館 (原忠孝店)",
    "address": "300台灣新竹市東區忠孝路281號",
    "region": "hsinchu_city",
    "latitude": 24.803576399999997,
    "longitude": 120.98383419999999,
    "orderLinks": [
      {
        "id": "ddf1428e-a2d2-44ca-88ee-dba5b7f88348",
        "platform": "官網",
        "url": "https://cyhotpot.net/GShome"
      }
    ],
    "rating": 4.4
  },
  {
    "id": "ChIJ4x8tVGY1aDQRFMfEWoevWjA",
    "name": "蔣好的味道",
    "address": "300台灣新竹市東區鐵道路一段28巷81號",
    "region": "hsinchu_city",
    "latitude": 24.8124319,
    "longitude": 120.9846131,
    "orderLinks": [
      {
        "id": "130933cb-5b5e-47f5-ab54-8b987822c77b",
        "platform": "官網",
        "url": "https://m.facebook.com/pages/category/Restaurant/%E8%94%A3%E5%A5%BD%E7%9A%84%E5%91%B3%E9%81%93-320575941851148/"
      }
    ],
    "rating": 4.4
  },
  {
    "id": "ChIJT_jE4RE2aDQROKOEdLQnfsw",
    "name": "漢堡邦",
    "address": "300台灣新竹市東區大學路1005號",
    "region": "hsinchu_city",
    "latitude": 24.7895988,
    "longitude": 120.99930250000001,
    "orderLinks": [],
    "rating": 4.4
  },
  {
    "id": "ChIJy2emtaA3aDQR8ZB6mCYIKLU",
    "name": "Here Space 這家咖啡｜冰滴手沖專売｜甜點｜餐盒外燴｜入所請降低音量（有門禁，請來電）",
    "address": "300台灣新竹市東區大學路1001號第二餐廳３樓",
    "region": "hsinchu_city",
    "latitude": 24.789275,
    "longitude": 120.99709920000001,
    "orderLinks": [],
    "rating": 4.9
  },
  {
    "id": "ChIJ2bPUJAs2aDQRMyEuc3UiISM",
    "name": "清華大學 第二招待所",
    "address": "300台灣新竹市東區光復路二段101號",
    "region": "hsinchu_city",
    "latitude": 24.797029799999997,
    "longitude": 120.9912045,
    "orderLinks": [],
    "rating": 3.9
  },
  {
    "id": "ChIJDSKUxeE1aDQRmjh99J0YA20",
    "name": "種籽蔬食養生早午餐",
    "address": "300台灣新竹市東區博愛街5巷61號",
    "region": "hsinchu_city",
    "latitude": 24.7955971,
    "longitude": 120.98664749999999,
    "orderLinks": [
      {
        "id": "ba2c891f-4d3c-4e72-a4df-724dd33f2785",
        "platform": "官網",
        "url": "https://www.facebook.com/%E7%A8%AE%E7%B1%BD%E8%94%AC%E9%A3%9F-351888888528841/"
      }
    ],
    "rating": 4.6
  },
  {
    "id": "ChIJ27R6Bwc2aDQRFopW3o0XlAg",
    "name": "創義食族",
    "address": "300台灣新竹市東區寶山路416號",
    "region": "hsinchu_city",
    "latitude": 24.7848866,
    "longitude": 120.9899167,
    "orderLinks": [],
    "rating": 3.9
  },
  {
    "id": "ChIJh4CYXzs3aDQRxhvOPkO80EE",
    "name": "南部好滋味",
    "address": "300台灣新竹市東區光復路二段155巷78號",
    "region": "hsinchu_city",
    "latitude": 24.7975143,
    "longitude": 120.99234009999999,
    "orderLinks": [
      {
        "id": "fface7a0-79d9-4769-ad03-4a6527ee440b",
        "platform": "官網",
        "url": "https://www.facebook.com/AlenChen5720771"
      }
    ],
    "rating": 3.8
  },
  {
    "id": "ChIJ0-X0_g43aDQRNVZPMfEoTi0",
    "name": "軒邑快餐",
    "address": "300台灣新竹市東區寶山路426號1樓",
    "region": "hsinchu_city",
    "latitude": 24.7847412,
    "longitude": 120.9900049,
    "orderLinks": [
      {
        "id": "3b14abf1-1e24-498a-85b4-4892b1e3183c",
        "platform": "官網",
        "url": "https://www.facebook.com/profile.php?id=100063660831692&mibextid=ZbWKwL"
      }
    ],
    "rating": 4
  },
  {
    "id": "ChIJTZG0XuA1aDQRVuZEkf_I2Q8",
    "name": "如意麵食館 牛肉麵",
    "address": "300台灣新竹市東區光復路二段746號",
    "region": "hsinchu_city",
    "latitude": 24.8007396,
    "longitude": 120.98862,
    "orderLinks": [
      {
        "id": "68bebd96-7e7c-4680-acc8-fe2448d45816",
        "platform": "官網",
        "url": "https://www.facebook.com/Ruiibeafnoodles/?__tn__=,d,P-R&eid=ARB16HM6yKFhOQDFzg_CbQFaVTSY3I2RiruZ1ve0Gb3CsOh-P_adzgFUsIVhNbKEGQb7Ds1yZSjOdD7b"
      }
    ],
    "rating": 4.6
  },
  {
    "id": "ChIJw49gEwA3aDQRlt8g1IbZiJM",
    "name": "亞丁尼義式麵屋 清大店-新竹美食推薦|在地推薦餐廳|必吃義大利麵|平價義大利麵|人氣餐廳|焗烤義大利麵|義式燉飯|焗烤推薦",
    "address": "300台灣新竹市東區光復路二段352號",
    "region": "hsinchu_city",
    "latitude": 24.7963825,
    "longitude": 120.99772989999998,
    "orderLinks": [
      {
        "id": "86eb5859-f01a-4f22-879c-478f81795e52",
        "platform": "官網",
        "url": "https://www.instagram.com/yadingni?igsh=MTRlbjQ4eHF0bTFkNA==&utm_source=qr"
      }
    ],
    "rating": 4.8
  },
  {
    "id": "ChIJKcZXvC03aDQR_r2e5qnlOJE",
    "name": "幸福客家麵食館",
    "address": "300台灣新竹市東區光復路二段171號173號",
    "region": "hsinchu_city",
    "latitude": 24.7992079,
    "longitude": 120.99208699999998,
    "orderLinks": [
      {
        "id": "e9a2587e-c968-4ec4-ab0d-33bf830660f7",
        "platform": "官網",
        "url": "https://www.facebook.com/p/%E5%B9%B8%E7%A6%8F%E5%AE%A2%E5%AE%B6%E9%BA%B5%E9%A3%9F%E9%A4%A8-100063983715533/"
      }
    ],
    "rating": 4.4
  },
  {
    "id": "ChIJASR-N5U1aDQR5OnPyt0zoBU",
    "name": "一百種味道 總店外帶店",
    "address": "300台灣新竹市北區勝利路183號",
    "region": "hsinchu_city",
    "latitude": 24.801403099999998,
    "longitude": 120.96442169999999,
    "orderLinks": [
      {
        "id": "85d09a8a-1e9c-4116-9898-d7e4aefa58ee",
        "platform": "官網",
        "url": "https://www.100tastes.com.tw/"
      }
    ],
    "rating": 4.4
  },
  {
    "id": "ChIJU1UV0-o1aDQRfb1nhfpbegA",
    "name": "海底撈火鍋 新竹店",
    "address": "300台灣新竹市東區西大路323號4樓",
    "region": "hsinchu_city",
    "latitude": 24.8018619,
    "longitude": 120.96466599999998,
    "orderLinks": [
      {
        "id": "276d605e-195b-4b9a-81c0-d95e399461c9",
        "platform": "inline",
        "url": "https://inline.app/booking/-LamXb5SAQN7JcJfyRKi:inline-live-2a466/-LbuaqbC2ccoRJPiNuyB"
      }
    ],
    "rating": 4.8
  },
  {
    "id": "ChIJzerQyOo1aDQRWcfl4b61Ekk",
    "name": "鼎泰豐 新竹店",
    "address": "300台灣新竹市東區西大路323號B1",
    "region": "hsinchu_city",
    "latitude": 24.8015395,
    "longitude": 120.96460320000001,
    "orderLinks": [
      {
        "id": "d034aa83-6bf2-4285-80bf-2bfcdb5a6a6f",
        "platform": "官網",
        "url": "https://www.dintaifung.com.tw/"
      }
    ],
    "rating": 4.5
  },
  {
    "id": "ChIJr1_Szuo1aDQRgiJ4vR0u1e4",
    "name": "饗食天堂 新竹店",
    "address": "300台灣新竹市東區西大路323號9樓",
    "region": "hsinchu_city",
    "latitude": 24.8019347,
    "longitude": 120.9648374,
    "orderLinks": [
      {
        "id": "90e16a5b-758d-4812-93d9-24d9cf3efce7",
        "platform": "官網",
        "url": "https://www.eatogether.com.tw/zh-TW/home"
      }
    ],
    "rating": 4.2
  },
  {
    "id": "ChIJ4QlrdXM1aDQRHncxGKw15cU",
    "name": "山田麻糬製造所",
    "address": "300台灣新竹市東區文昌街85號",
    "region": "hsinchu_city",
    "latitude": 24.8020976,
    "longitude": 120.9667146,
    "orderLinks": [
      {
        "id": "0b782883-8094-4edf-bcd1-d0deecf580a6",
        "platform": "官網",
        "url": "https://yamadamochiya.com/"
      }
    ],
    "rating": 4.2
  },
  {
    "id": "ChIJ3dnarZQ1aDQR9cqxIVNQxcM",
    "name": "墨咖啡 INK COFFEE",
    "address": "300台灣新竹市東區林森路180號",
    "region": "hsinchu_city",
    "latitude": 24.799274,
    "longitude": 120.9643338,
    "orderLinks": [
      {
        "id": "afebd236-7e79-4d1b-ba76-4813f730d71e",
        "platform": "官網",
        "url": "https://line.me/R/ti/p/@225cjqbm"
      }
    ],
    "rating": 4.6
  },
  {
    "id": "ChIJ4XDG8eo1aDQR3-DL--Irw7k",
    "name": "老港陳",
    "address": "300台灣新竹市東區南門街55號",
    "region": "hsinchu_city",
    "latitude": 24.8015537,
    "longitude": 120.96699729999999,
    "orderLinks": [
      {
        "id": "a539123f-4e3a-4152-a377-c3be53c87f3d",
        "platform": "官網",
        "url": "https://www.instagram.com/chenqiaoyin2/"
      }
    ],
    "rating": 4
  },
  {
    "id": "ChIJ0ajpYOo1aDQRFvj0fx5fkgI",
    "name": "榮記客家湯圓",
    "address": "300台灣新竹市東區武昌街64號",
    "region": "hsinchu_city",
    "latitude": 24.8021834,
    "longitude": 120.96786259999999,
    "orderLinks": [],
    "rating": 4.1
  },
  {
    "id": "ChIJg1aZ5ZQ1aDQRxib5yEmSpr8",
    "name": "貳參咖啡-西門店「無訂位服務」",
    "address": "300台灣新竹市北區西門街152號",
    "region": "hsinchu_city",
    "latitude": 24.801079299999998,
    "longitude": 120.96268510000002,
    "orderLinks": [
      {
        "id": "83ed5492-2017-47df-928c-70bbde7388bd",
        "platform": "官網",
        "url": "https://www.instagram.com/23coffeeroasters2.0?igsh=MWNkZm1ucXgxNjYzcQ=="
      }
    ],
    "rating": 4.7
  },
  {
    "id": "ChIJyfCDFoc1aDQRJduqajHrdPA",
    "name": "築間幸福鍋物 新竹中華店",
    "address": "300台灣新竹市北區中華路三段6號",
    "region": "hsinchu_city",
    "latitude": 24.7973231,
    "longitude": 120.9632943,
    "orderLinks": [
      {
        "id": "10e0ccfc-d25d-4802-858c-6d90329db9d5",
        "platform": "官網",
        "url": "https://linktr.ee/jhujian6666"
      }
    ],
    "rating": 4.5
  },
  {
    "id": "ChIJuTJ0aBQ1aDQRv323E4Wjtnk",
    "name": "嗑肉石鍋-新竹西門店(二代店)",
    "address": "300台灣新竹市北區西門街66號",
    "region": "hsinchu_city",
    "latitude": 24.802438,
    "longitude": 120.9646465,
    "orderLinks": [
      {
        "id": "bed866bb-5fe6-49bf-b08e-57a49fa9f237",
        "platform": "官網",
        "url": "https://www.meatshotpot.com/"
      }
    ],
    "rating": 4.7
  },
  {
    "id": "ChIJ1-ChtNQ1aDQRdpyukPL0qz4",
    "name": "海瑞摃丸新竹西門總店",
    "address": "300台灣新竹市北區西門街98號",
    "region": "hsinchu_city",
    "latitude": 24.801802499999997,
    "longitude": 120.96379119999997,
    "orderLinks": [
      {
        "id": "4243dd13-cdd4-4b21-84e5-4056e92761bf",
        "platform": "官網",
        "url": "https://www.hairei.com.tw/"
      }
    ],
    "rating": 4.3
  },
  {
    "id": "ChIJgxLtY8g1aDQRhdQ0l6licm0",
    "name": "鴨肉許（中央店）",
    "address": "300台灣新竹市東區中央路296號",
    "region": "hsinchu_city",
    "latitude": 24.8100637,
    "longitude": 120.9777522,
    "orderLinks": [],
    "rating": 3.9
  },
  {
    "id": "ChIJQyv318Q1aDQRYz_krC4mdb4",
    "name": "Big City遠東巨城購物中心",
    "address": "30041台灣新竹市東區中央路229號",
    "region": "hsinchu_city",
    "latitude": 24.8098161,
    "longitude": 120.9751319,
    "orderLinks": [
      {
        "id": "d05d3209-7097-4e7c-9b92-b9aa4a2dc4b3",
        "platform": "官網",
        "url": "https://www.febigcity.com/bigcity"
      }
    ],
    "rating": 4.4
  },
  {
    "id": "ChIJRU8ga8Q1aDQRtHRng5DN6V4",
    "name": "菜園上海餐廳",
    "address": "300台灣新竹市東區東大路一段136號",
    "region": "hsinchu_city",
    "latitude": 24.808519,
    "longitude": 120.97211199999998,
    "orderLinks": [],
    "rating": 4.5
  },
  {
    "id": "ChIJ4-UpTj01aDQRRyUgXMxYZeg",
    "name": "享鴨 烤鴨與中華料理 新竹北大店",
    "address": "300台灣新竹市北區北大路140號",
    "region": "hsinchu_city",
    "latitude": 24.8102748,
    "longitude": 120.9684104,
    "orderLinks": [
      {
        "id": "3678a979-4b43-44f1-a521-954bb2d353eb",
        "platform": "官網",
        "url": "https://www.facebook.com/XIANGDUCK/"
      }
    ],
    "rating": 4.8
  },
  {
    "id": "ChIJETQYfME1aDQRia25uG7BIzg",
    "name": "私嚐の吃飯",
    "address": "300台灣新竹市東區中正路96巷16號300",
    "region": "hsinchu_city",
    "latitude": 24.8056537,
    "longitude": 120.97012289999999,
    "orderLinks": [
      {
        "id": "e0b77d1b-fcb3-43cc-9391-6b404ceec3cb",
        "platform": "官網",
        "url": "https://www.facebook.com/eat20170319/"
      }
    ],
    "rating": 4.8
  },
  {
    "id": "ChIJh0Kn1Qs1aDQRG5uBSCxubkY",
    "name": "麥當勞 新竹經國店",
    "address": "300台灣新竹市東區經國路一段522號號1樓",
    "region": "hsinchu_city",
    "latitude": 24.814601099999997,
    "longitude": 120.9767868,
    "orderLinks": [
      {
        "id": "cb6cdfdf-6a8b-49da-81ef-4be081c01fe2",
        "platform": "官網",
        "url": "https://www.mcdonalds.com/tw/zh-tw/full-menu/mccafe.html"
      }
    ],
    "rating": 3.7
  },
  {
    "id": "ChIJK_BsJwM1aDQRrSAouGbezP8",
    "name": "硬派主廚的軟嫩料理-東門市場",
    "address": "300台灣新竹市東區東門市場1143號中央路102巷10號",
    "region": "hsinchu_city",
    "latitude": 24.805497499999998,
    "longitude": 120.96914029999998,
    "orderLinks": [
      {
        "id": "7780dec8-cfec-4f1e-9389-931710f38840",
        "platform": "官網",
        "url": "https://www.instagram.com/hardcorechiefs?igsh=MTAyYjViaGYwMGlxcQ%3D%3D&utm_source=qr"
      }
    ],
    "rating": 4.5
  },
  {
    "id": "ChIJe8VtwBw1aDQRgk0e3DIGfd8",
    "name": "招財咖啡",
    "address": "300台灣新竹市北區英明街6-1號",
    "region": "hsinchu_city",
    "latitude": 24.8069243,
    "longitude": 120.96746850000001,
    "orderLinks": [
      {
        "id": "1c35c46f-4025-431d-907a-5622cc2997f2",
        "platform": "inline",
        "url": "https://inline.app/booking/-Mtzt-ua60-H69xtv-9o:inline-live-2/-Mtzt07e6zaky3nEcqx0"
      }
    ],
    "rating": 4.6
  },
  {
    "id": "ChIJPau9rjc1aDQRsSxlBGUC_jM",
    "name": "星巴克 新竹州圖門市",
    "address": "300台灣新竹市東區文化街8號",
    "region": "hsinchu_city",
    "latitude": 24.805214799999998,
    "longitude": 120.9712339,
    "orderLinks": [
      {
        "id": "dcfff772-8858-4d16-8117-52b5698cdd74",
        "platform": "官網",
        "url": "https://www.starbucks.com.tw/home/index.jspx?r=15"
      }
    ],
    "rating": 4.3
  },
  {
    "id": "ChIJ_9ABIMc1aDQRCO1p9dxKbCo",
    "name": "小稻甜 Cafe",
    "address": "300台灣新竹市北區北大路166巷1弄1號",
    "region": "hsinchu_city",
    "latitude": 24.809946999999998,
    "longitude": 120.96754619999999,
    "orderLinks": [
      {
        "id": "56f9567e-5b41-4294-88f9-c3b571737ed5",
        "platform": "官網",
        "url": "http://www.facebook.com/%E5%B0%8F%E7%A8%BB%E7%94%9Ccafe-1759074137656305/"
      }
    ],
    "rating": 4.3
  },
  {
    "id": "ChIJx6GoixY1aDQRxsR6FvE2zQI",
    "name": "JAI宅 義大利麵 新竹巨城",
    "address": "300台灣新竹市東區民權路195號",
    "region": "hsinchu_city",
    "latitude": 24.809943699999998,
    "longitude": 120.9732233,
    "orderLinks": [
      {
        "id": "913ca5c1-3758-4884-82e9-4f20cefdf3eb",
        "platform": "官網",
        "url": "https://www.zunhongtw.com/"
      }
    ],
    "rating": 4.5
  },
  {
    "id": "ChIJpdWHNb01aDQRqHZADwn0ETU",
    "name": "皿富器食 minfood",
    "address": "300台灣新竹市東區錦華街18巷22號",
    "region": "hsinchu_city",
    "latitude": 24.8095958,
    "longitude": 120.9735533,
    "orderLinks": [
      {
        "id": "1c31aaa4-9cf4-4288-83d7-dfef01460fe3",
        "platform": "官網",
        "url": "https://www.facebook.com/pages/category/Restaurant/%E7%9A%BF%E5%AF%8C%E5%99%A8%E9%A3%9F-min-food-730091614009830/"
      }
    ],
    "rating": 4.2
  },
  {
    "id": "ChIJu4Mmbrw1aDQRQRhtKEo2d0g",
    "name": "夯下去和牛燒肉放題-新竹經國店",
    "address": "300台灣新竹市東區經國路一段673號寶雅、燦坤對面1樓",
    "region": "hsinchu_city",
    "latitude": 24.813608799999997,
    "longitude": 120.96849619999999,
    "orderLinks": [
      {
        "id": "22a5d66d-0595-4a56-8154-ba202cfdaba9",
        "platform": "官網",
        "url": "https://www.facebook.com/profile.php?id=100092665744582"
      }
    ],
    "rating": 4.5
  }
]