[
  {
    "id": "ChIJ8-Ir3xE2aDQRe7VYwqceEkQ",
    "name": "麥當勞-新竹交大餐廳",
    "address": "300台灣新竹市東區女二舍國立交通大學B棟1F大學路1001號之",
    "region": "hsinchu_city",
    "latitude": 24.784781499999998,
    "longitude": 120.99912020000001,
    "orderLinks": [
      {
        "id": "03b794c4-8c27-4978-8736-76301d34c33c",
        "platform": "官網",
        "url": "https://www.mcdonalds.com/tw/zh-tw.html"
      }
    ],
    "rating": 4,
    "phone": "03 573 4333"
  },
  {
    "id": "ChIJk5rJxR42aDQRUs45baSmRHI",
    "name": "漢堡王 Burger King 竹科店",
    "address": "300台灣新竹市東區工業東二路1號",
    "region": "hsinchu_city",
    "latitude": 24.779784799999998,
    "longitude": 121.005538,
    "orderLinks": [
      {
        "id": "5b693834-df89-49e8-87ac-b0a858806b6c",
        "platform": "官網",
        "url": "https://www.burgerking.com.tw/"
      }
    ],
    "rating": 4,
    "phone": "03 564 3996"
  },
  {
    "id": "ChIJixrR5xE2aDQRcSR1SqrnbRs",
    "name": "小木屋鬆餅 交大店",
    "address": "300台灣新竹市東區大學路1001號交通大學資訊技術服務中心前餐亭",
    "region": "hsinchu_city",
    "latitude": 24.7876683,
    "longitude": 120.99761310000001,
    "orderLinks": [
      {
        "id": "ffd4f9f3-888c-471e-918e-e7b0a172bee6",
        "platform": "官網",
        "url": "https://shinemood2006.com/"
      }
    ],
    "rating": 4.4,
    "phone": "03 573 5754"
  },
  {
    "id": "ChIJ76MBfAA3aDQRi_IbQ18TJnw",
    "name": "星巴克 瑞昱門市",
    "address": "300台灣新竹市東區園區二路9號",
    "region": "hsinchu_city",
    "latitude": 24.7806554,
    "longitude": 120.99812329999997,
    "orderLinks": [],
    "rating": 4.2,
    "phone": "03 567 9882"
  },
  {
    "id": "ChIJOUiFNwQ3aDQRjdcM2Tsh48c",
    "name": "安妞韓國烤肉食堂-新竹竹科店",
    "address": "30075台灣新竹市東區工業東二路1號科技生活館1樓",
    "region": "hsinchu_city",
    "latitude": 24.7798448,
    "longitude": 121.0056449,
    "orderLinks": [
      {
        "id": "260996e9-1170-4472-8ed2-394cef82320e",
        "platform": "inline",
        "url": "https://inline.app/booking/-MxlOnofn8Ew22KvmQpW:inline-live-2/-N5hr_1uGdyl7aNIYR5l"
      }
    ],
    "rating": 4.7,
    "phone": "03 577 1166"
  },
  {
    "id": "ChIJ1R1lGRA2aDQR0OU4Hv0sMnU",
    "name": "LALA Kitchen 交大店",
    "address": "300台灣新竹市東區大學路1001號",
    "region": "hsinchu_city",
    "latitude": 24.786283599999997,
    "longitude": 120.99969309999999,
    "orderLinks": [
      {
        "id": "bf7dcdec-fca6-4b06-85f1-4f892ca676a1",
        "platform": "官網",
        "url": "https://www.facebook.com/NolaKitchenNCTU"
      }
    ],
    "rating": 3.8,
    "phone": "03 573 7162"
  },
  {
    "id": "ChIJEaCmPQc2aDQRU3KNyg4as2I",
    "name": "車庫町日式咖哩，丼飯",
    "address": "300台灣新竹市東區寶山路452巷8弄13號",
    "region": "hsinchu_city",
    "latitude": 24.7834315,
    "longitude": 120.98986389999997,
    "orderLinks": [
      {
        "id": "a6907442-9101-489b-91b1-6a875902bf08",
        "platform": "官網",
        "url": "https://www.facebook.com/%E8%BB%8A%E5%BA%AB%E7%94%BA%E6%97%A5%E5%BC%8F%E5%92%96%E5%93%A9%E4%B8%BC%E9%A3%AF-400392670359308/"
      }
    ],
    "rating": 4.2,
    "phone": "03 579 5350"
  },
  {
    "id": "ChIJO34F0_81aDQRFoGVWM8hLR4",
    "name": "雲南泰式小吃",
    "address": "300台灣新竹市東區高翠路217號",
    "region": "hsinchu_city",
    "latitude": 24.7799384,
    "longitude": 120.98697219999998,
    "orderLinks": [
      {
        "id": "25682606-834f-490a-abed-0c1bda2085ef",
        "platform": "官網",
        "url": "https://amy77.com/blog/post/26204574"
      }
    ],
    "rating": 4.3,
    "phone": "03 668 6731"
  },
  {
    "id": "ChIJsdKBkTc3aDQRWXucR4NgusY",
    "name": "漢堡王 交大店",
    "address": "300台灣新竹市東區大學路1001號研三舍餐廳",
    "region": "hsinchu_city",
    "latitude": 24.783808999999998,
    "longitude": 120.9971564,
    "orderLinks": [
      {
        "id": "919ca6b5-d57c-470b-82c0-c09e6f618d2f",
        "platform": "官網",
        "url": "http://www.burgerking.com.tw/"
      }
    ],
    "rating": 4.1,
    "phone": "03 575 0079"
  },
  {
    "id": "ChIJ_X-SXBk2aDQR2gweJGKLUEA",
    "name": "禾園茶館",
    "address": "300台灣新竹市東區工業東二路1號3樓",
    "region": "hsinchu_city",
    "latitude": 24.779719099999998,
    "longitude": 121.00542099999998,
    "orderLinks": [
      {
        "id": "165a3cd9-f4dc-4bb0-baab-396d7a875ee7",
        "platform": "官網",
        "url": "https://www.facebook.com/Heyuan.tea/"
      }
    ],
    "rating": 4.5,
    "phone": "03 666 2706"
  },
  {
    "id": "ChIJhw6zlas3aDQRzYz7p8GDrUo",
    "name": "安好食 寶山店",
    "address": "300台灣新竹市東區寶山路418號",
    "region": "hsinchu_city",
    "latitude": 24.7848501,
    "longitude": 120.9899493,
    "orderLinks": [
      {
        "id": "59166e23-0b81-4c39-b495-68ed9e508d28",
        "platform": "官網",
        "url": "https://app.eats365pos.com/tw/tc/anhao_food_treasure_mountain"
      }
    ],
    "rating": 4.8,
    "phone": "03 577 4189"
  },
  {
    "id": "ChIJiYFArvY3aDQRRNGDeggpPCk",
    "name": "Nude 裸色茶啡",
    "address": "300台灣新竹市東區創新二路7號",
    "region": "hsinchu_city",
    "latitude": 24.7791463,
    "longitude": 120.9962314,
    "orderLinks": [
      {
        "id": "ffe5f1e0-1e6f-49ff-aa13-856f0d2e6dac",
        "platform": "官網",
        "url": "https://www.facebook.com/nudetrendycafe/"
      }
    ],
    "rating": 4.4,
    "phone": "03 668 7691"
  },
  {
    "id": "ChIJ4WQ8CAA3aDQR-emAFviWHvs",
    "name": "義早早午餐-新竹交大店",
    "address": "300台灣新竹市東區大學路1001號研三舍",
    "region": "hsinchu_city",
    "latitude": 24.7839058,
    "longitude": 120.99730149999998,
    "orderLinks": [
      {
        "id": "62933d3e-bffe-49ea-99be-0175da3977bd",
        "platform": "官網",
        "url": "https://www.facebook.com/eatmorning162"
      }
    ],
    "rating": 4.4,
    "phone": "03 575 1665"
  },
  {
    "id": "ChIJ-y2DwP81aDQR4EAk6ILKkHA",
    "name": "六家麵店(新竹高翠店)",
    "address": "300台灣新竹市東區高翠路255號",
    "region": "hsinchu_city",
    "latitude": 24.7793441,
    "longitude": 120.98628199999999,
    "orderLinks": [],
    "rating": 4,
    "phone": "03 578 5709"
  },
  {
    "id": "ChIJoRAKjho2aDQRyTO0-JxnIf4",
    "name": "Lim Coffee咖啡館",
    "address": "300台灣新竹市東區展業一路11號",
    "region": "hsinchu_city",
    "latitude": 24.7837075,
    "longitude": 121.0006945,
    "orderLinks": [
      {
        "id": "942be9f9-2fad-4c8e-b207-56daba21ad68",
        "platform": "官網",
        "url": "https://m.facebook.com/Lim-coffee-983335088378049/"
      }
    ],
    "rating": 4.5,
    "phone": "03 666 7707"
  },
  {
    "id": "ChIJz_hO70E3aDQRQ1ewGMF2lDg",
    "name": "天晟燒臘",
    "address": "300093台灣新竹市東區大學路1001-2號",
    "region": "hsinchu_city",
    "latitude": 24.784494199999997,
    "longitude": 120.99952859999998,
    "orderLinks": [],
    "rating": 4.2,
    "phone": "0910 226 721"
  },
  {
    "id": "ChIJbTgnHxA2aDQR3WiUvpbZUzk",
    "name": "國立陽明交通大學第一餐廳",
    "address": "300台灣新竹市東區大學路1001號",
    "region": "hsinchu_city",
    "latitude": 24.786524,
    "longitude": 120.9993977,
    "orderLinks": [],
    "rating": 3.8,
    "phone": "03 571 2121"
  },
  {
    "id": "ChIJK38UiQc2aDQRH_2NF9sR0EY",
    "name": "雙饗丼 新竹寶山店",
    "address": "300台灣新竹市東區寶山路430號",
    "region": "hsinchu_city",
    "latitude": 24.784720399999998,
    "longitude": 120.99010989999998,
    "orderLinks": [
      {
        "id": "298e3191-9905-4870-a135-cf9e8a274362",
        "platform": "官網",
        "url": "https://lin.ee/loAkfyQ"
      }
    ],
    "rating": 4.1,
    "phone": "03 579 9847"
  },
  {
    "id": "ChIJl6JrUf5JaDQRGF2HXgwR8Ws",
    "name": "STARBUCKS 星巴克 (園區門市)不對外開放",
    "address": "300台灣新竹縣寶山鄉研新一路9號",
    "region": "hsinchu_city",
    "latitude": 24.7752198,
    "longitude": 120.9902335,
    "orderLinks": [
      {
        "id": "45846bcd-d6f3-402c-92ab-90d3d9fcdfeb",
        "platform": "官網",
        "url": "https://www.starbucks.com.tw/stores/storesearch.jspx?fetchStore=storehours"
      }
    ],
    "rating": 3.3,
    "phone": "03 666 2818"
  },
  {
    "id": "ChIJY6QMvPw1aDQRU5d1WnGvPRg",
    "name": "拉亞漢堡 新竹寶山",
    "address": "300台灣新竹市東區寶山路440號",
    "region": "hsinchu_city",
    "latitude": 24.7846902,
    "longitude": 120.9903403,
    "orderLinks": [
      {
        "id": "07de9b4b-be7a-48ca-886f-c8c15a697df9",
        "platform": "官網",
        "url": "https://now.laya.com.tw/table?store=64a4deabc06ca680d4ab24b6"
      }
    ],
    "rating": 3.3,
    "phone": "03 577 8839"
  },
  {
    "id": "ChIJ10olRPhJaDQRt9RVWbLiFeo",
    "name": "海水屋 寶山雙豐店",
    "address": "308台灣新竹縣寶山鄉雙豐路168號",
    "region": "hsinchu_city",
    "latitude": 24.768032100000003,
    "longitude": 120.9889537,
    "orderLinks": [
      {
        "id": "f80cc7d3-7c2f-4667-9948-83d161c428ce",
        "platform": "官網",
        "url": "https://www.facebook.com/hisweetwu/"
      }
    ],
    "rating": 3.9,
    "phone": "03 529 7749"
  },
  {
    "id": "ChIJe4dmNGZJaDQRB3jetIrgeNY",
    "name": "鑫山複合式餐廳｜進仔薑母鴨",
    "address": "308台灣新竹縣寶山鄉雙園路二段32號",
    "region": "hsinchu_city",
    "latitude": 24.7682945,
    "longitude": 120.99927859999998,
    "orderLinks": [
      {
        "id": "4d32bf81-656f-4440-97f1-31c44ff3b6fe",
        "platform": "官網",
        "url": "https://www.facebook.com/profile.php?id=100093607753716&mibextid=LQQJ4d"
      }
    ],
    "rating": 4.8,
    "phone": "0933 794 322"
  },
  {
    "id": "ChIJK3tjlv81aDQRrhSz9c_f9ho",
    "name": "孫子文牛肉麵",
    "address": "300台灣新竹市東區高翠路275號",
    "region": "hsinchu_city",
    "latitude": 24.779013,
    "longitude": 120.98591719999999,
    "orderLinks": [
      {
        "id": "2b9204b4-c547-4d8e-8101-00734a8a18ae",
        "platform": "官網",
        "url": "https://zh-tw.facebook.com/pages/category/Diner/%E9%87%8D%E6%85%B6%E5%AD%AB%E5%AD%90%E6%96%87%E7%89%9B%E8%82%89%E9%BA%B5-%E9%AB%98%E7%BF%A0%E5%BA%97-332508577104967/"
      }
    ],
    "rating": 4.2,
    "phone": "03 579 7098"
  },
  {
    "id": "ChIJlyob0xc3aDQR61rgFrg_pnw",
    "name": "(3/14～4/5公休 )野夫手作義式披薩(用餐請預約訂位)",
    "address": "308台灣新竹縣寶山鄉雙園路二段182巷55號",
    "region": "hsinchu_city",
    "latitude": 24.7690982,
    "longitude": 120.99448260000001,
    "orderLinks": [
      {
        "id": "59f72708-c07f-45b8-a17c-6559f25dd46a",
        "platform": "官網",
        "url": "https://www.facebook.com/savagehouse0857/"
      }
    ],
    "rating": 4.8,
    "phone": "0978 651 732"
  },
  {
    "id": "ChIJW71nMwA1aDQRSOswKt0ecxc",
    "name": "小牛比較懶牛肉麵",
    "address": "300台灣新竹市東區高翠路267號",
    "region": "hsinchu_city",
    "latitude": 24.779197999999997,
    "longitude": 120.98611969999999,
    "orderLinks": [
      {
        "id": "a5c940a0-6f01-4f46-a0d1-9b1ff3afe614",
        "platform": "官網",
        "url": "https://www.facebook.com/share/P5F5qMWBuC2ZVxH1/?mibextid=qi2Omg"
      }
    ],
    "rating": 4.7,
    "phone": "03 579 9799"
  },
  {
    "id": "ChIJtcpfxUpJaDQR130S8WNvSSg",
    "name": "麥味登雙豐店",
    "address": "308台灣新竹縣寶山鄉雙豐路170號",
    "region": "hsinchu_city",
    "latitude": 24.7678053,
    "longitude": 120.98861219999998,
    "orderLinks": [
      {
        "id": "67227ee4-9b89-4b35-952a-aacb8b70b7ae",
        "platform": "官網",
        "url": "https://www.facebook.com/profile.php?id=61553680222718&mibextid=LQQJ4d"
      }
    ],
    "rating": 4.5,
    "phone": "0938 876 170"
  },
  {
    "id": "ChIJB5J3ngA2aDQR1S75vvpl_Cc",
    "name": "阿信快餐便當",
    "address": "300台灣新竹市東區高翠路171號",
    "region": "hsinchu_city",
    "latitude": 24.781006299999998,
    "longitude": 120.98775429999999,
    "orderLinks": [],
    "rating": 4.4,
    "phone": "03 563 5996"
  },
  {
    "id": "ChIJnZ6SoQA2aDQRA5pm7Mf0IU0",
    "name": "盛美平價快炒",
    "address": "300台灣新竹市東區高翠路151號300號",
    "region": "hsinchu_city",
    "latitude": 24.7813956,
    "longitude": 120.98796569999999,
    "orderLinks": [],
    "rating": 4.4,
    "phone": "0912 235 320"
  },
  {
    "id": "ChIJqVJmniE1aDQRA8vVQJHpaok",
    "name": "輝 手作煎餃",
    "address": "300台灣新竹市東區高翠路191號",
    "region": "hsinchu_city",
    "latitude": 24.7806732,
    "longitude": 120.98762740000001,
    "orderLinks": [],
    "rating": 4.9,
    "phone": "0928 577 249"
  },
  {
    "id": "ChIJA5kiogE2aDQRK5i4pgylbAg",
    "name": "星巴克 研新門市 - 限台積員工",
    "address": "300台灣新竹縣寶山鄉研新二路6號",
    "region": "hsinchu_city",
    "latitude": 24.778514899999998,
    "longitude": 120.9916583,
    "orderLinks": [
      {
        "id": "ea0c9e62-014a-4cf7-9a42-2627efa4cd81",
        "platform": "官網",
        "url": "https://www.starbucks.com.tw/"
      }
    ],
    "rating": 3.6,
    "phone": "03 578 5032"
  },
  {
    "id": "ChIJF7xNU1xJaDQRQKv2WB8am2c",
    "name": "鑫山複合式KTV（2F）",
    "address": "308台灣新竹縣寶山鄉雙園路二段32號2樓",
    "region": "hsinchu_city",
    "latitude": 24.768459999999997,
    "longitude": 120.998912,
    "orderLinks": [],
    "rating": 4.7,
    "phone": "0981 477 785"
  },
  {
    "id": "ChIJTXBwqQRJaDQR232sM9GkPSQ",
    "name": "STARBUCKS 星巴克 (台積電5門市)",
    "address": "308台灣新竹縣寶山鄉園區三路121號",
    "region": "hsinchu_city",
    "latitude": 24.774071,
    "longitude": 120.9979912,
    "orderLinks": [
      {
        "id": "7799a853-9a40-41dd-9b3c-5f71bdbd673e",
        "platform": "官網",
        "url": "https://www.starbucks.com.tw/"
      }
    ],
    "rating": 2.7,
    "phone": "03 578 4754"
  },
  {
    "id": "ChIJxZF9PtBJaDQRjmmMNDSsSoU",
    "name": "Ks’ house",
    "address": "308台灣新竹縣寶山鄉雙園路二段182巷39號",
    "region": "hsinchu_city",
    "latitude": 24.7686673,
    "longitude": 120.99461380000001,
    "orderLinks": [],
    "rating": 4.2,
    "phone": "03 520 1988"
  },
  {
    "id": "ChIJacKTd6JLaDQRZcVp3hBDmLE",
    "name": "橙爺雞排-新竹店",
    "address": "300台灣新竹市東區高翠路319號",
    "region": "hsinchu_city",
    "latitude": 24.778071,
    "longitude": 120.9847338,
    "orderLinks": [
      {
        "id": "69aede8e-56c6-4fa0-9fb0-ffb4df52957d",
        "platform": "官網",
        "url": "https://www.facebook.com/profile.php?id=61551438960279"
      }
    ],
    "rating": 4.1,
    "phone": "0905 667 975"
  },
  {
    "id": "ChIJI2-EmwA2aDQRYpJWBICgb-I",
    "name": "8+8 早餐坊（高翠路175號）",
    "address": "300台灣新竹市東區高翠路175號",
    "region": "hsinchu_city",
    "latitude": 24.7808782,
    "longitude": 120.98771769999999,
    "orderLinks": [],
    "rating": 3.9,
    "phone": "03 577 8778"
  },
  {
    "id": "ChIJP3iqhgBKaDQR-_NoLxFsKro",
    "name": "沅滷味",
    "address": "300台灣新竹市東區高翠路333號",
    "region": "hsinchu_city",
    "latitude": 24.7777708,
    "longitude": 120.9843978,
    "orderLinks": [],
    "rating": 4.5,
    "phone": "0987 382 800"
  },
  {
    "id": "ChIJ7eH-gQBKaDQRJRLyAy_BAio",
    "name": "美美麵‧飯食館",
    "address": "300台灣新竹市東區高翠路330號",
    "region": "hsinchu_city",
    "latitude": 24.7781761,
    "longitude": 120.98443729999998,
    "orderLinks": [
      {
        "id": "637430ce-872a-43eb-854f-240c65f98401",
        "platform": "官網",
        "url": "https://lin.ee/LBcy47R"
      }
    ],
    "rating": 4,
    "phone": "03 562 3288"
  },
  {
    "id": "ChIJjRhrM-ZLaDQRaL2_jbk78sE",
    "name": "功夫茶 KUNGFUTEA 新竹高翠店",
    "address": "300台灣新竹市東區高翠路373號",
    "region": "hsinchu_city",
    "latitude": 24.777222,
    "longitude": 120.98365510000001,
    "orderLinks": [
      {
        "id": "eb6c6218-3f11-49df-8dd8-1fd6615c02cf",
        "platform": "官網",
        "url": "https://lin.ee/vtplI47"
      }
    ],
    "rating": 4.8,
    "phone": "03 564 5588"
  },
  {
    "id": "ChIJzwkaiU83aDQRrTLvSAiuABw",
    "name": "SUBWAY-新竹交大店",
    "address": "300台灣新竹市東區大學路1001號",
    "region": "hsinchu_city",
    "latitude": 24.7892323,
    "longitude": 120.9969874,
    "orderLinks": [
      {
        "id": "1a234f04-85fa-497d-a94b-5d58ae6c57af",
        "platform": "官網",
        "url": "https://subway.com.tw/"
      }
    ],
    "rating": 3.3,
    "phone": "03 572 8798"
  },
  {
    "id": "ChIJeXozo_dJaDQRi4nLpChxHDU",
    "name": "老復興飲食店",
    "address": "308台灣新竹縣寶山鄉雙園路二段359號",
    "region": "hsinchu_city",
    "latitude": 24.7646057,
    "longitude": 120.9898604,
    "orderLinks": [],
    "rating": 4.3,
    "phone": "03 520 1237"
  },
  {
    "id": "ChIJL35glSZKaDQRMdk7N84FAR4",
    "name": "鑫園客家菜餐廳",
    "address": "308台灣新竹縣寶山鄉湳坑路二段130號308",
    "region": "hsinchu_city",
    "latitude": 24.764129,
    "longitude": 120.98974399999999,
    "orderLinks": [
      {
        "id": "55d67bb2-bcf9-4b62-b67d-eb552570dc0e",
        "platform": "官網",
        "url": "https://www.facebook.com/mylove035203706"
      }
    ],
    "rating": 4.2,
    "phone": "03 520 3706"
  },
  {
    "id": "ChIJ-6h7sKdJaDQRUg45gzeh7pA",
    "name": "三本柱薑母鴨x鮮蚵放題 竹科店｜東石鮮蚵｜烤蚵推薦｜新竹必吃｜在地美食｜特色小吃｜秘製烤雞｜台式快炒｜竹科聚會餐廳",
    "address": "308005台灣新竹縣寶山鄉湳坑路二段121巷11號",
    "region": "hsinchu_city",
    "latitude": 24.763390899999997,
    "longitude": 120.98946079999999,
    "orderLinks": [
      {
        "id": "44c40941-5006-46e3-a256-ef3bdf7011d8",
        "platform": "官網",
        "url": "https://www.facebook.com/share/NGhstnmfZDKXsLtz/?mibextid=LQQJ4d"
      }
    ],
    "rating": 4.3,
    "phone": "03 520 5209"
  },
  {
    "id": "ChIJgeM8ZR1KaDQRd3ZqnsrYQ_E",
    "name": "佳禾日式炭燒JIAHE(預約優先制)",
    "address": "308台灣新竹縣寶山鄉明湖路57號",
    "region": "hsinchu_city",
    "latitude": 24.764660499999998,
    "longitude": 120.9872098,
    "orderLinks": [],
    "rating": 4.4,
    "phone": "03 520 0660"
  },
  {
    "id": "ChIJr86JnPdJaDQRcNKHSZsX4x0",
    "name": "葉阿姨蔥油餅麵缐糊(廟旁邊)",
    "address": "308台灣新竹縣寶山鄉雙豐路3號",
    "region": "hsinchu_city",
    "latitude": 24.7653681,
    "longitude": 120.9901865,
    "orderLinks": [],
    "rating": 4.5,
    "phone": "0930 098 948"
  },
  {
    "id": "ChIJn_dp-fBJaDQReAvFZbfDiK4",
    "name": "台北江麻辣臭豆腐專賣舖 寶山店",
    "address": "30841台灣新竹縣寶山鄉湳坑路二段121巷1號",
    "region": "hsinchu_city",
    "latitude": 24.7637885,
    "longitude": 120.9895627,
    "orderLinks": [
      {
        "id": "f18a4fb2-6086-4138-833b-2b44228a9c02",
        "platform": "官網",
        "url": "https://taibeijiang.weebly.com/"
      }
    ],
    "rating": 4.5,
    "phone": "0966 221 298"
  },
  {
    "id": "ChIJdza2palLaDQRR9c0P77T5HE",
    "name": "新寶水煎包",
    "address": "308台灣新竹縣寶山鄉環北路303號",
    "region": "hsinchu_city",
    "latitude": 24.767293499999997,
    "longitude": 120.9843726,
    "orderLinks": [],
    "rating": 4.6,
    "phone": "0984 287 350"
  },
  {
    "id": "ChIJ3-DEIwBJaDQRVzutIaORmkw",
    "name": "米撰雞腿壩王寶山店/池上便當/寶山排隊美食/竹科外送便當/園區外送便當/好吃會議便當/客製活動餐盒/新竹外送午晚餐/新竹排隊便當/來店消費可享免費停車",
    "address": "308台灣新竹縣寶山鄉湳坑路二段121巷15號",
    "region": "hsinchu_city",
    "latitude": 24.763149199999997,
    "longitude": 120.9893962,
    "orderLinks": [
      {
        "id": "1db110ce-a285-41c7-9100-390f5979506f",
        "platform": "官網",
        "url": "https://lin.ee/8G6JnQUA"
      }
    ],
    "rating": 4.5,
    "phone": "0963 513 150"
  },
  {
    "id": "ChIJ5eNfnPdJaDQRqCZvZPUrfRc",
    "name": "寶山廟口香雞排",
    "address": "308台灣新竹縣寶山鄉雙豐路4號",
    "region": "hsinchu_city",
    "latitude": 24.765302499999997,
    "longitude": 120.99018199999999,
    "orderLinks": [],
    "rating": 4.4,
    "phone": "03 520 6346"
  },
  {
    "id": "ChIJlaisFKdJaDQRyBPeugZvwpg",
    "name": "金正好吃-寶山店",
    "address": "308台灣新竹縣寶山鄉雙園路二段372號",
    "region": "hsinchu_city",
    "latitude": 24.764517599999998,
    "longitude": 120.9894003,
    "orderLinks": [],
    "rating": 3.2,
    "phone": "03 520 7733"
  },
  {
    "id": "ChIJf-tJyfdJaDQRS8oBabB5T9Y",
    "name": "大堂牛肉麵",
    "address": "308台灣新竹縣寶山鄉雙園路二段398號",
    "region": "hsinchu_city",
    "latitude": 24.764199299999998,
    "longitude": 120.9886292,
    "orderLinks": [],
    "rating": 3.9,
    "phone": "0912 603 373"
  },
  {
    "id": "ChIJEYEcmwBKaDQRDPC97J4Y_l0",
    "name": "高翠快餐便當店",
    "address": "308台灣新竹縣寶山鄉湳坑路二段121巷5號",
    "region": "hsinchu_city",
    "latitude": 24.763607699999998,
    "longitude": 120.98955360000001,
    "orderLinks": [
      {
        "id": "82810b06-b20f-418b-a634-3cd44698ddc1",
        "platform": "官網",
        "url": "http://www.facebook.com/%E9%AB%98%E5%B3%B0%E5%BF%AB%E9%A4%90%E5%8E%9F%E9%AB%98%E5%B3%B0%E6%B3%B0%E5%BC%8F%E6%96%99%E7%90%86-942987065736709/"
      }
    ],
    "rating": 4,
    "phone": "0906 313 772"
  },
  {
    "id": "ChIJp8LEC-NJaDQRZJSGxR2BFHM",
    "name": "雙醬咖哩雙溪店",
    "address": "308台灣新竹縣寶山鄉雙園路二段410號1樓",
    "region": "hsinchu_city",
    "latitude": 24.764014099999997,
    "longitude": 120.98846169999999,
    "orderLinks": [],
    "rating": 4.7,
    "phone": "03 529 0139"
  },
  {
    "id": "ChIJgz6aKfZJaDQRLicClbH9wzQ",
    "name": "胖老爹美式炸雞 新竹寶山店",
    "address": "308台灣新竹縣寶山鄉寶新路一段12號",
    "region": "hsinchu_city",
    "latitude": 24.7636844,
    "longitude": 120.98769899999999,
    "orderLinks": [],
    "rating": 3.4,
    "phone": "03 520 2242"
  },
  {
    "id": "ChIJM7b5WYJLaDQR8R8LcczJyPg",
    "name": "10 種香料印度餐車 | 10 Spices Indian Food Truck",
    "address": "No, No. 55明湖路寶山鄉新竹縣台灣 308",
    "region": "hsinchu_city",
    "latitude": 24.764597,
    "longitude": 120.98725499999999,
    "orderLinks": [],
    "rating": 4.5,
    "phone": "03 520 0660"
  },
  {
    "id": "ChIJt7OF_MNJaDQRUHdp8Z-DNAg",
    "name": "一衖麵",
    "address": "308台灣新竹縣寶山鄉雙園路一段2巷18弄1衖3號",
    "region": "hsinchu_city",
    "latitude": 24.7708534,
    "longitude": 121.0044382,
    "orderLinks": [],
    "rating": 4.4,
    "phone": "0963 518 036"
  },
  {
    "id": "ChIJy7I_vBg3aDQRnTyiDdv3Is0",
    "name": "八方雲集-新竹科館店",
    "address": "30075台灣新竹市東區工業東二路1號",
    "region": "hsinchu_city",
    "latitude": 24.7796931,
    "longitude": 121.005437,
    "orderLinks": [
      {
        "id": "9bf36354-c5ec-4f9e-85d8-cd1ee05fb57f",
        "platform": "官網",
        "url": "https://www.8way.com.tw/"
      }
    ],
    "rating": 3.2,
    "phone": "03 579 8665"
  },
  {
    "id": "ChIJWy4n6PlJaDQRIJWXs9yU_lM",
    "name": "新寶早餐店 水煎包專賣 - 寶山店",
    "address": "308台灣新竹縣寶山鄉雙園路一段2巷11號",
    "region": "hsinchu_city",
    "latitude": 24.7706837,
    "longitude": 121.00498320000001,
    "orderLinks": [
      {
        "id": "99c683ba-b153-4df9-ae49-f0dfcb7768ad",
        "platform": "官網",
        "url": "https://www.facebook.com/Xinbao2/"
      }
    ],
    "rating": 3.9,
    "phone": "03 666 9886"
  },
  {
    "id": "ChIJT3OInnE3aDQRaoK2bk4xQ4w",
    "name": "星巴克 GRC門市",
    "address": "300台灣新竹市東區工業東三路1號",
    "region": "hsinchu_city",
    "latitude": 24.7766722,
    "longitude": 121.007719,
    "orderLinks": [],
    "rating": 4.4,
    "phone": "03 668 7183"
  },
  {
    "id": "ChIJJ8EnqxE3aDQRqCqdVHfpaIU",
    "name": "雙饗丼、鐵板饄竹科店",
    "address": "308台灣新竹縣寶山鄉雙園路一段2巷2號",
    "region": "hsinchu_city",
    "latitude": 24.770774199999998,
    "longitude": 121.00535359999999,
    "orderLinks": [],
    "rating": 3.5,
    "phone": "0920 615 999"
  },
  {
    "id": "ChIJOzIBRRk2aDQRfrEkN8GhbF8",
    "name": "露米亞歐法餐廳",
    "address": "300台灣新竹市東區工業東二路1號3樓",
    "region": "hsinchu_city",
    "latitude": 24.7797591,
    "longitude": 121.00566880000001,
    "orderLinks": [
      {
        "id": "71ace19c-422a-4551-9381-dd386e8aeb41",
        "platform": "官網",
        "url": "http://www.facebook.com/LUMIERE.french.restaurant/"
      }
    ],
    "rating": 4.4,
    "phone": "03 563 1213"
  },
  {
    "id": "ChIJSfCPlxFJaDQR-REuB6Z71-8",
    "name": "台灣光罩員工餐廳",
    "address": "308台灣新竹縣寶山鄉創新一路11號",
    "region": "hsinchu_city",
    "latitude": 24.774883,
    "longitude": 120.998159,
    "orderLinks": [],
    "rating": 4,
    "phone": null
  },
  {
    "id": "ChIJw3yGwes3aDQRTaFMjXmE_8o",
    "name": "米諾瓦咖啡｜Minerva Café 晶豪科門市",
    "address": "300台灣新竹市東區工業東四路23號",
    "region": "hsinchu_city",
    "latitude": 24.774535399999998,
    "longitude": 121.0089575,
    "orderLinks": [
      {
        "id": "fab37578-db28-417f-9792-53a27ac5ad85",
        "platform": "官網",
        "url": "http://minerva-cafe.com.tw/"
      }
    ],
    "rating": 4.1,
    "phone": "03 666 8117"
  },
  {
    "id": "ChIJx7T--fpJaDQRs631DZePThU",
    "name": "早餐屋",
    "address": "308台灣新竹縣寶山鄉雙園一街1號",
    "region": "hsinchu_city",
    "latitude": 24.7666936,
    "longitude": 120.9966164,
    "orderLinks": [],
    "rating": 4,
    "phone": "03 529 6663"
  },
  {
    "id": "ChIJxSPSOQA3aDQRL8ijOeNkob0",
    "name": "漢堡王 Burger King 新竹瑞昱店",
    "address": "300台灣新竹市東區園區二路9號",
    "region": "hsinchu_city",
    "latitude": 24.7803839,
    "longitude": 120.99818099999999,
    "orderLinks": [
      {
        "id": "f77ad12d-0402-4e26-92a0-4b57532932a8",
        "platform": "官網",
        "url": "https://www.burgerking.com.tw/"
      }
    ],
    "rating": 5,
    "phone": "03 563 8018"
  },
  {
    "id": "ChIJscQdTQBJaDQRNrDgLZMFMDU",
    "name": "葫蘆肚小吃",
    "address": "308台灣新竹縣寶山鄉雙溪村",
    "region": "hsinchu_city",
    "latitude": 24.7665915,
    "longitude": 120.9961431,
    "orderLinks": [],
    "rating": 4.7,
    "phone": "0910 156 149"
  },
  {
    "id": "ChIJoVxJluA1aDQRHY63emw8_Qw",
    "name": "沐嵐 · Moonlight",
    "address": "300台灣新竹市東區西大路240號",
    "region": "hsinchu_city",
    "latitude": 24.7984737,
    "longitude": 120.9684659,
    "orderLinks": [
      {
        "id": "a0dec83a-ebcb-4ddc-8e8c-c1c56867dafe",
        "platform": "官網",
        "url": "https://www.facebook.com/profile.php?id=100063921677920"
      }
    ],
    "rating": 4.4,
    "phone": "0977 053 998"
  },
  {
    "id": "ChIJi8wdhOw1aDQR-wdES8TzUTE",
    "name": "石家魚丸",
    "address": "300台灣新竹市东区兴学街27號2９號",
    "region": "hsinchu_city",
    "latitude": 24.797790199999998,
    "longitude": 120.96785919999998,
    "orderLinks": [
      {
        "id": "de815d5f-f441-4222-8c25-31a87c9aaf64",
        "platform": "官網",
        "url": "https://sfishball.com.tw/"
      }
    ],
    "rating": 4.2,
    "phone": "03 524 2965"
  },
  {
    "id": "ChIJc2x47-41aDQRGRyXzAS-6w4",
    "name": "麥當勞-新竹食品餐廳",
    "address": "300台灣新竹市東區食品路228號",
    "region": "hsinchu_city",
    "latitude": 24.7950926,
    "longitude": 120.972557,
    "orderLinks": [
      {
        "id": "314bff0e-bdae-49de-9b99-9018f3f6d10d",
        "platform": "官網",
        "url": "https://www.mcdonalds.com/tw/zh-tw.html"
      }
    ],
    "rating": 4,
    "phone": "03 562 6201"
  },
  {
    "id": "ChIJIcZk3Og1aDQRdJsrA8DdVxU",
    "name": "小鵲幸 車輪餅 - 新竹東南 起家店",
    "address": "300台灣新竹市東區東南街118號",
    "region": "hsinchu_city",
    "latitude": 24.797784,
    "longitude": 120.97397099999998,
    "orderLinks": [
      {
        "id": "1903413d-110f-46ff-98a6-c51f5337a15d",
        "platform": "官網",
        "url": "https://m.facebook.com/alittlehappinesscake"
      }
    ],
    "rating": 4.4,
    "phone": "0968 825 608"
  },
  {
    "id": "ChIJGXRRUeY1aDQRSRZx8N61PWM",
    "name": "每天都要吃早餐",
    "address": "300台灣新竹市東區東山街85號",
    "region": "hsinchu_city",
    "latitude": 24.7976983,
    "longitude": 120.97855759999999,
    "orderLinks": [
      {
        "id": "550ccf2a-b8e7-4a67-ad14-915ffaac9f93",
        "platform": "官網",
        "url": "https://www.facebook.com/frogfishhouse/"
      }
    ],
    "rating": 4.3,
    "phone": "03 575 0393"
  },
  {
    "id": "ChIJjao5u-I1aDQRS05YLtXGgXU",
    "name": "新築窟（蔬食）",
    "address": "300台灣新竹市東區南大路166號",
    "region": "hsinchu_city",
    "latitude": 24.800979400000003,
    "longitude": 120.9747396,
    "orderLinks": [
      {
        "id": "816ccfae-c42c-4fc4-9d45-0b9af57998e4",
        "platform": "官網",
        "url": "https://oohchacha.net/"
      }
    ],
    "rating": 4.6,
    "phone": "03 562 3005"
  },
  {
    "id": "ChIJdcmEgJ01aDQRYaYnPKu3ONQ",
    "name": "陶板屋 新竹食品店",
    "address": "300台灣新竹市东区食品路305-1號2F",
    "region": "hsinchu_city",
    "latitude": 24.7946699,
    "longitude": 120.97288719999999,
    "orderLinks": [
      {
        "id": "5946d360-b682-46b9-b43a-70c996a6cd54",
        "platform": "官網",
        "url": "https://www.tokiya.com.tw/"
      }
    ],
    "rating": 4.7,
    "phone": "03 561 7168"
  },
  {
    "id": "ChIJ9e6ChgQ1aDQRf24OfsMpnz8",
    "name": "竹美港式茶餐廳 學府店(沒有訂位服務)",
    "address": "300台灣新竹市東區學府路73號",
    "region": "hsinchu_city",
    "latitude": 24.7947709,
    "longitude": 120.9781473,
    "orderLinks": [
      {
        "id": "09e998fe-02ae-40c7-bb51-1fba71a999e6",
        "platform": "官網",
        "url": "https://www.facebook.com/Chumei03"
      }
    ],
    "rating": 4.8,
    "phone": "03 516 0189"
  },
  {
    "id": "ChIJXTIi5-k1aDQR3GLsy69Gx5g",
    "name": "田記烤鴨",
    "address": "30062台灣新竹市東區食品路416號",
    "region": "hsinchu_city",
    "latitude": 24.7938543,
    "longitude": 120.96807129999998,
    "orderLinks": [],
    "rating": 3.8,
    "phone": "03 562 2082"
  },
  {
    "id": "ChIJZ93aQGU1aDQR8CUD11D7p5I",
    "name": "斜角古早味綿綿冰（紅豆湯、燒仙草）",
    "address": "300台灣新竹市東區南大路393號",
    "region": "hsinchu_city",
    "latitude": 24.7966017,
    "longitude": 120.96824509999999,
    "orderLinks": [
      {
        "id": "53900f8b-0d63-4326-8fe8-c4649ddced23",
        "platform": "官網",
        "url": "https://instagram.com/obliqueangle_ice?utm_medium=copy_link"
      }
    ],
    "rating": 4.8,
    "phone": "03 562 1212"
  },
  {
    "id": "ChIJ6Zt5Y481aDQRG8mZ-cJZxMM",
    "name": "太空總薯-韓式2號店",
    "address": "300台灣新竹市東區食品路134巷1號",
    "region": "hsinchu_city",
    "latitude": 24.797800799999997,
    "longitude": 120.9770318,
    "orderLinks": [
      {
        "id": "556dd3d1-83eb-46ec-a24a-24f135fc18af",
        "platform": "官網",
        "url": "https://space-potato.com/chillspace02/"
      }
    ],
    "rating": 4.5,
    "phone": "03 562 9981"
  },
  {
    "id": "ChIJlVNAE141aDQREbYAaPPmb7k",
    "name": "星巴克 新竹動物園門市",
    "address": "300台灣新竹市東區博愛街111號1樓、2樓",
    "region": "hsinchu_city",
    "latitude": 24.800134999999997,
    "longitude": 120.97919449999999,
    "orderLinks": [
      {
        "id": "d642bed2-7f67-4f2b-89c9-efbde2fb2af1",
        "platform": "官網",
        "url": "http://www.starbucks.com.tw/"
      }
    ],
    "rating": 4.5,
    "phone": "03 561 9940"
  },
  {
    "id": "ChIJL7QPnzU1aDQRicUeA--NAX0",
    "name": "福徠鴨新台式烤鴨Fu DUCK IN",
    "address": "300台灣新竹市東區西大路74號",
    "region": "hsinchu_city",
    "latitude": 24.795923,
    "longitude": 120.971375,
    "orderLinks": [
      {
        "id": "60f71315-48bd-4d8b-b1df-daaf279874fd",
        "platform": "官網",
        "url": "https://www.facebook.com/profile.php?id=100090528368797&mibextid=LQQJ4d"
      }
    ],
    "rating": 4.7,
    "phone": "03 562 6208"
  },
  {
    "id": "ChIJQ4a1ouY1aDQROl6yOqnEOAk",
    "name": "阿婆早餐麵店",
    "address": "300台灣新竹市東區東山街6號",
    "region": "hsinchu_city",
    "latitude": 24.7957423,
    "longitude": 120.9804408,
    "orderLinks": [
      {
        "id": "842caad1-6213-475a-b7b7-b11bd7da3cfd",
        "platform": "官網",
        "url": "https://www.facebook.com/%E9%98%BF%E5%A9%86%E6%97%A9%E9%A4%90%E9%BA%B5%E5%BA%97-136808669740035/"
      }
    ],
    "rating": 4.1,
    "phone": "03 573 0765"
  },
  {
    "id": "ChIJ_7fcdME1aDQRWtEib01QRiM",
    "name": "麥當勞-新竹南大餐廳",
    "address": "300台灣新竹市東區南大路337號1樓",
    "region": "hsinchu_city",
    "latitude": 24.7975607,
    "longitude": 120.96976639999998,
    "orderLinks": [
      {
        "id": "19756a93-6ed8-4456-882b-a49e0ad2d6dd",
        "platform": "官網",
        "url": "https://www.mcdonalds.com/tw/zh-tw.html"
      }
    ],
    "rating": 3.9,
    "phone": "03 561 0742"
  },
  {
    "id": "ChIJC3sUquk1aDQRNG-5KpPLCY4",
    "name": "六扇門時尚湯鍋 新竹東南店",
    "address": "300台灣新竹市東區東南街55號",
    "region": "hsinchu_city",
    "latitude": 24.7994433,
    "longitude": 120.9730098,
    "orderLinks": [
      {
        "id": "976cbc19-dd10-4e30-bc38-f333b2871161",
        "platform": "官網",
        "url": "https://www.facebook.com/%E5%85%AD%E6%89%87%E9%96%80%E6%99%82%E5%B0%9A%E6%B9%AF%E9%8D%8B-%E6%96%B0%E7%AB%B9%E6%9D%B1%E5%8D%97%E5%BA%97-118580048759570/?fref=ts"
      }
    ],
    "rating": 4,
    "phone": "03 562 3111"
  },
  {
    "id": "ChIJRaoIx901aDQRhhAjzab5Kjs",
    "name": "億品鍋-新竹食品店",
    "address": "300台灣新竹市東區食品路262號",
    "region": "hsinchu_city",
    "latitude": 24.7944326,
    "longitude": 120.9717101,
    "orderLinks": [],
    "rating": 4.6,
    "phone": "03 562 0262"
  },
  {
    "id": "ChIJG9E4koA1aDQR8rDCdDVbitk",
    "name": "TWINS 廚房 正宗西藏青海羊排炕鍋",
    "address": "300台灣新竹市東區南大路107號",
    "region": "hsinchu_city",
    "latitude": 24.8012668,
    "longitude": 120.97574689999999,
    "orderLinks": [
      {
        "id": "c60891b7-a5e0-4c1d-a41b-155cdf8f73f5",
        "platform": "官網",
        "url": "https://www.facebook.com/TWINS-%E5%BB%9A%E6%88%BF-%E6%AD%A3%E5%AE%97%E8%A5%BF%E8%97%8F%E9%9D%92%E6%B5%B7%E7%BE%8A%E6%8E%92%E7%82%95%E9%8D%8B-411997322666815/"
      }
    ],
    "rating": 4.4,
    "phone": "0938 625 718"
  },
  {
    "id": "ChIJ4TBgje81aDQRhT5GgrTaF7Q",
    "name": "皇膳湯包 寶山店",
    "address": "300台灣新竹市東區寶山路128號",
    "region": "hsinchu_city",
    "latitude": 24.7924013,
    "longitude": 120.97511909999999,
    "orderLinks": [
      {
        "id": "fe86a24b-585f-435a-9588-94b98c91452f",
        "platform": "官網",
        "url": "https://zh-tw.facebook.com/%E7%9A%87%E8%86%B3%E6%B9%AF%E5%8C%85-608003859225782/"
      }
    ],
    "rating": 4.4,
    "phone": "0953 622 241"
  },
  {
    "id": "ChIJ_aJ6i-U1aDQRU6l60v2Cvdg",
    "name": "東南漢堡店",
    "address": "300台灣新竹市東區東南街54號",
    "region": "hsinchu_city",
    "latitude": 24.7990116,
    "longitude": 120.9730649,
    "orderLinks": [
      {
        "id": "3aaf6324-0a36-4411-a224-0fb19c6f386c",
        "platform": "官網",
        "url": "https://www.facebook.com/%E6%9D%B1%E5%8D%97%E6%BC%A2%E5%A0%A1%E5%BA%97-155186874639390/"
      }
    ],
    "rating": 4.3,
    "phone": "03 562 3177"
  },
  {
    "id": "ChIJq2H9q4I1aDQRFEE9aMGuIvs",
    "name": "艷麗Pondok Sunny",
    "address": "300台灣新竹市東區南大路52號",
    "region": "hsinchu_city",
    "latitude": 24.802760799999998,
    "longitude": 120.977823,
    "orderLinks": [
      {
        "id": "79411685-e17f-417d-b36f-917726e2bf5a",
        "platform": "官網",
        "url": "https://www.pondok-sunny.com/"
      }
    ],
    "rating": 4.5,
    "phone": "0965 356 956"
  },
  {
    "id": "ChIJPaT0WVQ1aDQRt5rrq5IsHJ8",
    "name": "柒伍無煙燒肉",
    "address": "300台灣新竹市東區大同路23號",
    "region": "hsinchu_city",
    "latitude": 24.803180599999997,
    "longitude": 120.96967509999999,
    "orderLinks": [
      {
        "id": "85d1992d-3b98-443c-9d9d-894320e0e865",
        "platform": "官網",
        "url": "https://www.facebook.com/pages/category/Restaurant/%E6%9F%92%E4%BC%8D%E7%84%A1%E7%85%99%E7%87%92%E8%82%89-104084347787019/"
      }
    ],
    "rating": 4.9,
    "phone": "03 543 7575"
  },
  {
    "id": "ChIJ350Fswo1aDQR7AoBMbVo2tg",
    "name": "良家手工港式點心坊",
    "address": "300台灣新竹市東區花園街19號",
    "region": "hsinchu_city",
    "latitude": 24.8034714,
    "longitude": 120.9779449,
    "orderLinks": [
      {
        "id": "b8c4cd79-88fd-4eae-bbd1-c72698a05e07",
        "platform": "官網",
        "url": "https://lin.ee/foem1Pw"
      }
    ],
    "rating": 4.4,
    "phone": "03 561 2818"
  },
  {
    "id": "ChIJV0TGlME1aDQRy0Kuutn6-Wc",
    "name": "好豆味冰沙豆花",
    "address": "300台灣新竹市東區勝利路20號",
    "region": "hsinchu_city",
    "latitude": 24.803296,
    "longitude": 120.97000309999999,
    "orderLinks": [
      {
        "id": "c82df9e9-3561-42c7-ac1b-8b7a61e8a519",
        "platform": "官網",
        "url": "https://www.facebook.com/DouWeiDouHuaDian/"
      }
    ],
    "rating": 4.3,
    "phone": "03 523 2860"
  },
  {
    "id": "ChIJvZU_Teo1aDQRbwKXyGAfAXA",
    "name": "原味鴨肉麵",
    "address": "300台灣新竹市東區勝利路59號",
    "region": "hsinchu_city",
    "latitude": 24.800525200000003,
    "longitude": 120.96841560000001,
    "orderLinks": [
      {
        "id": "ec0f6386-f058-490a-9060-e695b36851ee",
        "platform": "官網",
        "url": "https://www.facebook.com/profile.php?id=100057360411659"
      }
    ],
    "rating": 4.3,
    "phone": "03 523 4812"
  },
  {
    "id": "ChIJmSEKN8c1aDQRgY2PNGL1G4Y",
    "name": "竹東邱記排骨酥麵-新竹店",
    "address": "300台灣新竹市東區公園路270號",
    "region": "hsinchu_city",
    "latitude": 24.8031737,
    "longitude": 120.97946820000001,
    "orderLinks": [
      {
        "id": "15d2bb0b-d74a-488a-9ccc-9d2ff3579d3a",
        "platform": "官網",
        "url": "https://www.facebook.com/373781029372787/posts/3486399568110902/?extid=qGIX4B0KtmzcKYSQ&d=n"
      }
    ],
    "rating": 4,
    "phone": "03 523 3678"
  },
  {
    "id": "ChIJcSaqW-A1aDQRhWAdEK6Ygws",
    "name": "璽子牛肉麵（新竹博愛店）",
    "address": "300台灣新竹市東區博愛街31號",
    "region": "hsinchu_city",
    "latitude": 24.7974231,
    "longitude": 120.985294,
    "orderLinks": [
      {
        "id": "b9d576d2-087a-4411-83ae-97a0b68b9dda",
        "platform": "官網",
        "url": "https://sizih2007.weebly.com/"
      }
    ],
    "rating": 4.2,
    "phone": "03 571 5959"
  },
  {
    "id": "ChIJ_7fcdME1aDQRUmPgoQZDOmY",
    "name": "麥當勞-新竹中正餐廳",
    "address": "300台灣新竹市東區中正路34號",
    "region": "hsinchu_city",
    "latitude": 24.803469699999997,
    "longitude": 120.97120249999999,
    "orderLinks": [
      {
        "id": "5c6d70e6-1f9c-4606-ba07-8feb0c7b206b",
        "platform": "官網",
        "url": "https://www.mcdonalds.com/tw/zh-tw.html"
      }
    ],
    "rating": 3.7,
    "phone": "03 522 0258"
  },
  {
    "id": "ChIJcbhLsOs1aDQRCOeawP2RSxo",
    "name": "刀削麵",
    "address": "300台灣新竹市東區中華路二段572號",
    "region": "hsinchu_city",
    "latitude": 24.799809900000003,
    "longitude": 120.96783789999998,
    "orderLinks": [],
    "rating": 4.3,
    "phone": "03 524 8760"
  },
  {
    "id": "ChIJ-3Eeyt01aDQRYtBEy85vrsI",
    "name": "公園黑乾麵",
    "address": "300台灣新竹市東區體育街82號",
    "region": "hsinchu_city",
    "latitude": 24.802661999999998,
    "longitude": 120.980532,
    "orderLinks": [],
    "rating": 4.1,
    "phone": "03 562 2527"
  },
  {
    "id": "ChIJBxRPBI41aDQRYs7u-Oq4Pm4",
    "name": "春室 SPRING POOL GLASS STUDIO + The POOL",
    "address": "300台灣新竹市東區東大路一段2號",
    "region": "hsinchu_city",
    "latitude": 24.801322499999998,
    "longitude": 120.9784957,
    "orderLinks": [
      {
        "id": "9c6817ce-b9d4-4bc4-8316-64fbdeb222f1",
        "platform": "官網",
        "url": "https://www.glasspoolstore.com/pages/about-springpoolglassstudio"
      }
    ],
    "rating": 4.6,
    "phone": "03 561 1039"
  },
  {
    "id": "ChIJgQJ9bqM1aDQRJcvuSbkJMcg",
    "name": "辛志平校長故居本館(前棟)",
    "address": "300台灣新竹市東區東門街32號",
    "region": "hsinchu_city",
    "latitude": 24.804337500000003,
    "longitude": 120.9739152,
    "orderLinks": [
      {
        "id": "2ca94127-60dc-4d3d-ac39-3eb68e14f3f4",
        "platform": "官網",
        "url": "https://www.facebook.com/Hsinchiping.former.residence/"
      }
    ],
    "rating": 4.4,
    "phone": "03 522 0351"
  },
  {
    "id": "ChIJb9ONMY01aDQRyvNAwiKOhMI",
    "name": "波諾義大利料理 新竹",
    "address": "300台灣新竹市東區南大路525號",
    "region": "hsinchu_city",
    "latitude": 24.791772700000003,
    "longitude": 120.96458659999999,
    "orderLinks": [
      {
        "id": "573bfeaa-b440-4cf6-8d36-c945aae190af",
        "platform": "官網",
        "url": "http://buonobella.com/"
      }
    ],
    "rating": 4.2,
    "phone": "03 561 1172"
  },
  {
    "id": "ChIJC9VFWO81aDQRvPDb8uKg9Tw",
    "name": "Mountain House 山房吐司料理 (不接受訂位）",
    "address": "300台灣新竹市東區東南街245號",
    "region": "hsinchu_city",
    "latitude": 24.795131100000003,
    "longitude": 120.97611289999998,
    "orderLinks": [
      {
        "id": "4ad0df21-1c44-4070-b5ad-58172f64fb1d",
        "platform": "iCHEF",
        "url": "https://shop.ichefpos.com/store/zjOvkAVA/ordering?fbclid=PAAaYm8x5IxYUWbytrhZ6qi6cqQd0LI9D_2_M-ZN7IvKUz92KNjWk3xdrxuDA_aem_AY7ZX-3mafZpxBUn_Sjh1trFRO-NPcRVds_I3DWkEy5C-xDZORFziaxJaQevIflT2Qc"
      }
    ],
    "rating": 3.8,
    "phone": "03 572 0177"
  },
  {
    "id": "ChIJAWQbbvM1aDQRWmfTHScOHh8",
    "name": "嘉味火雞肉飯",
    "address": "300台灣新竹市東區南大路828號",
    "region": "hsinchu_city",
    "latitude": 24.7884863,
    "longitude": 120.9667269,
    "orderLinks": [],
    "rating": 4.3,
    "phone": "03 561 2170"
  },
  {
    "id": "ChIJfSEV7xM1aDQRrZZEsF5pO2s",
    "name": "雞肉男雞肉飯",
    "address": "300台灣新竹市東區食品路221號",
    "region": "hsinchu_city",
    "latitude": 24.7958782,
    "longitude": 120.97444970000001,
    "orderLinks": [
      {
        "id": "ab0089cd-8ea2-48ab-835f-58e8b3b21d28",
        "platform": "官網",
        "url": "https://www.facebook.com/profile.php?id=100089813297122&locale=zh_TW"
      }
    ],
    "rating": 4.4,
    "phone": "03 562 6221"
  },
  {
    "id": "ChIJ9Z3iN2E1aDQR-FE-fsOF368",
    "name": "一私麵宅新竹店",
    "address": "300台灣新竹市東區東南街223號",
    "region": "hsinchu_city",
    "latitude": 24.7957845,
    "longitude": 120.9756169,
    "orderLinks": [],
    "rating": 4.3,
    "phone": "03 561 2714"
  },
  {
    "id": "ChIJHRp2N-81aDQRMfWb-nwV-1c",
    "name": "麵堂拉麵專賣店",
    "address": "300台灣新竹市東區食品路223號",
    "region": "hsinchu_city",
    "latitude": 24.7958744,
    "longitude": 120.9743727,
    "orderLinks": [
      {
        "id": "ca61c95a-c95c-450d-bc09-aeb019439908",
        "platform": "官網",
        "url": "https://www.facebook.com/miantang2014/"
      }
    ],
    "rating": 4.4,
    "phone": "03 561 9980"
  },
  {
    "id": "ChIJISOj3OU1aDQRcczo3dgWlOY",
    "name": "La Dolce Vita樂多趣義大利餐廳 店休日請看臉書與IG ～～內用假日低消600",
    "address": "300台灣新竹市東區学府路61巷5-2號",
    "region": "hsinchu_city",
    "latitude": 24.794998099999997,
    "longitude": 120.97791260000001,
    "orderLinks": [
      {
        "id": "d34531f4-ad11-49d1-a081-8de34e2e1417",
        "platform": "官網",
        "url": "https://www.facebook.com/dolce0vita/"
      }
    ],
    "rating": 4.4,
    "phone": "03 573 5822"
  },
  {
    "id": "ChIJCVwbK401aDQR9EJK_rACCUU",
    "name": "南大路倪家永和豆漿大王",
    "address": "300台灣新竹市東區南大路716號",
    "region": "hsinchu_city",
    "latitude": 24.7912173,
    "longitude": 120.9641762,
    "orderLinks": [],
    "rating": 4.4,
    "phone": "03 562 3749"
  },
  {
    "id": "ChIJ_8VTWwA1aDQR5F5Ix7-dd6w",
    "name": "貓的堅持（新竹店）創意輕藥膳養生料理",
    "address": "300台灣新竹市東區西大路63號",
    "region": "hsinchu_city",
    "latitude": 24.795660899999998,
    "longitude": 120.97119649999999,
    "orderLinks": [
      {
        "id": "1ece0ed3-cf42-41f8-b001-dbeadd3cb630",
        "platform": "官網",
        "url": "https://www.facebook.com/profile.php?id=100066772443262&mibextid=LQQJ4d"
      }
    ],
    "rating": 4.6,
    "phone": "0973 525 376"
  },
  {
    "id": "ChIJq0sXzyk1aDQROyG3m3M8GEQ",
    "name": "大爺鹽酥雞",
    "address": "300台灣新竹市東區食品路329號",
    "region": "hsinchu_city",
    "latitude": 24.7943194,
    "longitude": 120.97181549999999,
    "orderLinks": [
      {
        "id": "62911c7c-1f81-4e5b-a91b-bcc23794d96c",
        "platform": "官網",
        "url": "https://m.facebook.com/daye035/"
      }
    ],
    "rating": 4.7,
    "phone": "03 562 0989"
  },
  {
    "id": "ChIJ_zOVDUc1aDQR9xqhYJMoIWU",
    "name": "洞心咖啡廳Heartbeat Cafe-新竹深夜咖啡廳/下午茶/手作甜點 手沖/精品/義式咖啡 輕食/蛋糕 咖啡課程體驗 桌遊/親子/包場/約會/網美/打卡 人氣熱門好評推薦 PTT Dcard",
    "address": "300台灣新竹市東區学府路61巷5-1號",
    "region": "hsinchu_city",
    "latitude": 24.795053499999998,
    "longitude": 120.9779442,
    "orderLinks": [
      {
        "id": "55475faf-cc14-4ca7-a4ed-19b9ab5f7931",
        "platform": "官網",
        "url": "https://heartbeat-cafe.com/"
      }
    ],
    "rating": 4.9,
    "phone": "03 574 0201"
  },
  {
    "id": "ChIJK997kuU1aDQRLsBGt45KTL0",
    "name": "老雲記餃子館",
    "address": "300台灣新竹市東區學府路1號",
    "region": "hsinchu_city",
    "latitude": 24.7941998,
    "longitude": 120.9767696,
    "orderLinks": [
      {
        "id": "626a3486-efcf-47fd-8739-2799e0063af2",
        "platform": "官網",
        "url": "https://www.facebook.com/pages/%E8%80%81%E9%9B%B2%E8%A8%98%E9%BA%B5%E9%A3%9F%E9%A4%A8/124591950943493"
      }
    ],
    "rating": 4,
    "phone": "03 572 8840"
  },
  {
    "id": "ChIJDX9LQVY1aDQR_xdO1aAAv70",
    "name": "成功牛排 南大店",
    "address": "300台灣新竹市東區南大路816-2號",
    "region": "hsinchu_city",
    "latitude": 24.788716899999997,
    "longitude": 120.9665774,
    "orderLinks": [],
    "rating": 4.8,
    "phone": "03 562 0301"
  },
  {
    "id": "ChIJ5zwU9As2aDQR-mrTEokhMa4",
    "name": "國立清華大學 小吃部",
    "address": "30013台灣新竹市東區光復路二段101號",
    "region": "hsinchu_city",
    "latitude": 24.7931395,
    "longitude": 120.99310419999999,
    "orderLinks": [
      {
        "id": "9846bac8-3de7-41ba-b091-873fcbaa7d61",
        "platform": "官網",
        "url": "http://www.nthu.edu.tw/"
      }
    ],
    "rating": 4,
    "phone": "03 571 5131"
  },
  {
    "id": "ChIJb9VLFUk1aDQRnA0JcAzd3X8",
    "name": "阿美泰泰",
    "address": "300台灣新竹市東區學府路56號1樓",
    "region": "hsinchu_city",
    "latitude": 24.7961851,
    "longitude": 120.98281659999998,
    "orderLinks": [
      {
        "id": "391090d6-4f8c-4487-8dac-9ade8106bafb",
        "platform": "官網",
        "url": "https://www.facebook.com/%E9%98%BF%E7%BE%8E%E6%B3%B0%E6%B3%B0-113049507701812/?ref=pages_you_manage"
      }
    ],
    "rating": 4.5,
    "phone": "03 542 0180"
  },
  {
    "id": "ChIJWdjyGww2aDQRNevyzv4kuXg",
    "name": "水木餐廳",
    "address": "300台灣新竹市東區光復路二段101號",
    "region": "hsinchu_city",
    "latitude": 24.7922877,
    "longitude": 120.9940825,
    "orderLinks": [
      {
        "id": "f8a0bde9-92cb-4984-888c-6d572c9d5020",
        "platform": "官網",
        "url": "https://facebook.com/waterwoodfoodcourt/"
      }
    ],
    "rating": 4,
    "phone": "03 571 7708"
  },
  {
    "id": "ChIJ1wJ0WuA1aDQRkRYwPLHwGbg",
    "name": "無名早餐店 饅頭肉排蛋",
    "address": "300台灣新竹市東區學府路112號",
    "region": "hsinchu_city",
    "latitude": 24.7966655,
    "longitude": 120.9841455,
    "orderLinks": [
      {
        "id": "d97e40d1-813c-4eee-b970-65e130b1b710",
        "platform": "官網",
        "url": "https://www.facebook.com/pages/%E7%84%A1%E5%90%8D%E9%A5%85%E9%A0%AD%E8%82%89%E6%8E%92%E8%9B%8B/101511223263792"
      }
    ],
    "rating": 4.3,
    "phone": "03 572 1869"
  },
  {
    "id": "ChIJZZnY0nQ2aDQRaGoa5ALVp4g",
    "name": "麥當勞-新竹清大餐廳",
    "address": "300台灣新竹市東區光復路二段101號清華大學小吃部",
    "region": "hsinchu_city",
    "latitude": 24.792905299999997,
    "longitude": 120.9931201,
    "orderLinks": [
      {
        "id": "788e6dea-d0ac-4032-92c5-bd16a7a35e2a",
        "platform": "官網",
        "url": "https://www.mcdonalds.com/tw/zh-tw.html"
      }
    ],
    "rating": 3.8,
    "phone": "03 572 7800"
  },
  {
    "id": "ChIJ34d2ouY1aDQRWqPCvKGmAOM",
    "name": "阿寶魯肉飯",
    "address": "300台灣新竹市東區學府路165號",
    "region": "hsinchu_city",
    "latitude": 24.795509799999998,
    "longitude": 120.98032979999999,
    "orderLinks": [
      {
        "id": "1392fed9-70fc-4951-9c72-1d23d34eefd4",
        "platform": "官網",
        "url": "https://www.facebook.com/pages/%E9%98%BF%E5%AF%B6%E6%BB%B7%E8%82%89%E9%A3%AF/1666286903389622"
      }
    ],
    "rating": 4.2,
    "phone": "0987 679 907"
  },
  {
    "id": "ChIJKTONuuY1aDQRLfRSLr5A280",
    "name": "學府牛肉麵",
    "address": "300台灣新竹市東區學府路106號",
    "region": "hsinchu_city",
    "latitude": 24.7966438,
    "longitude": 120.9839793,
    "orderLinks": [
      {
        "id": "f2fa8ab7-0a61-4dd9-b2c0-51f239752b39",
        "platform": "官網",
        "url": "https://www.facebook.com/xuefu.com.tw/"
      }
    ],
    "rating": 4,
    "phone": "03 571 3889"
  },
  {
    "id": "ChIJ-0IMjD41aDQRNX6ISUK3fM4",
    "name": "富珍鄉豬腳專賣店",
    "address": "300台灣新竹市東區學府路359號",
    "region": "hsinchu_city",
    "latitude": 24.797373999999998,
    "longitude": 120.98541429999999,
    "orderLinks": [
      {
        "id": "c0fd19b2-acd0-42e0-aa24-c87ea9cc1622",
        "platform": "官網",
        "url": "https://m.facebook.com/%E5%AF%8C%E7%8F%8D%E9%84%89%E8%B1%AC%E8%85%B3%E5%B0%88%E8%B3%A3%E5%BA%97-110670497871850/"
      }
    ],
    "rating": 4.4,
    "phone": "03 571 2448"
  },
  {
    "id": "ChIJAx_vf8k1aDQRrFqfIvZIkj8",
    "name": "德本家 tokumoto_brunch",
    "address": "300台灣新竹市東區學府路349號",
    "region": "hsinchu_city",
    "latitude": 24.797202799999997,
    "longitude": 120.98504899999999,
    "orderLinks": [
      {
        "id": "cea69b1d-ac30-4c95-92cf-c4422ba01dec",
        "platform": "官網",
        "url": "https://store.dudooeat.com/order/store/517182804fc849149d451d726854bf58"
      }
    ],
    "rating": 4.1,
    "phone": "03 575 0025"
  },
  {
    "id": "ChIJby-2HuE1aDQRNArFQxLa3fc",
    "name": "興達飲食店（臭臉麵店）",
    "address": "300台灣新竹市東區學府路289號",
    "region": "hsinchu_city",
    "latitude": 24.7966497,
    "longitude": 120.9835907,
    "orderLinks": [],
    "rating": 4.3,
    "phone": "03 571 1671"
  },
  {
    "id": "ChIJB9M8cFY1aDQRpO-KFUnTIMY",
    "name": "湘月食堂",
    "address": "300台灣新竹市東區學府路126號",
    "region": "hsinchu_city",
    "latitude": 24.796759299999998,
    "longitude": 120.98442409999998,
    "orderLinks": [
      {
        "id": "40e3e57f-17b1-4fd3-82e7-6b47b943dafd",
        "platform": "官網",
        "url": "https://www.facebook.com/%E6%B9%98%E6%9C%88%E9%A3%9F%E5%A0%82-105523347604292/"
      }
    ],
    "rating": 4.4,
    "phone": "03 572 7990"
  },
  {
    "id": "ChIJ10ye_eA1aDQRjlUTgWdZBhg",
    "name": "丐幫滷味學府分舵",
    "address": "300台灣新竹市東區學府路321號1樓",
    "region": "hsinchu_city",
    "latitude": 24.7968731,
    "longitude": 120.98419659999999,
    "orderLinks": [
      {
        "id": "b5e75b22-6802-4578-821c-f338ca045ae1",
        "platform": "官網",
        "url": "http://www.gaibom.com/"
      }
    ],
    "rating": 4.4,
    "phone": "03 572 0167"
  },
  {
    "id": "ChIJVVVVVdw1aDQRxmQEm2Ub6Y8",
    "name": "168新加坡美食",
    "address": "300台灣新竹市東區學府路307號",
    "region": "hsinchu_city",
    "latitude": 24.7968101,
    "longitude": 120.9840636,
    "orderLinks": [
      {
        "id": "dc8acb5a-7073-4c7b-88e8-16acaa1b05a8",
        "platform": "官網",
        "url": "https://m.facebook.com/profile.php?id=412430385451571"
      }
    ],
    "rating": 4,
    "phone": "03 572 1881"
  },
  {
    "id": "ChIJs8wLNeE1aDQR0c8v55zprZo",
    "name": "楊家古早味美食（滷肉飯鍋燒麵小卷米粉）",
    "address": "300台灣新竹市東區學府路215號",
    "region": "hsinchu_city",
    "latitude": 24.796045499999998,
    "longitude": 120.98193930000001,
    "orderLinks": [
      {
        "id": "d1f20568-a73c-4a88-8cd4-6b3d65ffd744",
        "platform": "官網",
        "url": "https://www.facebook.com/yang5710520/"
      }
    ],
    "rating": 4.3,
    "phone": "03 571 0520"
  },
  {
    "id": "ChIJgeYQOAA1aDQRDlIctmyNIes",
    "name": "廖哩",
    "address": "300039台灣新竹市東區學府路66號",
    "region": "hsinchu_city",
    "latitude": 24.7962296,
    "longitude": 120.98293489999999,
    "orderLinks": [
      {
        "id": "615c2f1b-8eba-4d81-bf99-4cee5613dc56",
        "platform": "官網",
        "url": "https://www.facebook.com/profile.php?id=100054571474227"
      }
    ],
    "rating": 4.8,
    "phone": "03 572 0725"
  },
  {
    "id": "ChIJJ2_AGeE1aDQREfl-QL9DvqY",
    "name": "山東饅頭 學府店",
    "address": "300台灣新竹市東區學府路86號",
    "region": "hsinchu_city",
    "latitude": 24.7965517,
    "longitude": 120.98374720000001,
    "orderLinks": [],
    "rating": 4.3,
    "phone": "03 571 0268"
  },
  {
    "id": "ChIJOeu-v0o3aDQRuarZyVxLYAM",
    "name": "森森燒肉 新竹清大店",
    "address": "300台灣新竹市東區光復路二段151號",
    "region": "hsinchu_city",
    "latitude": 24.7980508,
    "longitude": 120.99444240000001,
    "orderLinks": [
      {
        "id": "dbbba2a6-08a6-4501-b929-d197dfb8225a",
        "platform": "官網",
        "url": "https://www.facebook.com/morimorifb.tw/"
      }
    ],
    "rating": 4.9,
    "phone": "03 574 5338"
  },
  {
    "id": "ChIJbZAbVnE2aDQRolSy1dAf1Yk",
    "name": "段純貞建功店",
    "address": "300台灣新竹市東區建功一路135號",
    "region": "hsinchu_city",
    "latitude": 24.8026457,
    "longitude": 120.9937853,
    "orderLinks": [
      {
        "id": "00a248f5-9959-4ab2-9213-ab1f3b97c452",
        "platform": "Ocard 線上點",
        "url": "https://order.ocard.co/jiangong/w2O74Q?a&utm_source=bot&utm_medium=line"
      }
    ],
    "rating": 4.1,
    "phone": "03 574 8838"
  },
  {
    "id": "ChIJHy5wqxM2aDQRl3YZgSm68gs",
    "name": "大拇指小館",
    "address": "300台灣新竹市東區光復路二段52號",
    "region": "hsinchu_city",
    "latitude": 24.7918314,
    "longitude": 121.0036282,
    "orderLinks": [
      {
        "id": "8b8b4a3c-9409-461c-a56d-1fda18ad5451",
        "platform": "官網",
        "url": "https://www.facebook.com/pages/%E5%A4%A7%E6%8B%87%E6%8C%87%E5%B0%8F%E9%A4%A8/199856016705637"
      }
    ],
    "rating": 4.1,
    "phone": "03 571 2519"
  },
  {
    "id": "ChIJayjir3I2aDQR0TGPgfctBdI",
    "name": "立晉豆花",
    "address": "300台灣新竹市東區建功一路6號",
    "region": "hsinchu_city",
    "latitude": 24.796863600000002,
    "longitude": 120.99839779999999,
    "orderLinks": [
      {
        "id": "e6b32cab-e35b-4096-afa8-177747422d86",
        "platform": "官網",
        "url": "https://www.facebook.com/%E7%AB%8B%E6%99%89%E5%82%B3%E7%B5%B1%E8%B1%86%E8%8A%B1-246909422001492/"
      }
    ],
    "rating": 4,
    "phone": "03 572 8389"
  },
  {
    "id": "ChIJczUaDXQ2aDQRLvxS6dQ5FJA",
    "name": "Go eat Tapas Dining BAR 西班牙餐酒館(新竹)",
    "address": "300台灣新竹市東區新源街108號",
    "region": "hsinchu_city",
    "latitude": 24.802104900000003,
    "longitude": 120.99310759999999,
    "orderLinks": [
      {
        "id": "558c0ca1-fc91-4534-bfff-98c639baca35",
        "platform": "官網",
        "url": "https://www.facebook.com/goeattapas"
      }
    ],
    "rating": 4.4,
    "phone": "03 574 0267"
  },
  {
    "id": "ChIJh6ttAnc3aDQRQZu7vCFQcO8",
    "name": "「拾起回憶」石憶食鍋/restaurants/美食/火鍋",
    "address": "300台灣新竹市東區忠孝路51號",
    "region": "hsinchu_city",
    "latitude": 24.802334199999997,
    "longitude": 120.99077910000001,
    "orderLinks": [
      {
        "id": "15317aa6-e95f-40be-8390-e7550ac0a5f1",
        "platform": "官網",
        "url": "https://shiyishiguo.weebly.com/"
      }
    ],
    "rating": 4.9,
    "phone": "03 515 3785"
  },
  {
    "id": "ChIJ-9Ii9Kc3aDQRMsTHCBLmwB8",
    "name": "八二親食 將軍村",
    "address": "300台灣新竹市東區金城一路67號",
    "region": "hsinchu_city",
    "latitude": 24.794518099999998,
    "longitude": 121.0028583,
    "orderLinks": [
      {
        "id": "b6c4d2fd-b4c3-4693-bb8f-d7ad80879cab",
        "platform": "inline",
        "url": "https://inline.app/booking/-MYifWETiFJXKjFOhhSP:inline-live-2/-NJvAdx1DJE0-nV2nhSC"
      }
    ],
    "rating": 4.5,
    "phone": "03 572 5566"
  },
  {
    "id": "ChIJRTzE0HI2aDQRWUCg5LibBp4",
    "name": "星巴克 光復清大門市",
    "address": "300台灣新竹市東區光復路二段406號",
    "region": "hsinchu_city",
    "latitude": 24.7971631,
    "longitude": 120.99669200000001,
    "orderLinks": [
      {
        "id": "7b68e516-72ce-4a81-9532-a8a313dea38c",
        "platform": "官網",
        "url": "http://www.starbucks.com.tw/"
      }
    ],
    "rating": 4.2,
    "phone": "03 571 9138"
  },
  {
    "id": "ChIJV1SB7Ro3aDQROnas-ElaThE",
    "name": "墨竹亭 燃麵本家 新竹光復店",
    "address": "300台灣新竹市東區光復路二段760號",
    "region": "hsinchu_city",
    "latitude": 24.8009557,
    "longitude": 120.98814689999999,
    "orderLinks": [
      {
        "id": "986d424a-205d-45a2-a3c4-fed0163650fd",
        "platform": "官網",
        "url": "http://www.mozhuting.com/"
      }
    ],
    "rating": 4.7,
    "phone": "03 572 6622"
  },
  {
    "id": "ChIJ0bhVjHI2aDQRjzZBJ5TBaqw",
    "name": "白鬍子牛排清大店",
    "address": "300台灣新竹市東區建功一路68號",
    "region": "hsinchu_city",
    "latitude": 24.7984396,
    "longitude": 120.9978967,
    "orderLinks": [
      {
        "id": "9ee21019-e160-4111-90a1-43d21f4c8b88",
        "platform": "官網",
        "url": "https://www.facebook.com/WBSHsinchu/"
      }
    ],
    "rating": 4.1,
    "phone": "03 573 7889"
  },
  {
    "id": "ChIJe7ACr8s3aDQRgYuBp_30z4c",
    "name": "夜排檔熱炒",
    "address": "300台灣新竹市東區公道五路二段346號",
    "region": "hsinchu_city",
    "latitude": 24.8029057,
    "longitude": 120.99850509999999,
    "orderLinks": [
      {
        "id": "27ab78c2-daeb-4a7a-a800-b2d41a516919",
        "platform": "官網",
        "url": "https://www.facebook.com/%E5%A4%9C%E6%8E%92%E6%AA%94%E5%95%A4%E9%85%92%E5%B1%8B-206037282746921/"
      }
    ],
    "rating": 4.4,
    "phone": "03 572 5693"
  },
  {
    "id": "ChIJ-wfjv9s3aDQR8dNL3DEilJ0",
    "name": "日出咖啡sunrise cafe",
    "address": "300台灣新竹市東區金城二路4號",
    "region": "hsinchu_city",
    "latitude": 24.7948372,
    "longitude": 121.0031582,
    "orderLinks": [
      {
        "id": "852aa095-398f-4e95-a47a-0de225e42efd",
        "platform": "官網",
        "url": "https://www.facebook.com/profile.php?id=100086621050212"
      }
    ],
    "rating": 4.5,
    "phone": "03 516 9220"
  },
  {
    "id": "ChIJe97NARM2aDQR2D8S7rJCTmQ",
    "name": "成都老鍋牛肉麵",
    "address": "300台灣新竹市東區光復路二段126號",
    "region": "hsinchu_city",
    "latitude": 24.7929472,
    "longitude": 121.0020443,
    "orderLinks": [
      {
        "id": "efd8bc03-dc70-48be-8f8f-35ba2b2c6bd7",
        "platform": "官網",
        "url": "https://www.facebook.com/%E6%88%90%E9%83%BD%E8%80%81%E9%8D%8B%E9%BA%B5%E9%A3%9F%E9%A4%A8-1793799754176795/"
      }
    ],
    "rating": 4.5,
    "phone": "03 573 6399"
  },
  {
    "id": "ChIJ_7fcdME1aDQRgoB2x52LFZU",
    "name": "麥當勞-新竹光復二餐廳",
    "address": "300台灣新竹市東區光復路二段241、243號",
    "region": "hsinchu_city",
    "latitude": 24.7996388,
    "longitude": 120.99070429999999,
    "orderLinks": [
      {
        "id": "05d56c84-83a0-43bf-8bd0-d195cab0b661",
        "platform": "官網",
        "url": "https://www.mcdonalds.com/tw/zh-tw.html"
      }
    ],
    "rating": 3.5,
    "phone": "03 575 1062"
  },
  {
    "id": "ChIJmXn_p3I2aDQRuxD02EJ1TAM",
    "name": "來來豆漿店",
    "address": "300台灣新竹市東區建功路23號300",
    "region": "hsinchu_city",
    "latitude": 24.7967238,
    "longitude": 120.99900190000001,
    "orderLinks": [],
    "rating": 4.3,
    "phone": "03 572 9750"
  },
  {
    "id": "ChIJGxanrnY2aDQRKcaVOZsSSEY",
    "name": "新竹石頭燒肉火鍋",
    "address": "300台灣新竹市東區水源街99號",
    "region": "hsinchu_city",
    "latitude": 24.803149899999998,
    "longitude": 120.99246629999998,
    "orderLinks": [
      {
        "id": "1b3d0481-1ec6-4543-8d1f-899cfb790081",
        "platform": "官網",
        "url": "http://stone-yakiniku.com.tw/"
      }
    ],
    "rating": 4.4,
    "phone": "03 574 4168"
  },
  {
    "id": "ChIJu1iwKHQ2aDQR0vhX8ipyNzI",
    "name": "長疆炭燒羊肉爐 新竹忠孝店",
    "address": "300台灣新竹市東區忠孝路75號",
    "region": "hsinchu_city",
    "latitude": 24.8029644,
    "longitude": 120.9911049,
    "orderLinks": [
      {
        "id": "12418de2-5fd2-4aef-9643-60d579ae785e",
        "platform": "官網",
        "url": "https://m.facebook.com/110964513593484/"
      }
    ],
    "rating": 4.1,
    "phone": "03 575 1571"
  },
  {
    "id": "ChIJKTr23BE2aDQRHnwPbEFTM8U",
    "name": "國立陽明交通大學第二餐廳",
    "address": "300台灣新竹市東區大學路1001號",
    "region": "hsinchu_city",
    "latitude": 24.789302,
    "longitude": 120.99719699999999,
    "orderLinks": [
      {
        "id": "35bfc6b9-5655-4f94-9c1c-040a36d047fc",
        "platform": "官網",
        "url": "https://m.facebook.com/nctu.secondrestaurant/?locale2=zh_TW"
      }
    ],
    "rating": 4.3,
    "phone": "03 571 2121"
  },
  {
    "id": "ChIJ2VHNGnk3aDQRIhNo09R4tuk",
    "name": "厚醍牛肉麵 新竹忠孝店",
    "address": "300台灣新竹市東區忠孝路25-1號",
    "region": "hsinchu_city",
    "latitude": 24.8015026,
    "longitude": 120.99012990000001,
    "orderLinks": [
      {
        "id": "54236c20-564c-4480-8313-65545636d0e9",
        "platform": "官網",
        "url": "https://houti.com.tw/"
      }
    ],
    "rating": 4.4,
    "phone": "03 575 1186"
  },
  {
    "id": "ChIJ2wj3W8M1aDQRK0HnRKo0ptI",
    "name": "Fleur Lis 芙洛麗大飯店",
    "address": "300台灣新竹市東區民族路69號",
    "region": "hsinchu_city",
    "latitude": 24.807078999999998,
    "longitude": 120.97523100000001,
    "orderLinks": [
      {
        "id": "d87e28f0-a811-497c-89ad-cd877f99d829",
        "platform": "官網",
        "url": "https://www.fls.tw/"
      }
    ],
    "rating": 4.2,
    "phone": "03 623 8899"
  },
  {
    "id": "ChIJY6vDqrc3aDQR97rW6lAZhJY",
    "name": "晶宴會館-御豐館",
    "address": "300台灣新竹市東區公道五路三段1號2樓",
    "region": "hsinchu_city",
    "latitude": 24.8053651,
    "longitude": 120.9916119,
    "orderLinks": [
      {
        "id": "e8a8ef11-ccdf-4426-aeff-397ba09449e2",
        "platform": "官網",
        "url": "https://www.amazinghall.com.tw/"
      }
    ],
    "rating": 4.5,
    "phone": "03 575 0671"
  },
  {
    "id": "ChIJs_sS8to1aDQRAJv-D_RcMmU",
    "name": "老瀋陽酸菜白肉鍋",
    "address": "300台灣新竹市東區三民路125號",
    "region": "hsinchu_city",
    "latitude": 24.8103217,
    "longitude": 120.97878060000001,
    "orderLinks": [
      {
        "id": "c3ba67c9-bd0d-4dbd-8ce8-8409457251b2",
        "platform": "官網",
        "url": "https://www.facebook.com/%E8%80%81%E7%80%8B%E9%99%BD%E9%85%B8%E7%99%BD%E8%8F%9C%E7%81%AB%E9%8D%8B-395619727199635/"
      }
    ],
    "rating": 4.6,
    "phone": "03 535 3338"
  },
  {
    "id": "ChIJo9bce_A1aDQRJh0Uo0lexW8",
    "name": "八二親食 三民店",
    "address": "300台灣新竹市東區三民路43號1樓",
    "region": "hsinchu_city",
    "latitude": 24.8088154,
    "longitude": 120.9755606,
    "orderLinks": [
      {
        "id": "a6568ec3-8b7e-42d5-beb2-010e1e58828a",
        "platform": "inline",
        "url": "https://inline.app/booking/-MYifWETiFJXKjFOhhSP:inline-live-2/-MYifWP1-2fNoRgsGxOD"
      }
    ],
    "rating": 4.7,
    "phone": "03 532 2880"
  },
  {
    "id": "ChIJxXgGN4Y1aDQRAPPbDqV62DA",
    "name": "豐華小吃",
    "address": "300台灣新竹市東區民生路147號",
    "region": "hsinchu_city",
    "latitude": 24.810623,
    "longitude": 120.9764186,
    "orderLinks": [],
    "rating": 4.1,
    "phone": "03 535 1234"
  },
  {
    "id": "ChIJ_Z-fVMc1aDQRT3hEKm0RQH8",
    "name": "禾日香古早味魯肉飯",
    "address": "300台灣新竹市東區民族路163號",
    "region": "hsinchu_city",
    "latitude": 24.8091185,
    "longitude": 120.9789441,
    "orderLinks": [
      {
        "id": "1e92620f-50fb-43f7-b1f5-88aeaa9482f7",
        "platform": "官網",
        "url": "https://www.facebook.com/%E7%A6%BE%E6%97%A5%E9%A6%99-%E9%AD%AF%E8%82%89%E9%A3%AF%E5%B0%88%E9%96%80%E5%BA%97-439450116189275/"
      }
    ],
    "rating": 4,
    "phone": "03 528 0276"
  },
  {
    "id": "ChIJvwcX5kE1aDQR37Nb2Wri1hQ",
    "name": "同樂食鍋 新竹巨城三民店",
    "address": "300台灣新竹市東區三民路158號",
    "region": "hsinchu_city",
    "latitude": 24.809898099999998,
    "longitude": 120.9792166,
    "orderLinks": [
      {
        "id": "9430e8d1-2de8-49b2-9b32-bc2a23974a5f",
        "platform": "官網",
        "url": "https://www.facebook.com/p/%E5%90%8C%E6%A8%82%E9%A3%9F%E9%8D%8B-%E7%9F%B3%E9%A0%AD%E7%81%AB%E9%8D%8B%E6%B6%AE%E6%B6%AE%E9%8D%8B%E5%B0%88%E8%B3%A3-100063518485791/"
      }
    ],
    "rating": 4.8,
    "phone": "03 535 8800"
  },
  {
    "id": "ChIJk7BAC9E1aDQRcKhHolfreyo",
    "name": "Float Dept.微生咖啡「沒有訂位服務」「無室內候位空間」",
    "address": "300台灣新竹市東區民權路111巷23號",
    "region": "hsinchu_city",
    "latitude": 24.8073311,
    "longitude": 120.97451600000001,
    "orderLinks": [
      {
        "id": "c984cbba-417b-4c13-9cad-11e315334678",
        "platform": "官網",
        "url": "https://www.facebook.com/Floatdept/?epa=SEARCH_BOX"
      }
    ],
    "rating": 4.4,
    "phone": "03 515 3788"
  },
  {
    "id": "ChIJFxGEqts1aDQRDnK9lzSSAMU",
    "name": "一想一響咖啡 | 無提供訂位 | Last Order 21:00",
    "address": "30043台灣新竹市東區民生路58巷8號",
    "region": "hsinchu_city",
    "latitude": 24.8085247,
    "longitude": 120.97893069999998,
    "orderLinks": [
      {
        "id": "4d9a0f34-a6da-4170-a6b0-7d71a470c935",
        "platform": "官網",
        "url": "https://www.facebook.com/reecho.coffee/"
      }
    ],
    "rating": 4.2,
    "phone": "03 533 6651"
  },
  {
    "id": "ChIJJfegw9Y1aDQR-tI0qA1iKb8",
    "name": "石二鍋 新竹忠孝店",
    "address": "300台灣新竹市東區忠孝路279-7號",
    "region": "hsinchu_city",
    "latitude": 24.804517999999998,
    "longitude": 120.98554700000001,
    "orderLinks": [
      {
        "id": "0ef61ad3-6894-4f37-ac42-87ffd53b102e",
        "platform": "官網",
        "url": "https://www.12hotpot.com.tw/"
      }
    ],
    "rating": 4,
    "phone": "03 575 1118"
  },
  {
    "id": "ChIJgz49IhQ1aDQRrsgspC9NxpY",
    "name": "格林小鎮新2.0",
    "address": "300台灣新竹市東區自由路27巷43號",
    "region": "hsinchu_city",
    "latitude": 24.810843799999997,
    "longitude": 120.98057019999999,
    "orderLinks": [
      {
        "id": "1c6fa576-2d42-4b74-b044-697fce08f17b",
        "platform": "官網",
        "url": "https://www.facebook.com/profile.php?id=100063995439195"
      }
    ],
    "rating": 4.4,
    "phone": "0916 300 149"
  },
  {
    "id": "ChIJ18B0wt41aDQR1-xKN8FiW6s",
    "name": "千葉火鍋 新竹尊爵館 (原忠孝店)",
    "address": "300台灣新竹市東區忠孝路281號",
    "region": "hsinchu_city",
    "latitude": 24.803576399999997,
    "longitude": 120.98383419999999,
    "orderLinks": [
      {
        "id": "b5c455ae-0cf5-448b-8f3a-593f95a0b5bf",
        "platform": "官網",
        "url": "https://cyhotpot.net/GShome"
      }
    ],
    "rating": 4.4,
    "phone": "03 572 3525"
  },
  {
    "id": "ChIJ4x8tVGY1aDQRFMfEWoevWjA",
    "name": "蔣好的味道",
    "address": "300台灣新竹市東區鐵道路一段28巷81號",
    "region": "hsinchu_city",
    "latitude": 24.8124319,
    "longitude": 120.9846131,
    "orderLinks": [
      {
        "id": "e44e62d6-5614-4760-9c98-cb99a6a1bb17",
        "platform": "官網",
        "url": "https://m.facebook.com/pages/category/Restaurant/%E8%94%A3%E5%A5%BD%E7%9A%84%E5%91%B3%E9%81%93-320575941851148/"
      }
    ],
    "rating": 4.4,
    "phone": "0924 128 866"
  },
  {
    "id": "ChIJT_jE4RE2aDQROKOEdLQnfsw",
    "name": "漢堡邦",
    "address": "300台灣新竹市東區大學路1005號",
    "region": "hsinchu_city",
    "latitude": 24.7895988,
    "longitude": 120.99930250000001,
    "orderLinks": [],
    "rating": 4.4,
    "phone": "03 516 5912"
  },
  {
    "id": "ChIJy2emtaA3aDQR8ZB6mCYIKLU",
    "name": "Here Space 這家咖啡｜冰滴手沖專売｜甜點｜餐盒外燴｜入所請降低音量（有門禁，請來電）",
    "address": "300台灣新竹市東區大學路1001號第二餐廳３樓",
    "region": "hsinchu_city",
    "latitude": 24.789275,
    "longitude": 120.99709920000001,
    "orderLinks": [],
    "rating": 4.9,
    "phone": "0971 818 434"
  },
  {
    "id": "ChIJ2bPUJAs2aDQRMyEuc3UiISM",
    "name": "清華大學 第二招待所",
    "address": "300台灣新竹市東區光復路二段101號",
    "region": "hsinchu_city",
    "latitude": 24.797029799999997,
    "longitude": 120.9912045,
    "orderLinks": [],
    "rating": 3.9,
    "phone": "03 571 5131#35245"
  },
  {
    "id": "ChIJDSKUxeE1aDQRmjh99J0YA20",
    "name": "種籽蔬食養生早午餐",
    "address": "300台灣新竹市東區博愛街5巷61號",
    "region": "hsinchu_city",
    "latitude": 24.7955971,
    "longitude": 120.98664749999999,
    "orderLinks": [
      {
        "id": "800e3755-3791-4e9d-8542-9fe7db82c7f2",
        "platform": "官網",
        "url": "https://www.facebook.com/%E7%A8%AE%E7%B1%BD%E8%94%AC%E9%A3%9F-351888888528841/"
      }
    ],
    "rating": 4.6,
    "phone": "03 571 3508"
  },
  {
    "id": "ChIJ27R6Bwc2aDQRFopW3o0XlAg",
    "name": "創義食族",
    "address": "300台灣新竹市東區寶山路416號",
    "region": "hsinchu_city",
    "latitude": 24.7848866,
    "longitude": 120.9899167,
    "orderLinks": [],
    "rating": 3.9,
    "phone": "03 668 7798"
  },
  {
    "id": "ChIJh4CYXzs3aDQRxhvOPkO80EE",
    "name": "南部好滋味",
    "address": "300台灣新竹市東區光復路二段155巷78號",
    "region": "hsinchu_city",
    "latitude": 24.7975143,
    "longitude": 120.99234009999999,
    "orderLinks": [
      {
        "id": "4f5733fa-bcca-45c2-8491-d258f42cab55",
        "platform": "官網",
        "url": "https://www.facebook.com/AlenChen5720771"
      }
    ],
    "rating": 3.8,
    "phone": "03 572 0771"
  },
  {
    "id": "ChIJ0-X0_g43aDQRNVZPMfEoTi0",
    "name": "軒邑快餐",
    "address": "300台灣新竹市東區寶山路426號1樓",
    "region": "hsinchu_city",
    "latitude": 24.7847412,
    "longitude": 120.9900049,
    "orderLinks": [
      {
        "id": "a9a36bfc-bd85-4958-a099-1898d02b676e",
        "platform": "官網",
        "url": "https://www.facebook.com/profile.php?id=100063660831692&mibextid=ZbWKwL"
      }
    ],
    "rating": 4,
    "phone": "03 666 1949"
  },
  {
    "id": "ChIJTZG0XuA1aDQRVuZEkf_I2Q8",
    "name": "如意麵食館 牛肉麵",
    "address": "300台灣新竹市東區光復路二段746號",
    "region": "hsinchu_city",
    "latitude": 24.8007396,
    "longitude": 120.98862,
    "orderLinks": [
      {
        "id": "e000b97d-56b3-4b0f-8dba-a0371b562439",
        "platform": "官網",
        "url": "https://www.facebook.com/Ruiibeafnoodles/?__tn__=,d,P-R&eid=ARB16HM6yKFhOQDFzg_CbQFaVTSY3I2RiruZ1ve0Gb3CsOh-P_adzgFUsIVhNbKEGQb7Ds1yZSjOdD7b"
      }
    ],
    "rating": 4.6,
    "phone": "03 571 0212"
  },
  {
    "id": "ChIJw49gEwA3aDQRlt8g1IbZiJM",
    "name": "亞丁尼義式麵屋 清大店-新竹美食推薦|在地推薦餐廳|必吃義大利麵|平價義大利麵|人氣餐廳|焗烤義大利麵|義式燉飯|焗烤推薦",
    "address": "300台灣新竹市東區光復路二段352號",
    "region": "hsinchu_city",
    "latitude": 24.7963825,
    "longitude": 120.99772989999998,
    "orderLinks": [
      {
        "id": "a8602587-1059-48fe-8a00-b12e462dbf95",
        "platform": "官網",
        "url": "https://www.instagram.com/yadingni?igsh=MTRlbjQ4eHF0bTFkNA==&utm_source=qr"
      }
    ],
    "rating": 4.8,
    "phone": "03 516 0000"
  },
  {
    "id": "ChIJKcZXvC03aDQR_r2e5qnlOJE",
    "name": "幸福客家麵食館",
    "address": "300台灣新竹市東區光復路二段171號173號",
    "region": "hsinchu_city",
    "latitude": 24.7992079,
    "longitude": 120.99208699999998,
    "orderLinks": [
      {
        "id": "20058d44-8660-496e-919b-59d4c8892c01",
        "platform": "官網",
        "url": "https://www.facebook.com/p/%E5%B9%B8%E7%A6%8F%E5%AE%A2%E5%AE%B6%E9%BA%B5%E9%A3%9F%E9%A4%A8-100063983715533/"
      }
    ],
    "rating": 4.4,
    "phone": "03 516 0118"
  },
  {
    "id": "ChIJASR-N5U1aDQR5OnPyt0zoBU",
    "name": "一百種味道 總店外帶店",
    "address": "300台灣新竹市北區勝利路183號",
    "region": "hsinchu_city",
    "latitude": 24.801403099999998,
    "longitude": 120.96442169999999,
    "orderLinks": [
      {
        "id": "b2946ec0-a4ac-4bb2-9b3d-94accb71bf73",
        "platform": "官網",
        "url": "https://www.100tastes.com.tw/"
      }
    ],
    "rating": 4.4,
    "phone": null
  },
  {
    "id": "ChIJU1UV0-o1aDQRfb1nhfpbegA",
    "name": "海底撈火鍋 新竹店",
    "address": "300台灣新竹市東區西大路323號4樓",
    "region": "hsinchu_city",
    "latitude": 24.8018619,
    "longitude": 120.96466599999998,
    "orderLinks": [
      {
        "id": "53211ad9-2153-4cc1-b7c4-465212e66be4",
        "platform": "inline",
        "url": "https://inline.app/booking/-LamXb5SAQN7JcJfyRKi:inline-live-2a466/-LbuaqbC2ccoRJPiNuyB"
      }
    ],
    "rating": 4.8,
    "phone": "03 523 3370"
  },
  {
    "id": "ChIJzerQyOo1aDQRWcfl4b61Ekk",
    "name": "鼎泰豐 新竹店",
    "address": "300台灣新竹市東區西大路323號B1",
    "region": "hsinchu_city",
    "latitude": 24.8015395,
    "longitude": 120.96460320000001,
    "orderLinks": [
      {
        "id": "a044b3b7-26f4-4b2f-b42b-576a9086a8ab",
        "platform": "官網",
        "url": "https://www.dintaifung.com.tw/"
      }
    ],
    "rating": 4.5,
    "phone": "03 523 6222"
  },
  {
    "id": "ChIJr1_Szuo1aDQRgiJ4vR0u1e4",
    "name": "饗食天堂 新竹店",
    "address": "300台灣新竹市東區西大路323號9樓",
    "region": "hsinchu_city",
    "latitude": 24.8019347,
    "longitude": 120.9648374,
    "orderLinks": [
      {
        "id": "ee72e5d9-a5f8-48c6-b28e-5f6a73682a97",
        "platform": "官網",
        "url": "https://www.eatogether.com.tw/zh-TW/home"
      }
    ],
    "rating": 4.2,
    "phone": "03 527 8800"
  },
  {
    "id": "ChIJ4QlrdXM1aDQRHncxGKw15cU",
    "name": "山田麻糬製造所",
    "address": "300台灣新竹市東區文昌街85號",
    "region": "hsinchu_city",
    "latitude": 24.8020976,
    "longitude": 120.9667146,
    "orderLinks": [
      {
        "id": "e6653357-ce15-4617-bd03-f52256e5f038",
        "platform": "官網",
        "url": "https://yamadamochiya.com/"
      }
    ],
    "rating": 4.2,
    "phone": "0928 325 001"
  },
  {
    "id": "ChIJ3dnarZQ1aDQR9cqxIVNQxcM",
    "name": "墨咖啡 INK COFFEE",
    "address": "300台灣新竹市東區林森路180號",
    "region": "hsinchu_city",
    "latitude": 24.799274,
    "longitude": 120.9643338,
    "orderLinks": [
      {
        "id": "bf9781f3-a33d-4e21-896c-7d96b5689b00",
        "platform": "官網",
        "url": "https://line.me/R/ti/p/@225cjqbm"
      }
    ],
    "rating": 4.6,
    "phone": "03 522 0608"
  },
  {
    "id": "ChIJ4XDG8eo1aDQR3-DL--Irw7k",
    "name": "老港陳",
    "address": "300台灣新竹市東區南門街55號",
    "region": "hsinchu_city",
    "latitude": 24.8015537,
    "longitude": 120.96699729999999,
    "orderLinks": [
      {
        "id": "e3d64069-0424-498b-aaf1-908f62eee4fe",
        "platform": "官網",
        "url": "https://www.instagram.com/chenqiaoyin2/"
      }
    ],
    "rating": 4,
    "phone": "03 527 8186"
  },
  {
    "id": "ChIJ0ajpYOo1aDQRFvj0fx5fkgI",
    "name": "榮記客家湯圓",
    "address": "300台灣新竹市東區武昌街64號",
    "region": "hsinchu_city",
    "latitude": 24.8021834,
    "longitude": 120.96786259999999,
    "orderLinks": [],
    "rating": 4.1,
    "phone": "03 523 8238"
  },
  {
    "id": "ChIJg1aZ5ZQ1aDQRxib5yEmSpr8",
    "name": "貳參咖啡-西門店「無訂位服務」",
    "address": "300台灣新竹市北區西門街152號",
    "region": "hsinchu_city",
    "latitude": 24.801079299999998,
    "longitude": 120.96268510000002,
    "orderLinks": [
      {
        "id": "fa9d5780-475a-41f9-8fa4-3cb93a6b559a",
        "platform": "官網",
        "url": "https://www.instagram.com/23coffeeroasters2.0?igsh=MWNkZm1ucXgxNjYzcQ=="
      }
    ],
    "rating": 4.7,
    "phone": "03 523 2223"
  },
  {
    "id": "ChIJyfCDFoc1aDQRJduqajHrdPA",
    "name": "築間幸福鍋物 新竹中華店",
    "address": "300台灣新竹市北區中華路三段6號",
    "region": "hsinchu_city",
    "latitude": 24.7973231,
    "longitude": 120.9632943,
    "orderLinks": [
      {
        "id": "91c83bde-4b1b-4be0-a96b-6da462560860",
        "platform": "官網",
        "url": "https://linktr.ee/jhujian6666"
      }
    ],
    "rating": 4.5,
    "phone": "03 524 3337"
  },
  {
    "id": "ChIJuTJ0aBQ1aDQRv323E4Wjtnk",
    "name": "嗑肉石鍋-新竹西門店(二代店)",
    "address": "300台灣新竹市北區西門街66號",
    "region": "hsinchu_city",
    "latitude": 24.802438,
    "longitude": 120.9646465,
    "orderLinks": [
      {
        "id": "2c34fae2-23a1-41db-bb57-021a79287560",
        "platform": "官網",
        "url": "https://www.meatshotpot.com/"
      }
    ],
    "rating": 4.7,
    "phone": "03 526 6068"
  },
  {
    "id": "ChIJ1-ChtNQ1aDQRdpyukPL0qz4",
    "name": "海瑞摃丸新竹西門總店",
    "address": "300台灣新竹市北區西門街98號",
    "region": "hsinchu_city",
    "latitude": 24.801802499999997,
    "longitude": 120.96379119999997,
    "orderLinks": [
      {
        "id": "640eb5b4-3b80-4997-97f1-54a5d81a4937",
        "platform": "官網",
        "url": "https://www.hairei.com.tw/"
      }
    ],
    "rating": 4.3,
    "phone": "03 526 1115#11"
  },
  {
    "id": "ChIJgxLtY8g1aDQRhdQ0l6licm0",
    "name": "鴨肉許（中央店）",
    "address": "300台灣新竹市東區中央路296號",
    "region": "hsinchu_city",
    "latitude": 24.8100637,
    "longitude": 120.9777522,
    "orderLinks": [],
    "rating": 3.9,
    "phone": "03 532 3683"
  },
  {
    "id": "ChIJQyv318Q1aDQRYz_krC4mdb4",
    "name": "Big City遠東巨城購物中心",
    "address": "30041台灣新竹市東區中央路229號",
    "region": "hsinchu_city",
    "latitude": 24.8098161,
    "longitude": 120.9751319,
    "orderLinks": [
      {
        "id": "ba072f8a-d3d2-43b7-9b3d-637ea77fedf5",
        "platform": "官網",
        "url": "https://www.febigcity.com/bigcity"
      }
    ],
    "rating": 4.4,
    "phone": "03 623 8000"
  },
  {
    "id": "ChIJRU8ga8Q1aDQRtHRng5DN6V4",
    "name": "菜園上海餐廳",
    "address": "300台灣新竹市東區東大路一段136號",
    "region": "hsinchu_city",
    "latitude": 24.808519,
    "longitude": 120.97211199999998,
    "orderLinks": [],
    "rating": 4.5,
    "phone": "03 543 8898"
  },
  {
    "id": "ChIJ4-UpTj01aDQRRyUgXMxYZeg",
    "name": "享鴨 烤鴨與中華料理 新竹北大店",
    "address": "300台灣新竹市北區北大路140號",
    "region": "hsinchu_city",
    "latitude": 24.8102748,
    "longitude": 120.9684104,
    "orderLinks": [
      {
        "id": "02c8ee97-31d4-46f2-858e-bfdabda62e1e",
        "platform": "官網",
        "url": "https://www.facebook.com/XIANGDUCK/"
      }
    ],
    "rating": 4.8,
    "phone": "03 535 8689"
  },
  {
    "id": "ChIJETQYfME1aDQRia25uG7BIzg",
    "name": "私嚐の吃飯",
    "address": "300台灣新竹市東區中正路96巷16號300",
    "region": "hsinchu_city",
    "latitude": 24.8056537,
    "longitude": 120.97012289999999,
    "orderLinks": [
      {
        "id": "8e9907bd-3d4e-4054-a989-664dd4242cb4",
        "platform": "官網",
        "url": "https://www.facebook.com/eat20170319/"
      }
    ],
    "rating": 4.8,
    "phone": "03 525 2006"
  },
  {
    "id": "ChIJh0Kn1Qs1aDQRG5uBSCxubkY",
    "name": "麥當勞 新竹經國店",
    "address": "300台灣新竹市東區經國路一段522號號1樓",
    "region": "hsinchu_city",
    "latitude": 24.814601099999997,
    "longitude": 120.9767868,
    "orderLinks": [
      {
        "id": "3730a845-2960-4b11-b4b0-71cabe8f446d",
        "platform": "官網",
        "url": "https://www.mcdonalds.com/tw/zh-tw/full-menu/mccafe.html"
      }
    ],
    "rating": 3.7,
    "phone": "03 535 6469"
  },
  {
    "id": "ChIJK_BsJwM1aDQRrSAouGbezP8",
    "name": "硬派主廚的軟嫩料理-東門市場",
    "address": "300台灣新竹市東區東門市場1143號中央路102巷10號",
    "region": "hsinchu_city",
    "latitude": 24.805497499999998,
    "longitude": 120.96914029999998,
    "orderLinks": [
      {
        "id": "90691cde-71b1-47a5-9dff-6002bdf4bf8d",
        "platform": "官網",
        "url": "https://www.instagram.com/hardcorechiefs?igsh=MTAyYjViaGYwMGlxcQ%3D%3D&utm_source=qr"
      }
    ],
    "rating": 4.5,
    "phone": "03 525 1323"
  },
  {
    "id": "ChIJe8VtwBw1aDQRgk0e3DIGfd8",
    "name": "招財咖啡",
    "address": "300台灣新竹市北區英明街6-1號",
    "region": "hsinchu_city",
    "latitude": 24.8069243,
    "longitude": 120.96746850000001,
    "orderLinks": [
      {
        "id": "9846c240-f3ba-4059-8d9a-19cb0a1542cd",
        "platform": "inline",
        "url": "https://inline.app/booking/-Mtzt-ua60-H69xtv-9o:inline-live-2/-Mtzt07e6zaky3nEcqx0"
      }
    ],
    "rating": 4.6,
    "phone": "03 525 5602"
  },
  {
    "id": "ChIJPau9rjc1aDQRsSxlBGUC_jM",
    "name": "星巴克 新竹州圖門市",
    "address": "300台灣新竹市東區文化街8號",
    "region": "hsinchu_city",
    "latitude": 24.805214799999998,
    "longitude": 120.9712339,
    "orderLinks": [
      {
        "id": "0713de01-e7fa-499c-b7a4-f80eea328aa4",
        "platform": "官網",
        "url": "https://www.starbucks.com.tw/home/index.jspx?r=15"
      }
    ],
    "rating": 4.3,
    "phone": "03 522 8587"
  },
  {
    "id": "ChIJ_9ABIMc1aDQRCO1p9dxKbCo",
    "name": "小稻甜 Cafe",
    "address": "300台灣新竹市北區北大路166巷1弄1號",
    "region": "hsinchu_city",
    "latitude": 24.809946999999998,
    "longitude": 120.96754619999999,
    "orderLinks": [
      {
        "id": "13512483-0cc3-498f-bab6-983bfd9c0417",
        "platform": "官網",
        "url": "http://www.facebook.com/%E5%B0%8F%E7%A8%BB%E7%94%9Ccafe-1759074137656305/"
      }
    ],
    "rating": 4.3,
    "phone": "03 522 5539"
  },
  {
    "id": "ChIJx6GoixY1aDQRxsR6FvE2zQI",
    "name": "JAI宅 義大利麵 新竹巨城",
    "address": "300台灣新竹市東區民權路195號",
    "region": "hsinchu_city",
    "latitude": 24.809943699999998,
    "longitude": 120.9732233,
    "orderLinks": [
      {
        "id": "85d5a108-ff54-4b50-86e1-bec9d03cc509",
        "platform": "官網",
        "url": "https://www.zunhongtw.com/"
      }
    ],
    "rating": 4.5,
    "phone": "03 543 9988"
  },
  {
    "id": "ChIJpdWHNb01aDQRqHZADwn0ETU",
    "name": "皿富器食 minfood",
    "address": "300台灣新竹市東區錦華街18巷22號",
    "region": "hsinchu_city",
    "latitude": 24.8095958,
    "longitude": 120.9735533,
    "orderLinks": [
      {
        "id": "2b4dd949-9a1e-41fc-b698-cfa93f70a503",
        "platform": "官網",
        "url": "https://www.facebook.com/pages/category/Restaurant/%E7%9A%BF%E5%AF%8C%E5%99%A8%E9%A3%9F-min-food-730091614009830/"
      }
    ],
    "rating": 4.2,
    "phone": "03 535 0908"
  },
  {
    "id": "ChIJu4Mmbrw1aDQRQRhtKEo2d0g",
    "name": "夯下去和牛燒肉放題-新竹經國店",
    "address": "300台灣新竹市東區經國路一段673號寶雅、燦坤對面1樓",
    "region": "hsinchu_city",
    "latitude": 24.813608799999997,
    "longitude": 120.96849619999999,
    "orderLinks": [
      {
        "id": "9731967e-1e2a-44a9-ba92-fcac1b7b0295",
        "platform": "官網",
        "url": "https://www.facebook.com/profile.php?id=100092665744582"
      }
    ],
    "rating": 4.5,
    "phone": "03 531 0363"
  },
  {
    "id": "ChIJZwiwRzM3aDQRH5H1QKxXqNM",
    "name": "金春喜韓廚-新竹關新店",
    "address": "300台灣新竹市東區關新路12號",
    "region": "hsinchu_city",
    "latitude": 24.784282299999997,
    "longitude": 121.01849109999999,
    "orderLinks": [
      {
        "id": "e6b5bc4a-f58e-4f2b-a05f-95891207fdf1",
        "platform": "官網",
        "url": "https://www.facebook.com/kimchunhee.korea/"
      }
    ],
    "rating": 4.7,
    "phone": "03 563 1528"
  },
  {
    "id": "ChIJDe_Ki0Y3aDQRuTdcGWL0fqM",
    "name": "今日魚市 竹科關新店",
    "address": "300台灣新竹市東區關新西街69號",
    "region": "hsinchu_city",
    "latitude": 24.7882218,
    "longitude": 121.01915269999999,
    "orderLinks": [
      {
        "id": "66dd4332-f8de-41b4-a59e-95a0858811cc",
        "platform": "inline",
        "url": "https://inline.app/booking/-NmQaQ38eeyOqL3hdnqL:inline-live-3?language=zh-tw"
      }
    ],
    "rating": 4.9,
    "phone": "03 668 6845"
  },
  {
    "id": "ChIJ6W1Cnzk2aDQR33VJyJTuKnU",
    "name": "舊港2號原形原味料理（關新店）",
    "address": "300台灣新竹市東區關新路187號",
    "region": "hsinchu_city",
    "latitude": 24.7874171,
    "longitude": 121.01936339999999,
    "orderLinks": [
      {
        "id": "78588b24-6e3b-4d56-9d69-e0a8e3c128d4",
        "platform": "官網",
        "url": "https://www.instagram.com/port_no.2/"
      }
    ],
    "rating": 4.7,
    "phone": "0979 789 689"
  },
  {
    "id": "ChIJNQL7dQA3aDQRL5h0-l5Mwlw",
    "name": "豬一十五",
    "address": "300台灣新竹市東區關新一街50號",
    "region": "hsinchu_city",
    "latitude": 24.7838276,
    "longitude": 121.01926590000001,
    "orderLinks": [],
    "rating": 4,
    "phone": "03 567 0097"
  },
  {
    "id": "ChIJNzqKZOM2aDQRCJj-VH8f8es",
    "name": "馬六甲馬來西亞風味館關新店",
    "address": "300台灣新竹市东区关新二街49號悅精品飯店1樓 （晶",
    "region": "hsinchu_city",
    "latitude": 24.7851335,
    "longitude": 121.01913309999998,
    "orderLinks": [
      {
        "id": "cc13dad9-5bb2-4f24-998c-1c3f60ab7184",
        "platform": "官網",
        "url": "https://www.facebook.com/melaka.guanxin"
      }
    ],
    "rating": 4.3,
    "phone": "03 577 3390"
  },
  {
    "id": "ChIJwxWfnTk2aDQR5HTOVh7uWwc",
    "name": "福樂餐館",
    "address": "300台灣新竹市東區關新路152號",
    "region": "hsinchu_city",
    "latitude": 24.7866727,
    "longitude": 121.019396,
    "orderLinks": [
      {
        "id": "5caf5e14-e4ec-44e8-9f16-29c629b45eb2",
        "platform": "官網",
        "url": "https://m.facebook.com/%E7%A6%8F%E6%A8%82%E5%AE%A2%E5%AE%B6%E9%A4%90%E9%A4%A8-812881215465320/"
      }
    ],
    "rating": 4.2,
    "phone": "03 563 0025"
  },
  {
    "id": "ChIJS2TrbXk3aDQRTQ9EE3YxSHw",
    "name": "肆食居酒屋izakaya/桂丁雞/炭火串燒/生魚片/壽司/新竹宵夜",
    "address": "300台灣新竹市東區關新二街135號",
    "region": "hsinchu_city",
    "latitude": 24.7860943,
    "longitude": 121.0168406,
    "orderLinks": [
      {
        "id": "d8b5b851-194b-48aa-bff1-0c6cd83981f1",
        "platform": "官網",
        "url": "https://www.instagram.com/fortyizakaya/"
      }
    ],
    "rating": 4.9,
    "phone": "03 666 2720"
  },
  {
    "id": "ChIJu9Pu9dU3aDQRkmyDlD0r_KI",
    "name": "星島海南雞(關新店)",
    "address": "300台灣新竹市東區關新路6號",
    "region": "hsinchu_city",
    "latitude": 24.783992299999998,
    "longitude": 121.01839899999999,
    "orderLinks": [
      {
        "id": "ae1f276e-5fee-4af6-aac6-91f4f63a5bd3",
        "platform": "官網",
        "url": "https://www.0227651805.com/"
      }
    ],
    "rating": 4.8,
    "phone": "03 567 0995"
  },
  {
    "id": "ChIJc75UTcM3aDQRVu5M6PhTojg",
    "name": "硬派主廚的軟嫩料理 關東店",
    "address": "300台灣新竹市東區關東路236號",
    "region": "hsinchu_city",
    "latitude": 24.7864571,
    "longitude": 121.02130179999999,
    "orderLinks": [
      {
        "id": "01def20d-bf77-4165-b072-1c4e663ae3d8",
        "platform": "官網",
        "url": "https://www.facebook.com/profile.php?id=100085319316247&mibextid=LQQJ4d"
      }
    ],
    "rating": 4.5,
    "phone": "03 668 7812"
  },
  {
    "id": "ChIJpRVgfyI3aDQRTbN5x9v2EW8",
    "name": "ABV Bar & Kitchen 日式居酒館 新竹關新店",
    "address": "300台灣新竹市東區關新路173號",
    "region": "hsinchu_city",
    "latitude": 24.787233,
    "longitude": 121.0193395,
    "orderLinks": [
      {
        "id": "f838bc15-f9f3-478f-ac90-5cf66e8ed71c",
        "platform": "官網",
        "url": "https://www.abv.com.tw/japanese"
      }
    ],
    "rating": 4.8,
    "phone": "03 579 7760"
  },
  {
    "id": "ChIJcftWbs41aDQR0sq5p61AwK4",
    "name": "竹美私房料理 關新店",
    "address": "300台灣新竹市東區關新路160號",
    "region": "hsinchu_city",
    "latitude": 24.7867735,
    "longitude": 121.0194571,
    "orderLinks": [
      {
        "id": "4f2d6fcf-5acf-4911-a59a-585766073ba7",
        "platform": "官網",
        "url": "https://www.facebook.com/%E7%AB%B9%E7%BE%8E%E7%A7%81%E6%88%BF%E6%96%99%E7%90%86-1482218328744208/"
      }
    ],
    "rating": 4.3,
    "phone": "03 666 1157"
  },
  {
    "id": "ChIJHbR7WEA3aDQRZfzg_QbNkuA",
    "name": "1010湘 新竹關新店",
    "address": "300台灣新竹市東區關新路81號",
    "region": "hsinchu_city",
    "latitude": 24.786789799999998,
    "longitude": 121.01901689999998,
    "orderLinks": [
      {
        "id": "b581bc9b-a51c-471b-953f-aa80d2943d2d",
        "platform": "官網",
        "url": "http://www.1010restaurant.com/index.php"
      }
    ],
    "rating": 4.8,
    "phone": "03 666 7238"
  },
  {
    "id": "ChIJ0XdVdEE3aDQRWZupqw0gSyM",
    "name": "菳蒔鐵板料理",
    "address": "300台灣新竹市東區關新東路319號",
    "region": "hsinchu_city",
    "latitude": 24.7868373,
    "longitude": 121.02053079999999,
    "orderLinks": [
      {
        "id": "9d1b70b7-8721-43ea-bef2-43a0fb6683ed",
        "platform": "官網",
        "url": "https://instagram.com/jin10teppanyaki?igshid=YmMyMTA2M2Y="
      }
    ],
    "rating": 4.3,
    "phone": null
  },
  {
    "id": "ChIJB_PSppM3aDQRbeWaIpa-QOE",
    "name": "MEGOPUN Hamburger 新竹店",
    "address": "300台灣新竹市東區關新二街129號",
    "region": "hsinchu_city",
    "latitude": 24.7860302,
    "longitude": 121.0169302,
    "orderLinks": [
      {
        "id": "1be15b05-0e93-4705-87b7-ff197c31772b",
        "platform": "inline",
        "url": "https://inline.app/booking/-NPbjwwtGl3WS6MnQHxo:inline-live-3/-NPbjx9LtrpDRk5bpo-m"
      }
    ],
    "rating": 4.7,
    "phone": "03 666 1184"
  },
  {
    "id": "ChIJLc1iVpw3aDQRpoweZ_ESZ3k",
    "name": "來杯咖啡【關新門市】",
    "address": "300台灣新竹市東區關新東路321號",
    "region": "hsinchu_city",
    "latitude": 24.786859699999997,
    "longitude": 121.020558,
    "orderLinks": [
      {
        "id": "cc9aa50e-55da-495b-8df0-c9d0e5d5c4e7",
        "platform": "官網",
        "url": "https://www.instagram.com/laidback_cafe321?igsh=MW43Z3BoMDZ0dm02Nw==&utm_source=qr"
      }
    ],
    "rating": 4.9,
    "phone": "0975 321 627"
  },
  {
    "id": "ChIJHYUyEL41aDQRAGCwLgHp-pw",
    "name": "鐵釜日式料理",
    "address": "300台灣新竹市東區關新東路106號",
    "region": "hsinchu_city",
    "latitude": 24.7831649,
    "longitude": 121.0196105,
    "orderLinks": [
      {
        "id": "abcb691e-1cf3-418d-97f1-253348798a95",
        "platform": "官網",
        "url": "https://www.instagram.com/tetsukama1002"
      }
    ],
    "rating": 4.4,
    "phone": "03 567 0775"
  },
  {
    "id": "ChIJ9UlJNeA3aDQRQUVwgiMJhm8",
    "name": "麵屋吉光（不定期公休，請見FB/IG粉絲專頁）",
    "address": "300台灣新竹市東區關新東路138號1樓",
    "region": "hsinchu_city",
    "latitude": 24.7837618,
    "longitude": 121.01968119999998,
    "orderLinks": [
      {
        "id": "4e0b5d03-cded-4d1b-aa56-e36a0d264b7b",
        "platform": "官網",
        "url": "https://www.facebook.com/ramenkikkou"
      }
    ],
    "rating": 4.3,
    "phone": null
  },
  {
    "id": "ChIJcS_5czk2aDQR7bnj8wtHhYM",
    "name": "淇里思 新竹店",
    "address": "300台灣新竹市東區關新西街100號",
    "region": "hsinchu_city",
    "latitude": 24.787238,
    "longitude": 121.0188175,
    "orderLinks": [
      {
        "id": "607b6212-0945-4e32-af0b-18ae868f1db7",
        "platform": "官網",
        "url": "https://www.chilliesine.com.tw/"
      }
    ],
    "rating": 4.8,
    "phone": "03 666 3111"
  },
  {
    "id": "ChIJl8EkZTk2aDQRXYsdUuGkMHs",
    "name": "步藏私",
    "address": "300台灣新竹市東區新莊街266巷36弄62號",
    "region": "hsinchu_city",
    "latitude": 24.7870818,
    "longitude": 121.0181533,
    "orderLinks": [
      {
        "id": "365088dc-3062-46a4-8087-d64626d61843",
        "platform": "官網",
        "url": "https://www.facebook.com/HsinchuCasa/"
      }
    ],
    "rating": 4.7,
    "phone": "0908 527 686"
  },
  {
    "id": "ChIJw1TeqZ03aDQR5N8H_5tnZrY",
    "name": "The Choice 酌肆",
    "address": "30072台灣新竹市東區關新路216號",
    "region": "hsinchu_city",
    "latitude": 24.7878902,
    "longitude": 121.0211155,
    "orderLinks": [
      {
        "id": "6cd4e518-bfd1-438b-af20-0a82ee62badb",
        "platform": "官網",
        "url": "https://instagram.com/the.choice.tw"
      }
    ],
    "rating": 4.8,
    "phone": "03 668 7064"
  },
  {
    "id": "ChIJrQhHPAA3aDQRM6cNogwA-tU",
    "name": "光川製麵 - 關新店",
    "address": "300台灣新竹市東區關新二街108號",
    "region": "hsinchu_city",
    "latitude": 24.785961399999998,
    "longitude": 121.0177368,
    "orderLinks": [
      {
        "id": "32fdfffb-a929-4b8c-8d60-33f4ae50edf3",
        "platform": "iCHEF",
        "url": "https://shop.ichefpos.com/store/yF36BzsJ/ordering"
      }
    ],
    "rating": 4,
    "phone": "03 666 2609"
  },
  {
    "id": "ChIJW2iGnjk2aDQRmfqG4LtZhao",
    "name": "關新刀切牛肉麵",
    "address": "300台灣新竹市東區關新路171號",
    "region": "hsinchu_city",
    "latitude": 24.7873083,
    "longitude": 121.0192957,
    "orderLinks": [],
    "rating": 3.9,
    "phone": "03 579 7067"
  },
  {
    "id": "ChIJB_laq303aDQRwsuQfrQPOFg",
    "name": "胖叔叔古早味小吃",
    "address": "300台灣新竹市東區關新二街停車場旁邊的貨櫃屋 稻妻夕立健身房對面",
    "region": "hsinchu_city",
    "latitude": 24.7861641,
    "longitude": 121.01706610000001,
    "orderLinks": [],
    "rating": 4.9,
    "phone": "0955 026 535"
  },
  {
    "id": "ChIJUStJojk2aDQR1si0KSo6hEg",
    "name": "游麵館 關新店",
    "address": "300台灣新竹市東區關新路199號",
    "region": "hsinchu_city",
    "latitude": 24.7876264,
    "longitude": 121.0196282,
    "orderLinks": [
      {
        "id": "a0288b26-c06d-4668-8ab5-d256b8ef0690",
        "platform": "官網",
        "url": "http://www.walkerland.com.tw/article/view/242775?page=full"
      }
    ],
    "rating": 3.7,
    "phone": "03 666 7626"
  },
  {
    "id": "ChIJT93Kg9Y3aDQRRaBMMsToIuo",
    "name": "初原麵場(新竹關新店)",
    "address": "300台灣新竹市東區光復路一段362之20號",
    "region": "hsinchu_city",
    "latitude": 24.784139999999997,
    "longitude": 121.01600400000001,
    "orderLinks": [
      {
        "id": "c6563317-02c0-4a97-9f70-c66ca8d4bf94",
        "platform": "官網",
        "url": "https://www.facebook.com/chuyuanramen020/"
      }
    ],
    "rating": 4.8,
    "phone": "03 563 0212"
  },
  {
    "id": "ChIJPV6AyDs2aDQRlAtm1UE03ec",
    "name": "鴿子廚房",
    "address": "300台灣新竹市東區關新路33號",
    "region": "hsinchu_city",
    "latitude": 24.7851273,
    "longitude": 121.01820130000002,
    "orderLinks": [
      {
        "id": "33f3a132-d97b-4175-8ba5-de2021bc60b2",
        "platform": "官網",
        "url": "https://www.facebook.com/%E9%B4%BF%E5%AD%90%E5%BB%9A%E6%88%BF-1243142495749871/"
      }
    ],
    "rating": 3.8,
    "phone": "03 577 7883"
  },
  {
    "id": "ChIJ54bKzzs2aDQRc-g5HD3Iv5s",
    "name": "山外南雄九號飲食店",
    "address": "300台灣新竹市東區關新路35號",
    "region": "hsinchu_city",
    "latitude": 24.7851727,
    "longitude": 121.0183266,
    "orderLinks": [
      {
        "id": "924fac11-9969-4771-8c46-67faa2f01948",
        "platform": "官網",
        "url": "https://www.facebook.com/sw.no9/"
      }
    ],
    "rating": 3.8,
    "phone": "03 577 6133"
  },
  {
    "id": "ChIJJzdQdjA2aDQRENNgGZ-aiuo",
    "name": "無名麵店(魷魚麵店)",
    "address": "300台灣新竹市東區關東路9巷15號",
    "region": "hsinchu_city",
    "latitude": 24.781939,
    "longitude": 121.022181,
    "orderLinks": [
      {
        "id": "20e0162e-531e-4713-b564-633fe71ebe1f",
        "platform": "官網",
        "url": "https://reurl.cc/0zvyMk"
      }
    ],
    "rating": 4.4,
    "phone": "0931 255 871"
  },
  {
    "id": "ChIJV2LUlv83aDQRGypi8009PJs",
    "name": "橘時咖啡 Orange time coffee 新竹關新店",
    "address": "300台灣新竹市東區關新路45號",
    "region": "hsinchu_city",
    "latitude": 24.7854171,
    "longitude": 121.01840109999999,
    "orderLinks": [
      {
        "id": "9973fa6d-2921-48bd-9cb7-76df181513b0",
        "platform": "官網",
        "url": "https://www.orangetimecoffee.com/"
      }
    ],
    "rating": 4.4,
    "phone": "03 577 4912"
  },
  {
    "id": "ChIJLxoM5m43aDQRMELUNuS4mfk",
    "name": "預見關新 Prophecy Cafe",
    "address": "300台灣新竹市東區光復路一段360之20號",
    "region": "hsinchu_city",
    "latitude": 24.7838618,
    "longitude": 121.01663359999999,
    "orderLinks": [],
    "rating": 4.9,
    "phone": "03 577 1400"
  },
  {
    "id": "ChIJqQGZnTk2aDQRnJGiUAT3LsU",
    "name": "Louisa Coffee 路易莎咖啡(新竹關新店)",
    "address": "300台灣新竹市東區關新路158號",
    "region": "hsinchu_city",
    "latitude": 24.786846,
    "longitude": 121.019425,
    "orderLinks": [
      {
        "id": "90f211c8-5cba-4b11-8350-041aa6c9ae3e",
        "platform": "官網",
        "url": "https://www.facebook.com/Louisa-Coffee-%E8%B7%AF%E6%98%93%E8%8E%8E%E5%92%96%E5%95%A1-%E9%97%9C%E6%96%B0%E7%9B%B4%E7%87%9F%E5%BA%97-198489200653569/"
      }
    ],
    "rating": 3.6,
    "phone": "03 577 0157"
  },
  {
    "id": "ChIJY6oqI1U3aDQRvHMMeIJZSoY",
    "name": "GC法式烘焙 新竹關新概念店 Gontran Cherrier Bakery HsinChu",
    "address": "300台灣新竹市東區關新路195號",
    "region": "hsinchu_city",
    "latitude": 24.787628299999998,
    "longitude": 121.01964480000001,
    "orderLinks": [
      {
        "id": "e8483bc3-14de-4075-9438-1ffa4728f762",
        "platform": "官網",
        "url": "https://gontran-cherrier.oddle.me/zh_TW"
      }
    ],
    "rating": 3.9,
    "phone": "03 579 0239"
  },
  {
    "id": "ChIJh-W3aQA3aDQReqbl0trXRWI",
    "name": "風淾咖啡Funinncoffee（竹科店）",
    "address": "300台灣新竹市東區關新路27號1樓",
    "region": "hsinchu_city",
    "latitude": 24.7847987,
    "longitude": 121.01800490000001,
    "orderLinks": [],
    "rating": null,
    "phone": null
  },
  {
    "id": "ChIJy9ilBmE3aDQR5xvh_r1l4KY",
    "name": "OKLAO歐客佬精品咖啡 (關新店)",
    "address": "300台灣新竹市東區關新西街65號1樓",
    "region": "hsinchu_city",
    "latitude": 24.7879446,
    "longitude": 121.0190636,
    "orderLinks": [
      {
        "id": "17f84b57-57ad-4be7-a522-ae44b6ba3ad0",
        "platform": "官網",
        "url": "https://www.oklaocoffee.com/"
      }
    ],
    "rating": 4.7,
    "phone": "03 567 8790"
  },
  {
    "id": "ChIJSXOdRqU3aDQRFRzgd6BCuJ4",
    "name": "風起咖啡xC.Wind餐館｜精品咖啡｜手沖咖啡｜甜點｜輕食（暫時停止供餐）",
    "address": "300台灣新竹市東區關東路141號",
    "region": "hsinchu_city",
    "latitude": 24.787440200000002,
    "longitude": 121.02055569999999,
    "orderLinks": [
      {
        "id": "dd4d07bf-132e-4c4b-b4f0-abe202be32e8",
        "platform": "官網",
        "url": "https://www.facebook.com/twr.coffee/"
      }
    ],
    "rating": 4.7,
    "phone": "03 579 5527"
  },
  {
    "id": "ChIJWWsTzMY3aDQRBl48ptDWylQ",
    "name": "融Ola's休憩時光",
    "address": "300台灣新竹市東區關新路27號",
    "region": "hsinchu_city",
    "latitude": 24.7847585,
    "longitude": 121.01798720000001,
    "orderLinks": [
      {
        "id": "825ef227-91f0-4bcb-a7ac-524cb0839853",
        "platform": "官網",
        "url": "https://facebook.com/JungOla2020/"
      }
    ],
    "rating": 4.9,
    "phone": "0903 589 993"
  },
  {
    "id": "ChIJD53ao983aDQRmPzDwk3AC1s",
    "name": "Petrichor語續咖啡(3/5休息）",
    "address": "300台灣新竹市東區新莊街180巷22號",
    "region": "hsinchu_city",
    "latitude": 24.786693,
    "longitude": 121.017714,
    "orderLinks": [
      {
        "id": "6b8ca0bb-00d3-4e7c-a902-51248300a821",
        "platform": "官網",
        "url": "https://www.facebook.com/PetrichorCafe.Hsinchu"
      }
    ],
    "rating": 4.8,
    "phone": "0958 276 680"
  },
  {
    "id": "ChIJsS9qzjs2aDQRK4N8raX6a6I",
    "name": "星巴克 新竹日光門市",
    "address": "300台灣新竹市東區關新路38號",
    "region": "hsinchu_city",
    "latitude": 24.7852778,
    "longitude": 121.0188889,
    "orderLinks": [
      {
        "id": "a4fbdafe-c0bf-471b-b6a3-fb9401595f28",
        "platform": "官網",
        "url": "http://www.starbucks.com.tw/"
      }
    ],
    "rating": 4.1,
    "phone": "03 668 6823"
  },
  {
    "id": "ChIJTZffO4s3aDQRLAT5PkLEO3Y",
    "name": "黑 傑 克 手感烘焙-新竹關新門市",
    "address": "300台灣新竹市東區關新路170號",
    "region": "hsinchu_city",
    "latitude": 24.7871572,
    "longitude": 121.0197311,
    "orderLinks": [
      {
        "id": "73048681-f1f3-414d-ad92-6509dbdd76ef",
        "platform": "官網",
        "url": "https://www.blackjack.com.tw/"
      }
    ],
    "rating": 4.5,
    "phone": "03 579 5090"
  },
  {
    "id": "ChIJCzGL4oA3aDQRrIH82PEZ834",
    "name": "咖啡候機室 新竹光復店",
    "address": "300台灣新竹市東區光復路一段360-8號1樓",
    "region": "hsinchu_city",
    "latitude": 24.783589799999998,
    "longitude": 121.0173716,
    "orderLinks": [
      {
        "id": "e4b883e0-4a0f-4cfe-be29-58127923e5d9",
        "platform": "官網",
        "url": "https://thedeparturelounge.hsihung.com.tw/"
      }
    ],
    "rating": 4.8,
    "phone": "03 577 7363"
  },
  {
    "id": "ChIJs6RRBFc3aDQRE7fmEGXFyKo",
    "name": "Aposo 艾波索 法式甜點 新竹關新店",
    "address": "300台灣新竹市東區關新北路12號",
    "region": "hsinchu_city",
    "latitude": 24.786716,
    "longitude": 121.01832499999999,
    "orderLinks": [
      {
        "id": "6596595a-14e1-48bf-a791-6b3340c8299d",
        "platform": "官網",
        "url": "https://www.aposo2035.com.tw/"
      }
    ],
    "rating": 4.8,
    "phone": "03 579 9052"
  },
  {
    "id": "ChIJo_8bUjg2aDQR0sUi5SX21rI",
    "name": "Jess 161 beer cafe",
    "address": "300台灣新竹市東區關新西街200號",
    "region": "hsinchu_city",
    "latitude": 24.788977,
    "longitude": 121.0199564,
    "orderLinks": [
      {
        "id": "3ab415fe-d5e2-4a86-81ae-bc1022075392",
        "platform": "官網",
        "url": "https://www.facebook.com/pages/Jess-161/194423213939338"
      }
    ],
    "rating": 4.4,
    "phone": "0928 805 141"
  },
  {
    "id": "ChIJf0_Wj4Q3aDQRYvUkEW-64I0",
    "name": "CAMA CAFE 新竹關新店",
    "address": "300台灣新竹市東區光復路一段362之19號",
    "region": "hsinchu_city",
    "latitude": 24.784139999999997,
    "longitude": 121.01600400000001,
    "orderLinks": [
      {
        "id": "e386a687-69b0-422e-863c-03921e8fa01b",
        "platform": "官網",
        "url": "https://www.camacafe.com/"
      }
    ],
    "rating": 4.5,
    "phone": "03 666 8088"
  },
  {
    "id": "ChIJ8YYpIgA3aDQRqT3kSIK8Cd8",
    "name": "里歐歐式早餐-新竹關東店",
    "address": "300台灣新竹市東區關東路127號",
    "region": "hsinchu_city",
    "latitude": 24.786925099999998,
    "longitude": 121.0208138,
    "orderLinks": [
      {
        "id": "8b9c1114-e4e0-47f9-92b7-1c22af3b581b",
        "platform": "官網",
        "url": "https://store.dudooeat.com/order/store/b03b0f3bbfd8485b9ee0c681d8315ca4"
      }
    ],
    "rating": 4,
    "phone": "03 577 3588"
  },
  {
    "id": "ChIJlfvVeDk2aDQRiMk_mfj4z6k",
    "name": "樂子the Diner 新竹店（新竹市必吃特色早午餐 / 新竹蔬食美式料理餐廳 / 新竹好吃聚餐餐廳推薦／新竹寵物親子友善）",
    "address": "30072台灣新竹市東區關新路73號",
    "region": "hsinchu_city",
    "latitude": 24.7864912,
    "longitude": 121.0188362,
    "orderLinks": [
      {
        "id": "285f8207-3b8a-4b0b-a62d-180f79927061",
        "platform": "官網",
        "url": "http://www.thediner.com.tw/"
      }
    ],
    "rating": 4.1,
    "phone": "03 579 8188"
  },
  {
    "id": "ChIJWaXShTo2aDQR2fY8ni2idDc",
    "name": "關東橋小籠包",
    "address": "300台灣新竹市東區關東路23巷17號",
    "region": "hsinchu_city",
    "latitude": 24.782631700000003,
    "longitude": 121.0214246,
    "orderLinks": [],
    "rating": 4.2,
    "phone": "03 577 6453"
  },
  {
    "id": "ChIJ7Vq4p_k3aDQRU3RBZZQftxA",
    "name": "米咕家日式飯糰《新竹光復直營店》/新竹科學園區下午茶外送/新竹早午餐美食/午餐/早餐推薦/竹北早餐/takeout",
    "address": "300台灣新竹市東區光復路一段362-1號",
    "region": "hsinchu_city",
    "latitude": 24.783918,
    "longitude": 121.01650449999998,
    "orderLinks": [
      {
        "id": "91cf96ef-0792-442e-a6b2-398621a97771",
        "platform": "官網",
        "url": "https://lin.ee/o3yN31O"
      }
    ],
    "rating": 4.4,
    "phone": "0928 883 998"
  },