[
  {
    "id": "ChIJe_OSsXRLaDQRtaJw9LhOry4",
    "name": "北方味牛肉麵",
    "address": "300111台灣新竹市香山區中華路五段830號",
    "region": "hsinchu_city",
    "latitude": 24.7628083,
    "longitude": 120.9129821,
    "orderLinks": [
      {
        "id": "cc9428cf-e27c-4590-81cd-6ad8c749dad5",
        "platform": "官網",
        "url": "https://www.facebook.com/share/19guXjo6bj/?mibextid=LQQJ4d"
      }
    ],
    "rating": 4.3,
    "phone": "03 537 0811"
  },
  {
    "id": "ChIJZfMEZcNKaDQR_U7noOlSCLg",
    "name": "香山飲食店 鴨肉麵",
    "address": "300台灣新竹市香山區中華路五段750號300",
    "region": "hsinchu_city",
    "latitude": 24.7640711,
    "longitude": 120.91356129999998,
    "orderLinks": [
      {
        "id": "1fcd72f4-2e9a-4f01-adf4-95e724a5e289",
        "platform": "官網",
        "url": "https://www.facebook.com/%E9%A6%99%E5%B1%B1%E9%A3%B2%E9%A3%9F%E5%BA%97-%E9%B4%A8%E8%82%89%E9%BA%B5-856509574440060/?eid=ARCjF2aFnUURG8ywi_RHdDilFNCTlcv2ejjJ9UEBf8MKMA4vcWp4ZtuL4A7VrhHhLOH7nk65zn1OGpBX"
      }
    ],
    "rating": 4.1,
    "phone": "0985 728 626"
  },
  {
    "id": "ChIJKXAqCC1LaDQRQwj8-2NXCAQ",
    "name": "金讚小吃",
    "address": "300台灣新竹市香山區",
    "region": "hsinchu_city",
    "latitude": 24.763139799999998,
    "longitude": 120.91352439999999,
    "orderLinks": [],
    "rating": 4.8,
    "phone": "03 518 1125"
  },
  {
    "id": "ChIJG-wKRwBLaDQRajQi-eCqpJ4",
    "name": "弘爺漢堡 有謙店",
    "address": "300台灣新竹市香山區中華路五段888之3號",
    "region": "hsinchu_city",
    "latitude": 24.7612098,
    "longitude": 120.91216689999997,
    "orderLinks": [
      {
        "id": "74afb6a6-9b49-4e38-964c-e28c0849e246",
        "platform": "官網",
        "url": "https://lin.ee/J0upYCD"
      }
    ],
    "rating": 4.7,
    "phone": "03 537 0586"
  },
  {
    "id": "ChIJL7Jrd8NKaDQRUvffDBWMXq4",
    "name": "大家來早餐店",
    "address": "300台灣新竹市香山區中華路五段732號",
    "region": "hsinchu_city",
    "latitude": 24.7646609,
    "longitude": 120.9138332,
    "orderLinks": [],
    "rating": 4.5,
    "phone": "03 537 6217"
  },
  {
    "id": "ChIJ-xeJ5e5KaDQRybfi4SlXbHU",
    "name": "次瓦坊",
    "address": "300台灣新竹市香山區大湖路55巷3-3號300",
    "region": "hsinchu_city",
    "latitude": 24.762999399999998,
    "longitude": 120.92601439999999,
    "orderLinks": [],
    "rating": 4.9,
    "phone": null
  },
  {
    "id": "ChIJDR7edsNKaDQRbbEpyMCxdOQ",
    "name": "皮卡秋早點",
    "address": "300台灣新竹市香山區",
    "region": "hsinchu_city",
    "latitude": 24.7646263,
    "longitude": 120.91395829999998,
    "orderLinks": [],
    "rating": 4.1,
    "phone": "03 537 8071"
  },
  {
    "id": "ChIJAd9EZQBLaDQR4fWJcw8TdeY",
    "name": "車站豆漿",
    "address": "300台灣新竹市香山區中華路五段403號",
    "region": "hsinchu_city",
    "latitude": 24.7635483,
    "longitude": 120.91378180000001,
    "orderLinks": [],
    "rating": 5,
    "phone": null
  },
  {
    "id": "ChIJZwZeUABLaDQRlVTUeeom-M4",
    "name": "上林美好美",
    "address": "300台灣新竹市香山區中華路五段419號",
    "region": "hsinchu_city",
    "latitude": 24.763033,
    "longitude": 120.91347640000001,
    "orderLinks": [],
    "rating": 4.2,
    "phone": "03 537 5123"
  },
  {
    "id": "ChIJqRCGwPxLaDQRx6A8ec9Kx-4",
    "name": "香山烤香腸",
    "address": "300台灣新竹市香山區中華路五段375號",
    "region": "hsinchu_city",
    "latitude": 24.7641147,
    "longitude": 120.9141185,
    "orderLinks": [],
    "rating": 5,
    "phone": "0966 193 225"
  },
  {
    "id": "ChIJE5hYsmVLaDQRhx8ZujpO_0M",
    "name": "張媽媽香雞排",
    "address": "300111台灣新竹市香山區中華路五段383號",
    "region": "hsinchu_city",
    "latitude": 24.7639917,
    "longitude": 120.91397950000001,
    "orderLinks": [],
    "rating": 5,
    "phone": "0966 032 332"
  },
  {
    "id": "ChIJX7oVyMlLaDQRCaSvgvPxHnI",
    "name": "青青草原櫻花道新茶花谷竹市茶花產銷班",
    "address": "300台灣新竹市香山區大湖路167巷73號",
    "region": "hsinchu_city",
    "latitude": 24.7642301,
    "longitude": 120.933723,
    "orderLinks": [
      {
        "id": "294e2bc5-3f5c-47e0-906f-3948e3431318",
        "platform": "官網",
        "url": "https://www.facebook.com/groups/625493320956930/"
      }
    ],
    "rating": 3.8,
    "phone": "0973 261 261"
  },
  {
    "id": "ChIJd4NvsV9KaDQReAgbNm4rLwE",
    "name": "柴燒窯烤雞",
    "address": "300台灣新竹市香山區香村路801巷17-1號",
    "region": "hsinchu_city",
    "latitude": 24.7643426,
    "longitude": 120.94500089999998,
    "orderLinks": [
      {
        "id": "529519eb-0851-4a6c-9426-a5dec78ec34a",
        "platform": "官網",
        "url": "https://www.facebook.com/%E6%9F%B4%E7%87%92%E7%AA%AF%E7%83%A4-678854555476561/"
      }
    ],
    "rating": 4.2,
    "phone": "0937 176 712"
  },
  {
    "id": "ChIJaZiJKFtKaDQRupMMYZ304DM",
    "name": "八方雲集-新竹五福店",
    "address": "300台灣新竹市香山區五福路二段723號",
    "region": "hsinchu_city",
    "latitude": 24.756527499999997,
    "longitude": 120.95269010000001,
    "orderLinks": [
      {
        "id": "450fc28f-c33c-4d01-8677-c7016f9da83f",
        "platform": "官網",
        "url": "https://www.8way.com.tw/"
      }
    ],
    "rating": 3.1,
    "phone": "03 537 5941"
  },
  {
    "id": "ChIJm0rB11pKaDQRBlXqxkpfcLA",
    "name": "蔡叔叔牛肉麵",
    "address": "300台灣新竹市香山區五福路二段826號",
    "region": "hsinchu_city",
    "latitude": 24.7558693,
    "longitude": 120.9526156,
    "orderLinks": [],
    "rating": 4.4,
    "phone": "0973 372 176"
  },
  {
    "id": "ChIJN6DlJ51LaDQRYIck7yqVTfc",
    "name": "豬雜麵（雨天不營業）",
    "address": "300台灣新竹市香山區五福路二段1454號",
    "region": "hsinchu_city",
    "latitude": 24.753939,
    "longitude": 120.95611619999998,
    "orderLinks": [],
    "rating": 4.3,
    "phone": "0975 122 986"
  },
  {
    "id": "ChIJSYXsKVtKaDQRXuBOq8cWUfA",
    "name": "悅來小吃五福路",
    "address": "300台灣新竹市香山區五福路二段743號",
    "region": "hsinchu_city",
    "latitude": 24.7561045,
    "longitude": 120.95278809999999,
    "orderLinks": [],
    "rating": 4.4,
    "phone": "03 518 1635"
  },
  {
    "id": "ChIJ6w41JVtKaDQRHx73PBBN2-c",
    "name": "王牌廣東粥海鮮麵",
    "address": "300台灣新竹市香山區明德路",
    "region": "hsinchu_city",
    "latitude": 24.756773,
    "longitude": 120.952398,
    "orderLinks": [],
    "rating": 4.6,
    "phone": "0938 616 280"
  },
  {
    "id": "ChIJ9wZyI1tKaDQRkwK4FDV_H94",
    "name": "弘爺漢堡",
    "address": "300台灣新竹市香山區明德路6號",
    "region": "hsinchu_city",
    "latitude": 24.7567314,
    "longitude": 120.95206719999999,
    "orderLinks": [
      {
        "id": "53b635c4-2756-4984-bcf7-6ac788d970f0",
        "platform": "官網",
        "url": "http://www.hongya88.com.tw/"
      }
    ],
    "rating": 4.3,
    "phone": "03 537 2891"
  },
  {
    "id": "ChIJjWQ1hRpLaDQRWbU-I2M2ZIM",
    "name": "🍱 脊美食堂｜即日起暫時公休至 2026/4/30（詳見最新動態） 🍣丼飯・壽司・手捲・生蠔てまき・Donburi・Sushi・Seafood日式×創意饗宴｜新鮮・健康・療癒｜新竹美食推薦❤️",
    "address": "300台灣新竹市香山區明德路25號",
    "region": "hsinchu_city",
    "latitude": 24.7560139,
    "longitude": 120.95152390000001,
    "orderLinks": [
      {
        "id": "48d85010-f5d2-4f52-b228-229cee89e1e1",
        "platform": "官網",
        "url": "https://lin.ee/QopxO3L"
      }
    ],
    "rating": 5,
    "phone": null
  },
  {
    "id": "ChIJX-ebO1tKaDQRHXmmR2gdnJY",
    "name": "行家燒臘-五福店",
    "address": "300台灣新竹市香山區五福路二段768號",
    "region": "hsinchu_city",
    "latitude": 24.7570449,
    "longitude": 120.9522277,
    "orderLinks": [
      {
        "id": "58adada6-62e0-4081-bfde-d88a8133fe71",
        "platform": "官網",
        "url": "http://www.lovefood.cc/2011/01/blog-post_21.html?m=1"
      }
    ],
    "rating": 3.7,
    "phone": "03 518 3057"
  },
  {
    "id": "ChIJb2-kgC1LaDQROisjD5Wqv54",
    "name": "阿根早點 中華大學五福店",
    "address": "300台灣新竹市香山區五福路二段786號300",
    "region": "hsinchu_city",
    "latitude": 24.7566752,
    "longitude": 120.95243389999999,
    "orderLinks": [
      {
        "id": "f6050586-c2b5-4ec3-86bc-4271e54e7d2a",
        "platform": "官網",
        "url": "https://www.facebook.com/goodmorningagen/"
      }
    ],
    "rating": 4.5,
    "phone": "03 537 4325"
  },
  {
    "id": "ChIJjRlpS2BLaDQRFPNMP0dA77Y",
    "name": "中華湯包",
    "address": "300台灣新竹市香山區五福路二段832號",
    "region": "hsinchu_city",
    "latitude": 24.755843799999997,
    "longitude": 120.95263800000001,
    "orderLinks": [],
    "rating": 4.3,
    "phone": "03 518 1797"
  },
  {
    "id": "ChIJi5DBOltKaDQRTvLcPcGxciE",
    "name": "脆皮雞排",
    "address": "300台灣新竹市香山區明德路1號",
    "region": "hsinchu_city",
    "latitude": 24.756848899999998,
    "longitude": 120.95228129999998,
    "orderLinks": [],
    "rating": 3.9,
    "phone": "0911 253 312"
  },
  {
    "id": "ChIJK6A3nppLaDQRBPFxdWehTm0",
    "name": "小鳳越南河粉",
    "address": "300台灣新竹市香山區明德路16號",
    "region": "hsinchu_city",
    "latitude": 24.7565824,
    "longitude": 120.95187729999999,
    "orderLinks": [],
    "rating": 4.3,
    "phone": "0905 189 820"
  },
  {
    "id": "ChIJHQjywgdLaDQR7srFAprKqG8",
    "name": "古都燒肉飯",
    "address": "300台灣新竹市香山區五福路二段830號",
    "region": "hsinchu_city",
    "latitude": 24.7558375,
    "longitude": 120.95264859999999,
    "orderLinks": [],
    "rating": 4.1,
    "phone": "03 518 3138"
  },
  {
    "id": "ChIJpQTO11pKaDQRHkPucgXTjqM",
    "name": "KALI咖哩屋",
    "address": "300台灣新竹市香山區五福路二段738之4號",
    "region": "hsinchu_city",
    "latitude": 24.757077199999998,
    "longitude": 120.9521817,
    "orderLinks": [],
    "rating": 4.1,
    "phone": "03 518 3308"
  },
  {
    "id": "ChIJG-Io91pKaDQRi0MtYCE2KRA",
    "name": "飲茶50 -- 大家來喝茶",
    "address": "300台灣新竹市香山區至善街31巷34號",
    "region": "hsinchu_city",
    "latitude": 24.7555783,
    "longitude": 120.9505121,
    "orderLinks": [
      {
        "id": "d6a171d4-7724-4d58-bcc8-fb90258567f6",
        "platform": "官網",
        "url": "https://www.facebook.com/hsinchutea50/?show_switched_toast=0&show_switched_tooltip=0&show_podcast_settings=0"
      }
    ],
    "rating": 4.3,
    "phone": "03 518 1691"
  },
  {
    "id": "ChIJ_fWXI1tKaDQRlMHuwtqZstI",
    "name": "開源社香雞排（新竹香山五福店）（中華大學對面)",
    "address": "300台灣新竹市香山區明德路8號",
    "region": "hsinchu_city",
    "latitude": 24.7566991,
    "longitude": 120.95202099999999,
    "orderLinks": [],
    "rating": 3.2,
    "phone": "03 537 8755"
  },
  {
    "id": "ChIJ06EsKFtKaDQR5ZqcRqBU7VU",
    "name": "佳味",
    "address": "300台灣新竹市香山區五福路二段820號",
    "region": "hsinchu_city",
    "latitude": 24.7560769,
    "longitude": 120.95260970000001,
    "orderLinks": [],
    "rating": 4.1,
    "phone": "03 537 8960"
  },
  {
    "id": "ChIJRQJnKABLaDQRxLj3t2ySwWw",
    "name": "三益飯盒",
    "address": "300台灣新竹市香山區明德路52號",
    "region": "hsinchu_city",
    "latitude": 24.7562055,
    "longitude": 120.95131839999999,
    "orderLinks": [],
    "rating": 4.8,
    "phone": "0932 114 055"
  },
  {
    "id": "ChIJEZbPLltKaDQRbfalAfyEBJU",
    "name": "鱻而美簡餐坊",
    "address": "300台灣新竹市香山區五福路二段731號",
    "region": "hsinchu_city",
    "latitude": 24.756371899999998,
    "longitude": 120.95274330000001,
    "orderLinks": [],
    "rating": 4.5,
    "phone": "03 518 1453"
  },
  {
    "id": "ChIJN-i6v0FKaDQRFluoFj-vN-0",
    "name": "草根廚房餐廳",
    "address": "300台灣新竹市東區柴橋路350號",
    "region": "hsinchu_city",
    "latitude": 24.7607371,
    "longitude": 120.95995160000001,
    "orderLinks": [
      {
        "id": "ff5e9b1d-8508-47ab-b245-1b20c0059b98",
        "platform": "官網",
        "url": "https://www.facebook.com/profile.php?id=100084547634460"
      }
    ],
    "rating": 4.2,
    "phone": "03 520 0351"
  },
  {
    "id": "ChIJxc67uyxLaDQRGvzMTyQ6-2E",
    "name": "慢漫桶仔雞",
    "address": "300台灣新竹市香山區美之城7-1號四季華城對面",
    "region": "hsinchu_city",
    "latitude": 24.7678175,
    "longitude": 120.9603451,
    "orderLinks": [
      {
        "id": "09729c5c-772b-414f-b47c-dc95e56efe65",
        "platform": "官網",
        "url": "https://www.facebook.com/%E6%85%A2%E6%BC%AB%E6%A1%B6%E4%BB%94%E9%9B%9E-384814802315379/"
      }
    ],
    "rating": 4.9,
    "phone": "0967 000 158"
  },
  {
    "id": "ChIJPYxInGxKaDQR7F6ayhVPJqQ",
    "name": "洛山風土雞城220",
    "address": "300台灣新竹市香山區東香路一段61-1號",
    "region": "hsinchu_city",
    "latitude": 24.7674068,
    "longitude": 120.96283509999999,
    "orderLinks": [],
    "rating": 3.9,
    "phone": "0953 023 730"
  },
  {
    "id": "ChIJgXHfj2tKaDQRu-Upao2y-hY",
    "name": "落山風快炒",
    "address": "300台灣新竹市香山區東香路一段113巷61-1號",
    "region": "hsinchu_city",
    "latitude": 24.7674496,
    "longitude": 120.96285649999999,
    "orderLinks": [],
    "rating": 4.1,
    "phone": "0953 123 730"
  },
  {
    "id": "ChIJ169VaehLaDQRhE43K_cIhSw",
    "name": "巷子(木屋)麵店",
    "address": "300台灣新竹市香山區美之城87號",
    "region": "hsinchu_city",
    "latitude": 24.7681728,
    "longitude": 120.95825199999999,
    "orderLinks": [],
    "rating": 4,
    "phone": "03 529 6828"
  },
  {
    "id": "ChIJgeM8ZR1KaDQRd3ZqnsrYQ_E",
    "name": "佳禾日式炭燒JIAHE(預約優先制)",
    "address": "308台灣新竹縣寶山鄉明湖路57號",
    "region": "hsinchu_city",
    "latitude": 24.764660499999998,
    "longitude": 120.9872098,
    "orderLinks": [],
    "rating": 4.4,
    "phone": "03 520 0660"
  },
  {
    "id": "ChIJW5YePL1LaDQRPQxCSdM7TY0",
    "name": "北私房餐盒-炙燒&熟成咖喱",
    "address": "300台灣新竹市東區明湖路1243巷38號",
    "region": "hsinchu_city",
    "latitude": 24.7682137,
    "longitude": 120.97943869999999,
    "orderLinks": [],
    "rating": 4.9,
    "phone": "0910 357 024"
  },
  {
    "id": "ChIJdza2palLaDQRR9c0P77T5HE",
    "name": "新寶水煎包",
    "address": "308台灣新竹縣寶山鄉環北路303號",
    "region": "hsinchu_city",
    "latitude": 24.767293499999997,
    "longitude": 120.9843726,
    "orderLinks": [],
    "rating": 4.6,
    "phone": "0984 287 350"
  },
  {
    "id": "ChIJXXmnFQVLaDQRWX0j1Zj_duc",
    "name": "大宥鹽酥雞-青草湖總店",
    "address": "300台灣新竹市東區明湖路1010之1號",
    "region": "hsinchu_city",
    "latitude": 24.768767900000004,
    "longitude": 120.9772587,
    "orderLinks": [
      {
        "id": "46248df2-95e3-4774-8a5f-759ef65676d7",
        "platform": "官網",
        "url": "https://www.facebook.com/jackwu681108"
      }
    ],
    "rating": 4.2,
    "phone": "0972 800 159"
  },
  {
    "id": "ChIJgz6aKfZJaDQRLicClbH9wzQ",
    "name": "胖老爹美式炸雞 新竹寶山店",
    "address": "308台灣新竹縣寶山鄉寶新路一段12號",
    "region": "hsinchu_city",
    "latitude": 24.7636844,
    "longitude": 120.98769899999999,
    "orderLinks": [],
    "rating": 3.4,
    "phone": "03 520 2242"
  },
  {
    "id": "ChIJM7b5WYJLaDQR8R8LcczJyPg",
    "name": "10 種香料印度餐車 | 10 Spices Indian Food Truck",
    "address": "No, No. 55明湖路寶山鄉新竹縣台灣 308",
    "region": "hsinchu_city",
    "latitude": 24.764597,
    "longitude": 120.98725499999999,
    "orderLinks": [],
    "rating": 4.5,
    "phone": "03 520 0660"
  },
  {
    "id": "ChIJ7bJ90_dJaDQRFtrkl3Q4cr8",
    "name": "新食代廣東粥-寶山店",
    "address": "308台灣新竹縣寶山鄉明湖路15號",
    "region": "hsinchu_city",
    "latitude": 24.7641167,
    "longitude": 120.98800129999998,
    "orderLinks": [],
    "rating": 3.9,
    "phone": "03 519 1111"
  },
  {
    "id": "ChIJFaCz7TdLaDQRaDlqFKxdUp8",
    "name": "江鳥屋 烤肉飯·日式咖哩專賣（大量訂單請1～2天前來電訂購）",
    "address": "300台灣新竹市東區明湖路1231號",
    "region": "hsinchu_city",
    "latitude": 24.7681649,
    "longitude": 120.9786825,
    "orderLinks": [
      {
        "id": "1c76609a-e59d-4b50-90bf-a58842da5796",
        "platform": "官網",
        "url": "https://www.facebook.com/%E6%B1%9F%E9%B3%A5%E5%B1%8B-%E7%83%A4%E8%82%89%E4%BE%BF%E7%95%B6%E6%97%A5%E5%BC%8F%E5%92%96%E5%93%A9%E5%B0%88%E8%B3%A3-100904552130761/"
      }
    ],
    "rating": 4.5,
    "phone": "0913 635 016"
  },
  {
    "id": "ChIJUeTL2BpKaDQRFyg6SColm7s",
    "name": "阿明湖水煎包",
    "address": "300台灣新竹市東區明湖路1040-1050號",
    "region": "hsinchu_city",
    "latitude": 24.767798,
    "longitude": 120.97888929999998,
    "orderLinks": [],
    "rating": 4.5,
    "phone": "0984 345 271"
  },
  {
    "id": "ChIJk7lpvWRLaDQRxPfEx8-Sg_Q",
    "name": "飽可夢雞排",
    "address": "300台灣新竹市東區明湖路1253巷",
    "region": "hsinchu_city",
    "latitude": 24.7678653,
    "longitude": 120.9795303,
    "orderLinks": [],
    "rating": 4.7,
    "phone": "0912 221 855"
  },
  {
    "id": "ChIJCfR6LfZJaDQR1jtA7I5x70g",
    "name": "阿力香雞排",
    "address": "308台灣新竹縣寶山鄉雙園路二段411號",
    "region": "hsinchu_city",
    "latitude": 24.7637462,
    "longitude": 120.98834199999999,
    "orderLinks": [
      {
        "id": "96a90233-a56a-42ea-a85e-535bee9a978e",
        "platform": "官網",
        "url": "https://m.facebook.com/ALi09100206/"
      }
    ],
    "rating": 3.7,
    "phone": "03 520 4758"
  },
  {
    "id": "ChIJKyxjpkBLaDQRlfdNbGd-FEM",
    "name": "ㄚ金東山鴨頭",
    "address": "308台灣新竹縣寶山鄉明湖路319號",
    "region": "hsinchu_city",
    "latitude": 24.7663045,
    "longitude": 120.98149430000001,
    "orderLinks": [],
    "rating": 3.8,
    "phone": "0952 199 329"
  },
  {
    "id": "ChIJn3DnIMhLaDQR7y8tptl0gbU",
    "name": "環北路無名滷肉飯",
    "address": "300台灣新竹市東區明湖路1251號",
    "region": "hsinchu_city",
    "latitude": 24.767740999999997,
    "longitude": 120.97928610000001,
    "orderLinks": [],
    "rating": 4.5,
    "phone": "0980 210 204"
  },
  {
    "id": "ChIJibbKxRpKaDQRfmfRYXs685o",
    "name": "蔡包子饅頭專賣、早餐店、粉漿蛋餅、煎包",
    "address": "308台灣新竹縣寶山鄉明湖路1028號",
    "region": "hsinchu_city",
    "latitude": 24.7680702,
    "longitude": 120.97796360000001,
    "orderLinks": [],
    "rating": 4.1,
    "phone": "03 520 5689"
  },
  {
    "id": "ChIJH-4kcdFLaDQROaqXFy4-I2g",
    "name": "好小子 早點吃素(只能外帶)",
    "address": "308台灣新竹縣寶山鄉明湖路56號",
    "region": "hsinchu_city",
    "latitude": 24.764785,
    "longitude": 120.9873866,
    "orderLinks": [],
    "rating": 4.6,
    "phone": "0988 112 157"
  },
  {
    "id": "ChIJm4qbe-NJaDQRt-gcdRi0ddY",
    "name": "香亭香雞排",
    "address": "308台灣新竹縣寶山鄉竹47鄉道6號",
    "region": "hsinchu_city",
    "latitude": 24.763766399999998,
    "longitude": 120.9878748,
    "orderLinks": [],
    "rating": 4.8,
    "phone": "03 520 2365"
  },
  {
    "id": "ChIJK7iMcOVLaDQR6TuK-BojX8o",
    "name": "阿芳小吃店",
    "address": "300台灣新竹市東區明湖路1050巷49號1 樓",
    "region": "hsinchu_city",
    "latitude": 24.765718,
    "longitude": 120.9782886,
    "orderLinks": [],
    "rating": 4.4,
    "phone": "03 520 6410"
  },
  {
    "id": "ChIJHcyC-RpKaDQR_qzmcRhlOTs",
    "name": "美十美春福店",
    "address": "300台灣新竹市東區明湖路1050巷27號",
    "region": "hsinchu_city",
    "latitude": 24.766088399999997,
    "longitude": 120.9784517,
    "orderLinks": [],
    "rating": 3.8,
    "phone": "03 519 2231"
  },
  {
    "id": "ChIJZxtiIwBLaDQRWXIPBd0_SMY",
    "name": "85度C咖啡蛋糕飲料麵包-新竹寶新店",
    "address": "308台灣新竹縣寶山鄉寶新路一段77號",
    "region": "hsinchu_city",
    "latitude": 24.762783199999998,
    "longitude": 120.9862883,
    "orderLinks": [],
    "rating": 4.8,
    "phone": "03 520 0130"
  },
  {
    "id": "ChIJxQLO3QhLaDQR_FdzbMDy5Wg",
    "name": "傻師傅湯包",
    "address": "300台灣新竹市東區明湖路1012-1號號",
    "region": "hsinchu_city",
    "latitude": 24.7685396,
    "longitude": 120.97753329999999,
    "orderLinks": [],
    "rating": 2.5,
    "phone": "0907 623 733"
  },
  {
    "id": "ChIJeXozo_dJaDQRi4nLpChxHDU",
    "name": "老復興飲食店",
    "address": "308台灣新竹縣寶山鄉雙園路二段359號",
    "region": "hsinchu_city",
    "latitude": 24.7646057,
    "longitude": 120.9898604,
    "orderLinks": [],
    "rating": 4.3,
    "phone": "03 520 1237"
  },
  {
    "id": "ChIJ10olRPhJaDQRt9RVWbLiFeo",
    "name": "海水屋 寶山雙豐店",
    "address": "308台灣新竹縣寶山鄉雙豐路168號",
    "region": "hsinchu_city",
    "latitude": 24.768032100000003,
    "longitude": 120.9889537,
    "orderLinks": [
      {
        "id": "9d298558-c941-4a36-ba9d-5903a6138ed6",
        "platform": "官網",
        "url": "https://www.facebook.com/hisweetwu/"
      }
    ],
    "rating": 3.9,
    "phone": "03 529 7749"
  },
  {
    "id": "ChIJL35glSZKaDQRMdk7N84FAR4",
    "name": "鑫園客家菜餐廳",
    "address": "308台灣新竹縣寶山鄉湳坑路二段130號308",
    "region": "hsinchu_city",
    "latitude": 24.764129,
    "longitude": 120.98974399999999,
    "orderLinks": [
      {
        "id": "0463f847-0f13-495f-8af5-10484a2b397c",
        "platform": "官網",
        "url": "https://www.facebook.com/mylove035203706"
      }
    ],
    "rating": 4.2,
    "phone": "03 520 3706"
  },
  {
    "id": "ChIJ-6h7sKdJaDQRUg45gzeh7pA",
    "name": "三本柱薑母鴨x鮮蚵放題 竹科店｜東石鮮蚵｜烤蚵推薦｜新竹必吃｜在地美食｜特色小吃｜秘製烤雞｜台式快炒｜竹科聚會餐廳",
    "address": "308005台灣新竹縣寶山鄉湳坑路二段121巷11號",
    "region": "hsinchu_city",
    "latitude": 24.763390899999997,
    "longitude": 120.98946079999999,
    "orderLinks": [
      {
        "id": "505f4624-a3fd-4624-a465-1387e03cff0a",
        "platform": "官網",
        "url": "https://www.facebook.com/share/NGhstnmfZDKXsLtz/?mibextid=LQQJ4d"
      }
    ],
    "rating": 4.3,
    "phone": "03 520 5209"
  },
  {
    "id": "ChIJr86JnPdJaDQRcNKHSZsX4x0",
    "name": "葉阿姨蔥油餅麵缐糊(廟旁邊)",
    "address": "308台灣新竹縣寶山鄉雙豐路3號",
    "region": "hsinchu_city",
    "latitude": 24.7653681,
    "longitude": 120.9901865,
    "orderLinks": [],
    "rating": 4.5,
    "phone": "0930 098 948"
  },
  {
    "id": "ChIJn_dp-fBJaDQReAvFZbfDiK4",
    "name": "台北江麻辣臭豆腐專賣舖 寶山店",
    "address": "30841台灣新竹縣寶山鄉湳坑路二段121巷1號",
    "region": "hsinchu_city",
    "latitude": 24.7637885,
    "longitude": 120.9895627,
    "orderLinks": [
      {
        "id": "2bd19d62-39eb-485e-907b-1ede9e0a1d5e",
        "platform": "官網",
        "url": "https://taibeijiang.weebly.com/"
      }
    ],
    "rating": 4.5,
    "phone": "0966 221 298"
  },
  {
    "id": "ChIJtcpfxUpJaDQR130S8WNvSSg",
    "name": "麥味登雙豐店",
    "address": "308台灣新竹縣寶山鄉雙豐路170號",
    "region": "hsinchu_city",
    "latitude": 24.7678053,
    "longitude": 120.98861219999998,
    "orderLinks": [
      {
        "id": "6daac1d9-75a2-4c5e-9c94-381ef03b8cdf",
        "platform": "官網",
        "url": "https://www.facebook.com/profile.php?id=61553680222718&mibextid=LQQJ4d"
      }
    ],
    "rating": 4.5,
    "phone": "0938 876 170"
  },
  {
    "id": "ChIJ3-DEIwBJaDQRVzutIaORmkw",
    "name": "米撰雞腿壩王寶山店/池上便當/寶山排隊美食/竹科外送便當/園區外送便當/好吃會議便當/客製活動餐盒/新竹外送午晚餐/新竹排隊便當/來店消費可享免費停車",
    "address": "308台灣新竹縣寶山鄉湳坑路二段121巷15號",
    "region": "hsinchu_city",
    "latitude": 24.763149199999997,
    "longitude": 120.9893962,
    "orderLinks": [
      {
        "id": "1e9dcdae-57fd-4bb0-a406-1a46f6411b46",
        "platform": "官網",
        "url": "https://lin.ee/8G6JnQUA"
      }
    ],
    "rating": 4.5,
    "phone": "0963 513 150"
  },
  {
    "id": "ChIJ5eNfnPdJaDQRqCZvZPUrfRc",
    "name": "寶山廟口香雞排",
    "address": "308台灣新竹縣寶山鄉雙豐路4號",
    "region": "hsinchu_city",
    "latitude": 24.765302499999997,
    "longitude": 120.99018199999999,
    "orderLinks": [],
    "rating": 4.4,
    "phone": "03 520 6346"
  },
  {
    "id": "ChIJlaisFKdJaDQRyBPeugZvwpg",
    "name": "金正好吃-寶山店",
    "address": "308台灣新竹縣寶山鄉雙園路二段372號",
    "region": "hsinchu_city",
    "latitude": 24.764517599999998,
    "longitude": 120.9894003,
    "orderLinks": [],
    "rating": 3.2,
    "phone": "03 520 7733"
  },
  {
    "id": "ChIJf-tJyfdJaDQRS8oBabB5T9Y",
    "name": "大堂牛肉麵",
    "address": "308台灣新竹縣寶山鄉雙園路二段398號",
    "region": "hsinchu_city",
    "latitude": 24.764199299999998,
    "longitude": 120.9886292,
    "orderLinks": [],
    "rating": 3.9,
    "phone": "0912 603 373"
  },
  {
    "id": "ChIJEYEcmwBKaDQRDPC97J4Y_l0",
    "name": "高翠快餐便當店",
    "address": "308台灣新竹縣寶山鄉湳坑路二段121巷5號",
    "region": "hsinchu_city",
    "latitude": 24.763607699999998,
    "longitude": 120.98955360000001,
    "orderLinks": [
      {
        "id": "dcc99269-8e96-493d-b101-fb64b26f1f5f",
        "platform": "官網",
        "url": "http://www.facebook.com/%E9%AB%98%E5%B3%B0%E5%BF%AB%E9%A4%90%E5%8E%9F%E9%AB%98%E5%B3%B0%E6%B3%B0%E5%BC%8F%E6%96%99%E7%90%86-942987065736709/"
      }
    ],
    "rating": 4,
    "phone": "0906 313 772"
  },
  {
    "id": "ChIJp8LEC-NJaDQRZJSGxR2BFHM",
    "name": "雙醬咖哩雙溪店",
    "address": "308台灣新竹縣寶山鄉雙園路二段410號1樓",
    "region": "hsinchu_city",
    "latitude": 24.764014099999997,
    "longitude": 120.98846169999999,
    "orderLinks": [],
    "rating": 4.7,
    "phone": "03 529 0139"
  },
  {
    "id": "ChIJqX-8y_dJaDQRpJkuRlzXJgU",
    "name": "好口味自助餐",
    "address": "308台灣新竹縣寶山鄉雙園路二段398-406號",
    "region": "hsinchu_city",
    "latitude": 24.764014099999997,
    "longitude": 120.9888355,
    "orderLinks": [],
    "rating": 3.5,
    "phone": "03 529 2901"
  },
  {
    "id": "ChIJe4dmNGZJaDQRB3jetIrgeNY",
    "name": "鑫山複合式餐廳｜進仔薑母鴨",
    "address": "308台灣新竹縣寶山鄉雙園路二段32號",
    "region": "hsinchu_city",
    "latitude": 24.7682945,
    "longitude": 120.99927859999998,
    "orderLinks": [
      {
        "id": "83487346-e3b9-450c-a717-c352b72ce757",
        "platform": "官網",
        "url": "https://www.facebook.com/profile.php?id=100093607753716&mibextid=LQQJ4d"
      }
    ],
    "rating": 4.8,
    "phone": "0933 794 322"
  },
  {
    "id": "ChIJ63Ki5hpJaDQR9MPcoEwRPck",
    "name": "成功自助餐",
    "address": "308台灣新竹縣寶山鄉大雅路二段129號",
    "region": "hsinchu_city",
    "latitude": 24.759192799999997,
    "longitude": 121.00557060000001,
    "orderLinks": [],
    "rating": 3.3,
    "phone": "0981 607 471"
  },
  {
    "id": "ChIJr9GOHgBJaDQR8C1Qw5J4xjQ",
    "name": "鋒創科技",
    "address": "308台灣新竹縣寶山鄉科環路18-2號",
    "region": "hsinchu_city",
    "latitude": 24.7606196,
    "longitude": 121.0061994,
    "orderLinks": [],
    "rating": 4,
    "phone": "0966 421 079"
  },
  {
    "id": "ChIJF7xNU1xJaDQRQKv2WB8am2c",
    "name": "鑫山複合式KTV（2F）",
    "address": "308台灣新竹縣寶山鄉雙園路二段32號2樓",
    "region": "hsinchu_city",
    "latitude": 24.768459999999997,
    "longitude": 120.998912,
    "orderLinks": [],
    "rating": 4.7,
    "phone": "0981 477 785"
  },
  {
    "id": "ChIJCUoMzgBJaDQRpiGrNjxuR4k",
    "name": "雙溪湯包",
    "address": "308台灣新竹縣寶山鄉大雅路二段120號",
    "region": "hsinchu_city",
    "latitude": 24.7561759,
    "longitude": 121.00634260000001,
    "orderLinks": [],
    "rating": 4.2,
    "phone": "0966 845 092"
  },
  {
    "id": "ChIJvWrM7kBJaDQRSViN9yzZtmI",
    "name": "小窗口早午餐",
    "address": "308台灣新竹縣寶山鄉大雅路二段116號",
    "region": "hsinchu_city",
    "latitude": 24.755704800000004,
    "longitude": 121.00671200000001,
    "orderLinks": [],
    "rating": 4.5,
    "phone": null
  },
  {
    "id": "ChIJx7T--fpJaDQRs631DZePThU",
    "name": "早餐屋",
    "address": "308台灣新竹縣寶山鄉雙園一街1號",
    "region": "hsinchu_city",
    "latitude": 24.7666936,
    "longitude": 120.9966164,
    "orderLinks": [],
    "rating": 4,
    "phone": "03 529 6663"
  },
  {
    "id": "ChIJscQdTQBJaDQRNrDgLZMFMDU",
    "name": "葫蘆肚小吃",
    "address": "308台灣新竹縣寶山鄉雙溪村",
    "region": "hsinchu_city",
    "latitude": 24.7665915,
    "longitude": 120.9961431,
    "orderLinks": [],
    "rating": 4.7,
    "phone": "0910 156 149"
  },
  {
    "id": "ChIJ2eh5m7BJaDQRApvMigp00PM",
    "name": "雅吉檳榔(北海烤魚)",
    "address": "308台灣新竹縣寶山鄉大雅路二段100號",
    "region": "hsinchu_city",
    "latitude": 24.755268599999997,
    "longitude": 121.00711,
    "orderLinks": [],
    "rating": null,
    "phone": null
  },
  {
    "id": "ChIJiVamFQNJaDQRaUdviAs85pI",
    "name": "虎呷虎煨 寶山店",
    "address": "308台灣新竹縣寶山鄉大雅路二段100-3號",
    "region": "hsinchu_city",
    "latitude": 24.7551165,
    "longitude": 121.00738769999998,
    "orderLinks": [],
    "rating": 5,
    "phone": null
  },
  {
    "id": "ChIJe-v6PQBJaDQR3r4L7-_5k18",
    "name": "寶雅烤鴨車",
    "address": "308台灣新竹縣寶山鄉大雅路二段116號",
    "region": "hsinchu_city",
    "latitude": 24.755704800000004,
    "longitude": 121.00671200000001,
    "orderLinks": [],
    "rating": 2.5,
    "phone": null
  },
  {
    "id": "ChIJoSBO4OdJaDQRB_woZqO3l8s",
    "name": "范店休息站",
    "address": "308台灣新竹縣寶山鄉大崎一路3巷17號",
    "region": "hsinchu_county",
    "latitude": 24.7656088,
    "longitude": 121.0149739,
    "orderLinks": [],
    "rating": 4.4,
    "phone": "0907 276 321"
  },
  {
    "id": "ChIJEzzSE0RJaDQRb5btlJQojMI",
    "name": "麥當勞-新竹台積電餐廳",
    "address": "308台灣新竹縣寶山鄉科環路168號12P8商場",
    "region": "hsinchu_city",
    "latitude": 24.766632599999998,
    "longitude": 121.009722,
    "orderLinks": [
      {
        "id": "ae8f257a-433d-445f-8499-ab0affe61476",
        "platform": "官網",
        "url": "https://www.mcdonalds.com/tw/zh-tw.html"
      }
    ],
    "rating": 4.9,
    "phone": "03 567 8036"
  },
  {
    "id": "ChIJLUnIPOJJaDQRnxNDvYXdUpw",
    "name": "晨馨早午餐",
    "address": "308台灣新竹縣寶山鄉大崎一路61-49號",
    "region": "hsinchu_county",
    "latitude": 24.7646026,
    "longitude": 121.01402039999999,
    "orderLinks": [
      {
        "id": "9089928b-0d0b-4a03-98a0-3e1fb93a7acb",
        "platform": "官網",
        "url": "https://www.facebook.com/%E6%99%A8%E9%A6%A8%E6%97%A9%E5%8D%88%E9%A4%90-108059944237594/"
      }
    ],
    "rating": 4.5,
    "phone": "0972 868 938"
  },
  {
    "id": "ChIJVYUUwOdJaDQRnDtrIKkNcjU",
    "name": "阿凸食堂",
    "address": "150台灣新竹县宝山乡科环路308巷",
    "region": "hsinchu_city",
    "latitude": 24.763192699999998,
    "longitude": 121.00901669999999,
    "orderLinks": [],
    "rating": 5,
    "phone": null
  },
  {
    "id": "ChIJh0PeZrdJaDQRNBk0r-BU-7E",
    "name": "星巴克 台積電RD門市",
    "address": "308台灣新竹縣寶山鄉科環路168號",
    "region": "hsinchu_city",
    "latitude": 24.765475700000003,
    "longitude": 121.0086577,
    "orderLinks": [],
    "rating": 1,
    "phone": "03 578 5394"
  },
  {
    "id": "ChIJ_-KOQClJaDQRimq2gEkDXk8",
    "name": "體力加油站",
    "address": "308台灣新竹縣寶山鄉園區二路360號",
    "region": "hsinchu_county",
    "latitude": 24.762494699999998,
    "longitude": 121.0185544,
    "orderLinks": [],
    "rating": 4,
    "phone": null
  },
  {
    "id": "ChIJ17HXJjZJaDQRXAOm3Q1B138",
    "name": "金甜燒酒雞",
    "address": "308台灣新竹縣寶山鄉園區二路358號",
    "region": "hsinchu_county",
    "latitude": 24.7624027,
    "longitude": 121.01848070000001,
    "orderLinks": [],
    "rating": 4.3,
    "phone": "03 579 4001"
  },
  {
    "id": "ChIJQ6QGx-tJaDQRtdc7sQtqWA4",
    "name": "貨櫃屋檳榔站",
    "address": "308台灣新竹縣寶山鄉大崎一路3巷18號",
    "region": "hsinchu_county",
    "latitude": 24.7655103,
    "longitude": 121.0148925,
    "orderLinks": [],
    "rating": null,
    "phone": "0985 399 609"
  },
  {
    "id": "ChIJWTueFABJaDQRpYkdb_E7Ccw",
    "name": "文湯武醬台積電P8店",
    "address": "308台灣新竹縣寶山鄉科環路168號",
    "region": "hsinchu_county",
    "latitude": 24.7671057,
    "longitude": 121.01043670000001,
    "orderLinks": [],
    "rating": 4.5,
    "phone": null
  },
  {
    "id": "ChIJIRlcwmxJaDQRxIfpuD4N2Lk",
    "name": "7-ELEVEN 聯發E門市",
    "address": "300台灣新竹市東區篤行路5號",
    "region": "hsinchu_county",
    "latitude": 24.767462,
    "longitude": 121.02154699999998,
    "orderLinks": [
      {
        "id": "fd2b6fa8-1b3a-4c22-9cb4-ab6ac051e127",
        "platform": "官網",
        "url": "https://www.7-11.com.tw/"
      }
    ],
    "rating": 4,
    "phone": "03 579 5231"
  },
  {
    "id": "ChIJ-d6kKwBJaDQReAs-oeZHm1E",
    "name": "聯發科E棟咖啡店",
    "address": "300台灣新竹市東區篤行路5號",
    "region": "hsinchu_county",
    "latitude": 24.7672942,
    "longitude": 121.02171729999999,
    "orderLinks": [],
    "rating": 4.1,
    "phone": null
  },
  {
    "id": "ChIJnUlfCABJaDQR-nBrrajQWqE",
    "name": "銍食堂",
    "address": "300台灣新竹市東區篤行路5號",
    "region": "hsinchu_county",
    "latitude": 24.767462,
    "longitude": 121.02154699999998,
    "orderLinks": [
      {
        "id": "465b8ce9-f93c-44a7-93d2-92a63afcf4c7",
        "platform": "官網",
        "url": "https://www.facebook.com/profile.php?id=61560500077835"
      }
    ],
    "rating": 3.7,
    "phone": "0913 672 730"
  },
  {
    "id": "ChIJJSJAEgBJaDQRmr3Qgvg5jS0",
    "name": "聯發科E棟餐廳",
    "address": "300台灣新竹市東區篤行路5號",
    "region": "hsinchu_county",
    "latitude": 24.7671961,
    "longitude": 121.02164459999997,
    "orderLinks": [],
    "rating": null,
    "phone": null
  },
  {
    "id": "ChIJ_UuPwHE2aDQRf8gcUdOnB_8",
    "name": "鴻金食堂",
    "address": "310台灣新竹縣竹東鎮柯湖路三段312號",
    "region": "hsinchu_county",
    "latitude": 24.7599387,
    "longitude": 121.0361193,
    "orderLinks": [
      {
        "id": "80111baf-f439-432b-96fa-b34b3503a366",
        "platform": "官網",
        "url": "https://www.facebook.com/HongJinShiTang/"
      }
    ],
    "rating": 4.3,
    "phone": "03 571 8181"
  },
  {
    "id": "ChIJV-R_VwBJaDQRy47OlUNEtDI",
    "name": "福埕煎餃",
    "address": "310台灣新竹縣竹東鎮柯湖路三段291號",
    "region": "hsinchu_county",
    "latitude": 24.759878099999998,
    "longitude": 121.0373919,
    "orderLinks": [],
    "rating": null,
    "phone": "0933 266 567"
  },
  {
    "id": "ChIJOeW9UmFJaDQRa59OWSlqnV4",
    "name": "科之湖農莊",
    "address": "310台灣新竹縣竹東鎮雲南路377巷2號",
    "region": "hsinchu_county",
    "latitude": 24.761846,
    "longitude": 121.04345909999999,
    "orderLinks": [],
    "rating": 4.5,
    "phone": "03 582 0681"
  },
  {
    "id": "ChIJC_sYbwRJaDQRRNjGK2RSUP4",
    "name": "新竹樹屋",
    "address": "310台灣新竹縣竹東鎮學府東路315巷56號",
    "region": "hsinchu_county",
    "latitude": 24.756287399999998,
    "longitude": 121.0568637,
    "orderLinks": [],
    "rating": 5,
    "phone": "0960 812 014"
  },
  {
    "id": "ChIJYbWOAgBLaDQRaPdu7F7JrlQ",
    "name": "鮮境壹號飯麵食堂（雲端廚房）",
    "address": "300台灣新竹市香山區中華路五段648巷72弄1號",
    "region": "hsinchu_city",
    "latitude": 24.7677409,
    "longitude": 120.9140117,
    "orderLinks": [
      {
        "id": "4bad649f-3393-4f38-84c7-15470221b6cd",
        "platform": "官網",
        "url": "https://lin.ee/1hxjT6X"
      }
    ],
    "rating": 4.9,
    "phone": "0936 272 152"
  },
  {
    "id": "ChIJqSnQUb5KaDQR3pf0thJlVE4",
    "name": "竹塹林記",
    "address": "56號, No. 56中華路五段420巷香山區新竹市台灣 300",
    "region": "hsinchu_city",
    "latitude": 24.7754107,
    "longitude": 120.91664109999998,
    "orderLinks": [
      {
        "id": "86a807e1-84ae-4d90-a0e6-6efbee8e92ef",
        "platform": "官網",
        "url": "https://www.facebook.com/Linji1993"
      }
    ],
    "rating": 4.3,
    "phone": "03 539 9539"
  },
  {
    "id": "ChIJQUc-PDhLaDQRdzGzqT3Z5_Q",
    "name": "心山豆咖啡",
    "address": "300台灣新竹市香山區中華路五段522巷23號",
    "region": "hsinchu_city",
    "latitude": 24.773388399999998,
    "longitude": 120.91658389999999,
    "orderLinks": [
      {
        "id": "a3ec30e3-d763-4179-bfb5-07358253cc43",
        "platform": "官網",
        "url": "https://www.instagram.com/hsinshandou_cafe/"
      }
    ],
    "rating": 4.8,
    "phone": "03 530 9779"
  },
  {
    "id": "ChIJD78ATytLaDQRH6MMcakyAzQ",
    "name": "ㄚ呆早餐坊(雲端早餐)",
    "address": "300台灣新竹市香山區中華路五段648巷72弄1號",
    "region": "hsinchu_city",
    "latitude": 24.7677631,
    "longitude": 120.91404109999998,
    "orderLinks": [
      {
        "id": "afb99231-5cb5-4415-b4d2-15634c03d6c0",
        "platform": "官網",
        "url": "https://lin.ee/nLZPH6qq"
      }
    ],
    "rating": 5,
    "phone": "0918 068 096"
  },
  {
    "id": "ChIJ5Z31B79KaDQRnO1Qb9EtZhg",
    "name": "香山水耕休閒農場觀海亭咖啡",
    "address": "300台灣新竹市香山區中華路五段420巷56號",
    "region": "hsinchu_city",
    "latitude": 24.7754725,
    "longitude": 120.9166295,
    "orderLinks": [],
    "rating": 4.3,
    "phone": "0910 171 645"
  },
  {
    "id": "ChIJx7eruIlKaDQRmywwulvhHxU",
    "name": "雲來社會教育研習中心",
    "address": "300台灣新竹市香山區玄奘路48號",
    "region": "hsinchu_city",
    "latitude": 24.773598900000003,
    "longitude": 120.94008149999999,
    "orderLinks": [
      {
        "id": "c62d7e14-475e-43b7-a135-5dd4c7eb41f8",
        "platform": "官網",
        "url": "https://www.facebook.com/yunlai1051/"
      }
    ],
    "rating": 4.6,
    "phone": "0932 789 656"
  },
  {
    "id": "ChIJ1fw9dexLaDQRGpNfkDxpQKA",
    "name": "果腹之家 元培玄奘店",
    "address": "300台灣新竹市香山區元培街381號",
    "region": "hsinchu_city",
    "latitude": 24.776370900000003,
    "longitude": 120.9438149,
    "orderLinks": [
      {
        "id": "98c37579-f330-4127-a580-1c424d2ec451",
        "platform": "官網",
        "url": "https://www.facebook.com/%E6%9E%9C%E8%85%B9%E4%B9%8B%E5%AE%B6-%E5%85%83%E5%9F%B9%E7%8E%84%E5%A5%98%E5%BA%97-164390700909280/"
      }
    ],
    "rating": 4,
    "phone": "0936 594 032"
  },
  {
    "id": "ChIJv-apSS5LaDQRFkRhAuGcstA",
    "name": "生活廣場",
    "address": "300台灣新竹市香山區玄奘路48號玄奘大學",
    "region": "hsinchu_city",
    "latitude": 24.7738762,
    "longitude": 120.94086449999998,
    "orderLinks": [],
    "rating": 4,
    "phone": "03 530 2255"
  },
  {
    "id": "ChIJv_Fn8YdLaDQRzCmx5sXsqZY",
    "name": "林媽媽小吃",
    "address": "300台灣新竹市香山區獅頭橋",
    "region": "hsinchu_city",
    "latitude": 24.7760863,
    "longitude": 120.9436758,
    "orderLinks": [],
    "rating": 3.9,
    "phone": "03 539 6150"
  },
  {
    "id": "ChIJpQGTC-hLaDQRCQflWxjztbE",
    "name": "陸柒零年代飲品創始店 - 香山玄大分行",
    "address": "300台灣新竹市香山區玄奘路48號圖書資訊大樓1樓",
    "region": "hsinchu_city",
    "latitude": 24.7743848,
    "longitude": 120.94336030000001,
    "orderLinks": [
      {
        "id": "632ae328-f2fa-44a5-87d0-324b1a781d25",
        "platform": "官網",
        "url": "http://www.670liuchilling.com/"
      }
    ],
    "rating": 5,
    "phone": "03 530 2255#5246"
  },
  {
    "id": "ChIJGa8P0mJKaDQRedxzq2qsiZk",
    "name": "三多餐點店",
    "address": "300台灣新竹市香山區元培街383號",
    "region": "hsinchu_city",
    "latitude": 24.7765208,
    "longitude": 120.94391499999999,
    "orderLinks": [],
    "rating": 4.5,
    "phone": "0970 912 348"
  },
  {
    "id": "ChIJAY-XLQBLaDQRomMZLSWypQE",
    "name": "阿姨斜坡早餐店",
    "address": "300台灣新竹市香山區芝柏一街7號",
    "region": "hsinchu_city",
    "latitude": 24.776201,
    "longitude": 120.9456668,
    "orderLinks": [],
    "rating": 5,
    "phone": "03 539 8220"
  },
  {
    "id": "ChIJmXFqOgBLaDQRvklnYjw8-ng",
    "name": "斜坡早餐店",
    "address": "No. 9, 芝柏一街香山區新竹市台灣 300",
    "region": "hsinchu_city",
    "latitude": 24.776225999999998,
    "longitude": 120.9457133,
    "orderLinks": [],
    "rating": 4.5,
    "phone": null
  },
  {
    "id": "ChIJnVpfy0pLaDQRz2qADUPiOTQ",
    "name": "歐莫簡餐 蜜辛烤雞腿",
    "address": "300台灣新竹市香山區香檳三街36號",
    "region": "hsinchu_city",
    "latitude": 24.7764286,
    "longitude": 120.9488495,
    "orderLinks": [],
    "rating": 5,
    "phone": "0906 668 057"
  },
  {
    "id": "ChIJxWEsWwBLaDQRtM0vYCCEwaM",
    "name": "量子電養生學苑 Quantum Health Care Academy",
    "address": "300台灣新竹市香山區香檳一街12號",
    "region": "hsinchu_city",
    "latitude": 24.776593,
    "longitude": 120.9505142,
    "orderLinks": [
      {
        "id": "892b162e-8a18-4db9-bf25-4d0ab6562086",
        "platform": "官網",
        "url": "https://www.instagram.com/quantumhealthcareacademy?igsh=NnUxYTVnY2xwMjJv&utm_source=qr"
      }
    ],
    "rating": null,
    "phone": "0987 246 585"
  },
  {
    "id": "ChIJCwS5bw1KaDQRDMgvDsZ435Q",
    "name": "轉角726, 手工咖啡",
    "address": "300台灣新竹市東區明湖路726號",
    "region": "hsinchu_city",
    "latitude": 24.7722896,
    "longitude": 120.96669779999998,
    "orderLinks": [
      {
        "id": "4811efd6-1963-4aca-afa8-e6e1bf919515",
        "platform": "官網",
        "url": "https://www.facebook.com/726cape"
      }
    ],
    "rating": 4.5,
    "phone": "03 520 1560"
  },
  {
    "id": "ChIJmcSTyw9LaDQRQRVXgzFHSG8",
    "name": "上野村日式燒肉專門店",
    "address": "300台灣新竹市東區藝術路19號",
    "region": "hsinchu_city",
    "latitude": 24.7691408,
    "longitude": 120.9675225,
    "orderLinks": [
      {
        "id": "c3488d08-7722-4ea3-ad98-bbbe0ced6947",
        "platform": "官網",
        "url": "https://www.instagram.com/shang_yecun/"
      }
    ],
    "rating": 4.8,
    "phone": "03 520 0081"
  },
  {
    "id": "ChIJOdMX-QxKaDQRoYezdSvDHx4",
    "name": "JR咖啡食尚館",
    "address": "300台灣新竹市東區明湖路775巷28號",
    "region": "hsinchu_city",
    "latitude": 24.774422400000002,
    "longitude": 120.96739739999998,
    "orderLinks": [
      {
        "id": "7bd28040-4214-4c7a-86c3-1c938cd866b0",
        "platform": "官網",
        "url": "https://www.facebook.com/p/JR-%E5%92%96%E5%95%A1%E9%A3%9F%E5%B0%9A%E9%A4%A8-100063703187787/?locale=zh_TW"
      }
    ],
    "rating": 4.1,
    "phone": "03 529 3456"
  },
  {
    "id": "ChIJ9Z3qEA1KaDQRHvxLUq1-K9o",
    "name": "福星手創料理餐廳",
    "address": "300台灣新竹市東區明湖路977-1號",
    "region": "hsinchu_city",
    "latitude": 24.7733714,
    "longitude": 120.96660499999999,
    "orderLinks": [
      {
        "id": "063cd425-7601-4166-a27b-aa46e31cfbf7",
        "platform": "官網",
        "url": "https://m.facebook.com/%E7%A6%8F%E6%98%9F%E6%89%8B%E5%89%B5%E6%96%99%E7%90%86-2125625167671650/"
      }
    ],
    "rating": 4.5,
    "phone": "03 520 7999"
  },
  {
    "id": "ChIJhShfBwBLaDQRN2b5W2fAs-A",
    "name": "藝繪咖啡Color Café",
    "address": "300台灣新竹市東區藝術路35號",
    "region": "hsinchu_city",
    "latitude": 24.7688778,
    "longitude": 120.9672889,
    "orderLinks": [
      {
        "id": "02297438-6e5a-45f8-8fa5-6b1b2fcc6619",
        "platform": "inline",
        "url": "https://inline.app/booking/-NwwykrZgFS2d03iaQg_:inline-live-3/-Nwwyl3Sgf55BfgOnaN-"
      }
    ],
    "rating": 4.8,
    "phone": "03 520 0503"
  },
  {
    "id": "ChIJ_y2jay9LaDQR58XcOEuXgtA",
    "name": "百味釜精緻鍋物",
    "address": "300台灣新竹市東區明湖路959號",
    "region": "hsinchu_city",
    "latitude": 24.7740673,
    "longitude": 120.966885,
    "orderLinks": [
      {
        "id": "0e1d8d46-2992-439a-ba37-2853fc34d728",
        "platform": "官網",
        "url": "https://www.facebook.com/%E7%99%BE%E5%91%B3%E9%87%9C%E7%B2%BE%E7%B7%BB%E9%8D%8B%E7%89%A9-2068271323439587/"
      }
    ],
    "rating": 4.4,
    "phone": "03 520 4179"
  },
  {
    "id": "ChIJIV9iWYpLaDQRGonKv-Qg2tQ",
    "name": "柴橋早午餐麵店",
    "address": "300台灣新竹市東區明湖路676-3號",
    "region": "hsinchu_city",
    "latitude": 24.7733754,
    "longitude": 120.96631660000001,
    "orderLinks": [],
    "rating": 4.5,
    "phone": "03 520 2129"
  },
  {
    "id": "ChIJydtQJwBLaDQRl1zyIvE2Iss",
    "name": "七藝鍋-親子寵物友善餐廳",
    "address": "300台灣新竹市東區藝術路29號",
    "region": "hsinchu_city",
    "latitude": 24.7692062,
    "longitude": 120.96751199999999,
    "orderLinks": [
      {
        "id": "7e0466b7-6a3d-4f1f-b70b-6e979f794a92",
        "platform": "官網",
        "url": "https://www.facebook.com/profile.php?id=61566853659631"
      }
    ],
    "rating": 5,
    "phone": "0939 161 794"
  },
  {
    "id": "ChIJLXN5aQ1KaDQRgj7ZbzGZtHM",
    "name": "明湖早餐店",
    "address": "300台灣新竹市東區明湖路712號",
    "region": "hsinchu_city",
    "latitude": 24.7725792,
    "longitude": 120.96624409999998,
    "orderLinks": [],
    "rating": 3.5,
    "phone": "03 519 1552"
  },
  {
    "id": "ChIJs2mduLFLaDQRsLVrQK8m8ok",
    "name": "香雞排",
    "address": "300台灣新竹市東區117縣道646號300台灣新竹市東區",
    "region": "hsinchu_city",
    "latitude": 24.7749705,
    "longitude": 120.9669352,
    "orderLinks": [],
    "rating": 3.8,
    "phone": "0910 156 233"
  },
  {
    "id": "ChIJG16Cag1KaDQRSfZ2AAIk1xA",
    "name": "品香自助餐",
    "address": "300台灣新竹市東區明湖路706號",
    "region": "hsinchu_city",
    "latitude": 24.7729149,
    "longitude": 120.96609839999999,
    "orderLinks": [],
    "rating": 2.6,
    "phone": "03 520 1622"
  },
  {
    "id": "ChIJlcw_GJhLaDQRQgApzWvyCE8",
    "name": "享想 Enmagine",
    "address": "300114台灣新竹市東區藝術路23號",
    "region": "hsinchu_city",
    "latitude": 24.7689347,
    "longitude": 120.9678052,
    "orderLinks": [
      {
        "id": "9a3977c8-d2af-4f17-bb02-1d12c473e348",
        "platform": "官網",
        "url": "https://www.instagram.com/enjoy.imagine"
      }
    ],
    "rating": 5,
    "phone": "0928 272 033"
  },
  {
    "id": "ChIJTyy4m2RLaDQR1TpoA98fucQ",
    "name": "上野庵 旬彩壽喜燒-新竹首間套餐式壽喜燒｜儀式感壽喜燒｜新開幕｜試營運",
    "address": "300台灣新竹市東區藝術路15號",
    "region": "hsinchu_city",
    "latitude": 24.7692282,
    "longitude": 120.96738579999997,
    "orderLinks": [
      {
        "id": "3f358570-6a98-4736-84b9-2d0924669763",
        "platform": "官網",
        "url": "https://www.instagram.com/shangye_an/"
      }
    ],
    "rating": 4.6,
    "phone": "03 520 0097"
  },
  {
    "id": "ChIJDxjEDABLaDQRA8KwfUBW8o4",
    "name": "純手工製作飯糰",
    "address": "300台灣新竹市東區明湖路676號",
    "region": "hsinchu_city",
    "latitude": 24.7735204,
    "longitude": 120.96635619999999,
    "orderLinks": [],
    "rating": 5,
    "phone": null
  },
  {
    "id": "ChIJBVJtYAxKaDQRB57s0O-WY28",
    "name": "莫內饗宴",
    "address": "300台灣新竹市東區明湖路773號1樓",
    "region": "hsinchu_city",
    "latitude": 24.775314599999998,
    "longitude": 120.9678385,
    "orderLinks": [
      {
        "id": "d9f545bc-529e-4861-855b-4953897a655f",
        "platform": "官網",
        "url": "https://hsinchu.lakeshore.com.tw/dining/western-restaurant"
      }
    ],
    "rating": 4.1,
    "phone": "03 611 6270"
  },
  {
    "id": "ChIJYwWXlAhKaDQRQ8h2GpojP2k",
    "name": "101高山頂景觀莊園（風谷農場）",
    "address": "300台灣新竹市東區明湖路775巷51-3號",
    "region": "hsinchu_city",
    "latitude": 24.776348499999997,
    "longitude": 120.975101,
    "orderLinks": [
      {
        "id": "f567b647-32ab-4cb4-9f42-fe406872c904",
        "platform": "官網",
        "url": "https://www.101farm.com.tw/"
      }
    ],
    "rating": 4.2,
    "phone": "03 529 3101"
  },
  {
    "id": "ChIJJfb1gAtKaDQRZ-klzMtcXYs",
    "name": "藝軒私房料理",
    "address": "300台灣新竹市東區明湖路683號",
    "region": "hsinchu_city",
    "latitude": 24.776815199999998,
    "longitude": 120.96761199999997,
    "orderLinks": [
      {
        "id": "a6ac3e4f-dcc3-41a8-b012-503bfa4a5a69",
        "platform": "官網",
        "url": "https://www.facebook.com/%E8%97%9D%E8%BB%92%E7%A7%81%E6%88%BF%E6%96%99%E7%90%86-417016121982203/"
      }
    ],
    "rating": 4.7,
    "phone": "03 529 3899"
  },
  {
    "id": "ChIJG1JtYAxKaDQRLZPBHlsBA7Q",
    "name": "煙波大飯店中餐廳-4/13起以「滿月樓」新品牌隆重開幕",
    "address": "300台灣新竹市東區明湖路773號",
    "region": "hsinchu_city",
    "latitude": 24.774831199999998,
    "longitude": 120.9683189,
    "orderLinks": [
      {
        "id": "878c86fe-f520-491b-a872-8ce398be8b7f",
        "platform": "官網",
        "url": "https://web.lakeshore.com.tw/eventpage/chinese-restaurant/index.html?utm_source=gmb&utm_medium=referral&utm_campaign=google-short&utm_content=chn.rest.eventpage"
      }
    ],
    "rating": 4.6,
    "phone": "03 520 3188#2200"
  },
  {
    "id": "ChIJ9eEkfwtKaDQRMcu7X_DvjYk",
    "name": "老炭-炭火料理（22:30最後點餐時間）",
    "address": "300台灣新竹市東區明湖路675號",
    "region": "hsinchu_city",
    "latitude": 24.777130000000003,
    "longitude": 120.967625,
    "orderLinks": [],
    "rating": 4.5,
    "phone": "0933 776 361"
  },
  {
    "id": "ChIJBVJtYAxKaDQRFvqbZNYKLMI",
    "name": "蝶屋日式餐廳",
    "address": "300台灣新竹市東區明湖路773號",
    "region": "hsinchu_city",
    "latitude": 24.7753864,
    "longitude": 120.9677758,
    "orderLinks": [
      {
        "id": "30f95f16-1281-40ed-978b-e8580009dc7f",
        "platform": "官網",
        "url": "https://hsinchu.lakeshore.com.tw/dining/choya"
      }
    ],
    "rating": 3.6,
    "phone": "03 520 3188#5141"
  },
  {
    "id": "ChIJBVJtYAxKaDQRv3qUMVIPvRM",
    "name": "陽光小館",
    "address": "300台灣新竹市東區明湖路773號",
    "region": "hsinchu_city",
    "latitude": 24.7750217,
    "longitude": 120.9675246,
    "orderLinks": [
      {
        "id": "8bac820f-f56f-4f64-ac35-9e5cd207621b",
        "platform": "官網",
        "url": "https://hsinchu.lakeshore.com.tw/dining/lucino-bar/?utm_source=GMB&utm_medium=referral&utm_campaign=&utm_content=lucino-bar"
      }
    ],
    "rating": 4.3,
    "phone": "03 520 3188#5139"
  },
  {
    "id": "ChIJlZHS-pNLaDQR8rA_xMZEgso",
    "name": "金來發快炒小吃",
    "address": "300台灣新竹市東區明湖路608巷2號",
    "region": "hsinchu_city",
    "latitude": 24.776909099999997,
    "longitude": 120.9671944,
    "orderLinks": [],
    "rating": 4.1,
    "phone": "03 520 9968"
  },
  {
    "id": "ChIJNbL19xRLaDQRBT3vHmEvW4k",
    "name": "608巷口小吃",
    "address": "300台灣新竹市東區明湖路608之1號",
    "region": "hsinchu_city",
    "latitude": 24.776972999999998,
    "longitude": 120.96728829999999,
    "orderLinks": [],
    "rating": 4.7,
    "phone": "0929 377 763"
  },
  {
    "id": "ChIJrY43tBpKaDQR8SBpkpNQbMs",
    "name": "美十美早餐坊",
    "address": "300台灣新竹市東區明湖路1010-2號",
    "region": "hsinchu_city",
    "latitude": 24.768799899999998,
    "longitude": 120.977373,
    "orderLinks": [
      {
        "id": "1cd6a337-5196-438b-a554-a9d8afb884d0",
        "platform": "官網",
        "url": "https://m.facebook.com/lynnfy/"
      }
    ],
    "rating": 4.2,
    "phone": "0966 411 858"
  },
  {
    "id": "ChIJlyob0xc3aDQR61rgFrg_pnw",
    "name": "(3/14～4/5公休 )野夫手作義式披薩(用餐請預約訂位)",
    "address": "308台灣新竹縣寶山鄉雙園路二段182巷55號",
    "region": "hsinchu_city",
    "latitude": 24.7690982,
    "longitude": 120.99448260000001,
    "orderLinks": [
      {
        "id": "9a382a11-e1a5-4b59-baf2-bd6d46301efa",
        "platform": "官網",
        "url": "https://www.facebook.com/savagehouse0857/"
      }
    ],
    "rating": 4.8,
    "phone": "0978 651 732"
  },
  {
    "id": "ChIJl6JrUf5JaDQRGF2HXgwR8Ws",
    "name": "STARBUCKS 星巴克 (園區門市)不對外開放",
    "address": "300台灣新竹縣寶山鄉研新一路9號",
    "region": "hsinchu_city",
    "latitude": 24.7752198,
    "longitude": 120.9902335,
    "orderLinks": [
      {
        "id": "c3ee5308-3a70-49c9-9b24-3966bf81679b",
        "platform": "官網",
        "url": "https://www.starbucks.com.tw/stores/storesearch.jspx?fetchStore=storehours"
      }
    ],
    "rating": 3.3,
    "phone": "03 666 2818"
  },
  {
    "id": "ChIJt7OF_MNJaDQRUHdp8Z-DNAg",
    "name": "一衖麵",
    "address": "308台灣新竹縣寶山鄉雙園路一段2巷18弄1衖3號",
    "region": "hsinchu_city",
    "latitude": 24.7708534,
    "longitude": 121.0044382,
    "orderLinks": [],
    "rating": 4.4,
    "phone": "0963 518 036"
  },
  {
    "id": "ChIJWy4n6PlJaDQRIJWXs9yU_lM",
    "name": "新寶早餐店 水煎包專賣 - 寶山店",
    "address": "308台灣新竹縣寶山鄉雙園路一段2巷11號",
    "region": "hsinchu_city",
    "latitude": 24.7706837,
    "longitude": 121.00498320000001,
    "orderLinks": [
      {
        "id": "4f5048d7-bab5-451f-8faa-bce704869b84",
        "platform": "官網",
        "url": "https://www.facebook.com/Xinbao2/"
      }
    ],
    "rating": 3.9,
    "phone": "03 666 9886"
  },
  {
    "id": "ChIJJ8EnqxE3aDQRqCqdVHfpaIU",
    "name": "雙饗丼、鐵板饄竹科店",
    "address": "308台灣新竹縣寶山鄉雙園路一段2巷2號",
    "region": "hsinchu_city",
    "latitude": 24.770774199999998,
    "longitude": 121.00535359999999,
    "orderLinks": [],
    "rating": 3.5,
    "phone": "0920 615 999"
  },
  {
    "id": "ChIJxZF9PtBJaDQRjmmMNDSsSoU",
    "name": "Ks’ house",
    "address": "308台灣新竹縣寶山鄉雙園路二段182巷39號",
    "region": "hsinchu_city",
    "latitude": 24.7686673,
    "longitude": 120.99461380000001,
    "orderLinks": [],
    "rating": 4.2,
    "phone": "03 520 1988"
  },
  {
    "id": "ChIJTXBwqQRJaDQR232sM9GkPSQ",
    "name": "STARBUCKS 星巴克 (台積電5門市)",
    "address": "308台灣新竹縣寶山鄉園區三路121號",
    "region": "hsinchu_city",
    "latitude": 24.774071,
    "longitude": 120.9979912,
    "orderLinks": [
      {
        "id": "49742122-5eb4-4751-8c06-f013414228fb",
        "platform": "官網",
        "url": "https://www.starbucks.com.tw/"
      }
    ],
    "rating": 2.7,
    "phone": "03 578 4754"
  },
  {
    "id": "ChIJSfCPlxFJaDQR-REuB6Z71-8",
    "name": "台灣光罩員工餐廳",
    "address": "308台灣新竹縣寶山鄉創新一路11號",
    "region": "hsinchu_city",
    "latitude": 24.774883,
    "longitude": 120.998159,
    "orderLinks": [],
    "rating": 4,
    "phone": null
  },
  {
    "id": "ChIJ1X4zcohJaDQRxk4cVJ_9atQ",
    "name": "豬太郎炸物",
    "address": "308台灣新竹縣寶山鄉雙園路二段295號",
    "region": "hsinchu_city",
    "latitude": 24.7663394,
    "longitude": 120.99226789999999,
    "orderLinks": [],
    "rating": 4.2,
    "phone": "0935 246 631"
  },
  {
    "id": "ChIJQ84S2PlJaDQR74h5ScrqhfY",
    "name": "美天美漢堡專賣店",
    "address": "308台灣新竹縣寶山鄉雙園路二段282號",
    "region": "hsinchu_city",
    "latitude": 24.765968899999997,
    "longitude": 120.99140560000001,
    "orderLinks": [],
    "rating": 4.3,
    "phone": "03 520 1008"
  },
  {
    "id": "ChIJHTMaW_lJaDQR_PKVt3y73Ak",
    "name": "客製化便當（雙園商行）",
    "address": "308台灣新竹縣寶山鄉雙園路—段二巷17弄9號",
    "region": "hsinchu_city",
    "latitude": 24.7701875,
    "longitude": 121.00524349999999,
    "orderLinks": [],
    "rating": 5,
    "phone": null
  },
  {
    "id": "ChIJc4vgd_dJaDQRtPIMhihJy8w",
    "name": "美十美漢堡店",
    "address": "308台灣新竹縣寶山鄉雙園路二段329號",
    "region": "hsinchu_city",
    "latitude": 24.7653246,
    "longitude": 120.99051229999999,
    "orderLinks": [],
    "rating": 4,
    "phone": "03 520 4615"
  },
  {
    "id": "ChIJwR1F2QtJaDQRM7fhvh19rkw",
    "name": "米啡思咖啡",
    "address": "308台灣新竹縣寶山鄉雙園路一段2巷38號",
    "region": "hsinchu_city",
    "latitude": 24.7707445,
    "longitude": 121.00397660000002,
    "orderLinks": [],
    "rating": 1,
    "phone": "0927 583 272"
  },
  {
    "id": "ChIJP6z1Ng43aDQRx_1cEl3SuC4",
    "name": "米諾瓦咖啡1f/10f",
    "address": "308台灣新竹縣寶山鄉雙溪村",
    "region": "hsinchu_city",
    "latitude": 24.7775218,
    "longitude": 120.99682649999998,
    "orderLinks": [],
    "rating": 4.5,
    "phone": "03 563 9977#6017"
  },
  {
    "id": "ChIJC0bNGQBJaDQRMa-ipaX5sQo",
    "name": "中式早餐店",
    "address": "308台灣新竹縣寶山鄉雙園路一段2巷55號",
    "region": "hsinchu_city",
    "latitude": 24.770580799999998,
    "longitude": 121.00394329999999,
    "orderLinks": [],
    "rating": null,
    "phone": null
  },
  {
    "id": "ChIJDf9rUwA3aDQRKfitGxaeOss",
    "name": "聯穎自助餐",
    "address": "308台灣新竹縣寶山鄉創新一路10號",
    "region": "hsinchu_city",
    "latitude": 24.776545000000002,
    "longitude": 120.9979637,
    "orderLinks": [],
    "rating": 2,
    "phone": null
  },
  {
    "id": "ChIJzdKBDABJaDQRTJ4-8cWz8h0",
    "name": "瑞斯飯糰",
    "address": "308台灣新竹縣寶山鄉雙園路二段331號",
    "region": "hsinchu_city",
    "latitude": 24.7653078,
    "longitude": 120.99053869999999,
    "orderLinks": [],
    "rating": 2.8,
    "phone": "03 529 0189"
  },
  {
    "id": "ChIJfVC5Hd9JaDQRBE8Yq5ojKc8",
    "name": "STARBUCKS 星巴克 (台積電12P7門市)",
    "address": "300台灣新竹市東區園區二路188號",
    "region": "hsinchu_county",
    "latitude": 24.7686179,
    "longitude": 121.01403589999998,
    "orderLinks": [
      {
        "id": "7318dfac-758a-40d4-975d-8922bcd72016",
        "platform": "官網",
        "url": "http://www.starbucks.com.tw/"
      }
    ],
    "rating": 4.4,
    "phone": "03 567 9372"
  },
  {
    "id": "ChIJdeZq7iA2aDQRXXKUnaUNywI",
    "name": "STARBUCKS 星巴克 (台積電門市)",
    "address": "300台灣新竹市东区力行六路8號4樓",
    "region": "hsinchu_county",
    "latitude": 24.773043299999998,
    "longitude": 121.0128003,
    "orderLinks": [
      {
        "id": "3ba33416-104b-4f38-88c3-050dcf71ca2f",
        "platform": "官網",
        "url": "http://www.starbucks.com.tw/"
      }
    ],
    "rating": 4,
    "phone": "03 567 0925"
  },
  {
    "id": "ChIJB0J_aAM2aDQRl2AO9lGZ1qw",
    "name": "Starbucks 星巴克 (台積電P4門市)",
    "address": "300台灣新竹市東區園區二路168號",
    "region": "hsinchu_county",
    "latitude": 24.7702526,
    "longitude": 121.013324,
    "orderLinks": [
      {
        "id": "f0f90fb1-ac48-4fe5-a98b-28dfe98cb02b",
        "platform": "官網",
        "url": "http://www.starbucks.com.tw/"
      }
    ],
    "rating": 4.1,
    "phone": "03 579 5983"
  },
  {
    "id": "ChIJT3OInnE3aDQRaoK2bk4xQ4w",
    "name": "星巴克 GRC門市",
    "address": "300台灣新竹市東區工業東三路1號",
    "region": "hsinchu_city",
    "latitude": 24.7766722,
    "longitude": 121.007719,
    "orderLinks": [],
    "rating": 4.4,
    "phone": "03 668 7183"
  },
  {
    "id": "ChIJA6Ml4d5JaDQRy9ozwu8P2vY",
    "name": "摩斯漢堡 台積12P7店",
    "address": "300台灣新竹市東區園區二路188號",
    "region": "hsinchu_county",
    "latitude": 24.768255699999997,
    "longitude": 121.0146637,
    "orderLinks": [
      {
        "id": "f8f33216-ddfb-4dbc-9a30-42cc77914648",
        "platform": "官網",
        "url": "http://www.mos.com.tw/"
      }
    ],
    "rating": 3.4,
    "phone": "03 579 8203"
  },
  {
    "id": "ChIJw3yGwes3aDQRTaFMjXmE_8o",
    "name": "米諾瓦咖啡｜Minerva Café 晶豪科門市",
    "address": "300台灣新竹市東區工業東四路23號",
    "region": "hsinchu_city",
    "latitude": 24.774535399999998,
    "longitude": 121.0089575,
    "orderLinks": [
      {
        "id": "9b22f238-3d30-4350-b217-eb0f63c9b965",
        "platform": "官網",
        "url": "http://minerva-cafe.com.tw/"
      }
    ],
    "rating": 4.1,
    "phone": "03 666 8117"
  },
  {
    "id": "ChIJ2xh6Qik3aDQROfKQDZV5dmI",
    "name": "Juice Bear-台積P1店",
    "address": "300台灣新竹市東區力行六路8號",
    "region": "hsinchu_county",
    "latitude": 24.773043299999998,
    "longitude": 121.0128003,
    "orderLinks": [
      {
        "id": "6331187c-74bf-4e0e-94f2-c52286e8613f",
        "platform": "官網",
        "url": "http://www.juicebear.com.tw/"
      }
    ],
    "rating": 4,
    "phone": "03 563 6688"
  },
  {
    "id": "ChIJ1y1hDH43aDQRAUwPhNoSkjQ",
    "name": "歐克法咖啡 unicofa coffee 明泰門市（限服務企業員工）",
    "address": "30078台灣新竹市東區力行七路8號",
    "region": "hsinchu_county",
    "latitude": 24.774606,
    "longitude": 121.0131023,
    "orderLinks": [
      {
        "id": "5b45c780-cfdc-4902-b7f8-cc3a188f46b8",
        "platform": "官網",
        "url": "http://www.unicofacoffee.com/"
      }
    ],
    "rating": 5,
    "phone": "0982 129 705"
  },
  {
    "id": "ChIJWaSJhK43aDQRLCvNjvwl0cE",
    "name": "八方雲集 （友達GRC廠）",
    "address": "300台灣新竹市東區工業東三路1號",
    "region": "hsinchu_city",
    "latitude": 24.7763258,
    "longitude": 121.0081903,
    "orderLinks": [],
    "rating": 2.6,
    "phone": null
  },
  {
    "id": "ChIJ3aNpiiU2aDQRcnil5AnxC8o",
    "name": "Daima 大馬南洋料理",
    "address": "300台灣新竹市東區金山十一街37號",
    "region": "hsinchu_county",
    "latitude": 24.776324199999998,
    "longitude": 121.0217987,
    "orderLinks": [],
    "rating": 4.4,
    "phone": "03 577 2232"
  },
  {
    "id": "ChIJsXz3nDE3aDQRGKNFTr0JK20",
    "name": "墨竹亭 燃麵本家 新竹金山店",
    "address": "30080台灣新竹市東區金山十一街31號",
    "region": "hsinchu_county",
    "latitude": 24.776523100000002,
    "longitude": 121.021821,
    "orderLinks": [
      {
        "id": "4c2189f4-d8e4-4ef9-b709-ae193c0d0bc7",
        "platform": "官網",
        "url": "https://www.mozhuting.com/"
      }
    ],
    "rating": 4.6,
    "phone": "03 666 8811"
  },
  {
    "id": "ChIJbb3kMb43aDQRnsffZLpwGk0",
    "name": "泰速泰式料理 竹科店",
    "address": "300064台灣新竹市東區金山十一街13號",
    "region": "hsinchu_county",
    "latitude": 24.776932499999997,
    "longitude": 121.02182409999999,
    "orderLinks": [
      {
        "id": "40450130-fdfe-4d01-9d6e-fe86201a257a",
        "platform": "肚肚點餐",
        "url": "http://shop.cashier.tw/online/store/d3eece8a-e8e5-4423-9fdf-c4e06e1e8e97/welcome?mode=takeoutNdelivery&welcomeLocale=zh-TW"
      }
    ],
    "rating": 4.6,
    "phone": "03 666 1114"
  },
  {
    "id": "ChIJg-iVfS82aDQRGFdOavabIwE",
    "name": "越南小館",
    "address": "300台灣新竹市東區金山十二街31號",
    "region": "hsinchu_county",
    "latitude": 24.7768132,
    "longitude": 121.02225039999999,
    "orderLinks": [],
    "rating": 4.5,
    "phone": "03 666 1013"
  },
  {
    "id": "ChIJ0Y25K1M3aDQRH6GsGb7rdjo",
    "name": "一悟燒肉 新竹金山店",
    "address": "300台灣新竹市東區金山十街56號",
    "region": "hsinchu_county",
    "latitude": 24.777099,
    "longitude": 121.02117899999999,
    "orderLinks": [
      {
        "id": "aa6d43b8-fc08-423f-b8aa-fb2769bb0b64",
        "platform": "官網",
        "url": "https://www.instagram.com/yiwu_yakiniku/"
      }
    ],
    "rating": 4.7,
    "phone": "03 563 5000"
  },
  {
    "id": "ChIJFwYtdS82aDQROg6My0oOFVc",
    "name": "瓦城泰國料理 - 新竹竹科店",
    "address": "300台灣新竹市東區金山街88號",
    "region": "hsinchu_county",
    "latitude": 24.7772348,
    "longitude": 121.0229569,
    "orderLinks": [
      {
        "id": "82653908-5a56-4271-9098-abccdbb0445d",
        "platform": "官網",
        "url": "http://www.thaitown.com.tw/"
      }
    ],
    "rating": 4.6,
    "phone": "03 563 1226"
  },
  {
    "id": "ChIJ0cmIei82aDQRXIe95P0l7Fc",
    "name": "築地鮮魚 (新竹總舖金山十五街店)",
    "address": "300台灣新竹市東區金山十五街5號1樓",
    "region": "hsinchu_county",
    "latitude": 24.776920099999998,
    "longitude": 121.0231376,
    "orderLinks": [
      {
        "id": "ba7c57ec-de6e-4b35-85f5-c122d70004e1",
        "platform": "官網",
        "url": "https://www.facebook.com/%E7%AF%89%E5%9C%B0%E9%AE%AE%E9%AD%9A%E7%B8%BD%E5%BA%97-%E5%89%B5%E5%A7%8B%E5%BA%97-137278273004273/"
      }
    ],
    "rating": 4,
    "phone": "03 578 0688"
  },
  {
    "id": "ChIJdVTmV9U3aDQRGzTZuFd0Rm4",
    "name": "Garden Party",
    "address": "300台灣新竹市東區金山六街6巷2號",
    "region": "hsinchu_county",
    "latitude": 24.7777221,
    "longitude": 121.01926789999999,
    "orderLinks": [
      {
        "id": "5c7953cc-0ef5-45f9-9e94-8ce69b1ea3bb",
        "platform": "官網",
        "url": "https://www.facebook.com/GardenPartyHsinchu/"
      }
    ],
    "rating": 4.1,
    "phone": "03 666 1717"
  },
  {
    "id": "ChIJW3ank9Q3aDQRHdS4IOh9_kk",
    "name": "法諾義式廚房-竹科店",
    "address": "300台灣新竹市東區金山二十三街96號1樓",
    "region": "hsinchu_county",
    "latitude": 24.7751229,
    "longitude": 121.02621769999999,
    "orderLinks": [
      {
        "id": "9e1914b5-b5c4-4a4c-88e5-f86189b561db",
        "platform": "官網",
        "url": "https://www.facebook.com/profile.php?id=100091507263075&mibextid=LQQJ4d"
      }
    ],
    "rating": 4.5,
    "phone": "03 668 6046"
  },
  {
    "id": "ChIJI3sHA3M3aDQR_DSAxWLO0Og",
    "name": "鮨之屋",
    "address": "300台灣新竹市東區金山六街81號",
    "region": "hsinchu_county",
    "latitude": 24.7761133,
    "longitude": 121.01963049999998,
    "orderLinks": [],
    "rating": 4.1,
    "phone": null
  },
  {
    "id": "ChIJU6R5Snc3aDQRMTP0w-MEvjo",
    "name": "錢都日式涮涮鍋-新竹金山店 CHIEN TU HOT POT",
    "address": "300台灣新竹市東區金山十二街21號",
    "region": "hsinchu_county",
    "latitude": 24.7770231,
    "longitude": 121.02234500000002,
    "orderLinks": [
      {
        "id": "9a678e22-a83f-49b2-9864-b0ad3a29409c",
        "platform": "官網",
        "url": "https://www.chientu.com.tw/"
      }
    ],
    "rating": 4.4,
    "phone": "03 579 0707"
  },
  {
    "id": "ChIJV6lcurw3aDQRsj4ZTKVa45A",
    "name": "竹美港式燒臘 金山店",
    "address": "300台灣新竹市東區金山七街56號",
    "region": "hsinchu_county",
    "latitude": 24.7776401,
    "longitude": 121.019888,
    "orderLinks": [
      {
        "id": "b61662be-52c5-43fb-a4dd-d8eb2ccef45f",
        "platform": "官網",
        "url": "https://www.facebook.com/%E7%AB%B9%E7%BE%8E%E7%87%92%E8%87%98-102024485919919"
      }
    ],
    "rating": 4.2,
    "phone": "03 666 3819"
  },
  {
    "id": "ChIJhXrPwC42aDQRDdOs2nNdEvE",
    "name": "「拿鐵•拿鐵」咖啡小酒館",
    "address": "300台灣新竹市東區金山二十三街87號",
    "region": "hsinchu_county",
    "latitude": 24.7748708,
    "longitude": 121.02633780000001,
    "orderLinks": [
      {
        "id": "3762d8de-c2b9-48f1-826f-ed29b090e3ae",
        "platform": "官網",
        "url": "https://m.facebook.com/JustLatte/"
      }
    ],
    "rating": 4.8,
    "phone": "0958 910 778"
  },
  {
    "id": "ChIJJSWufuA3aDQR3nV4bJlrrWM",
    "name": "楊記石頭火鍋 竹科旗艦店",
    "address": "300台灣新竹市東區金山十五街3號",
    "region": "hsinchu_county",
    "latitude": 24.776978000000003,
    "longitude": 121.0231348,
    "orderLinks": [
      {
        "id": "4c57632a-f536-41af-999c-fd81be6d033b",
        "platform": "官網",
        "url": "https://www.facebook.com/profile.php?id=61550402667223&mibextid=ZbWKwL"
      }
    ],
    "rating": 4.5,
    "phone": "0905 321 312"
  },
  {
    "id": "ChIJTdOphCU2aDQRAEfF6jwV2ZI",
    "name": "大埔鐵板燒 金山店",
    "address": "300台灣新竹市東區金山十街31號",
    "region": "hsinchu_county",
    "latitude": 24.777302499999998,
    "longitude": 121.02139179999999,
    "orderLinks": [],
    "rating": 2.8,
    "phone": "03 578 1131"
  },
  {
    "id": "ChIJ2xcL1vE3aDQRYcOYnDYY9f4",
    "name": "歐浮找餐-新竹金山店",
    "address": "300063台灣新竹市東區金山九街56號",
    "region": "hsinchu_county",
    "latitude": 24.777544199999998,
    "longitude": 121.0207816,
    "orderLinks": [
      {
        "id": "f723710d-65a7-45de-98af-35a6d53f4cd3",
        "platform": "官網",
        "url": "https://www.facebook.com/profile.php?id=100091583354906&mibextid=LQQJ4d"
      }
    ],
    "rating": 4.6,
    "phone": "03 577 7227"
  },
  {
    "id": "ChIJrxKp6i42aDQR-skRAh7sEIM",
    "name": "貳三熱炒(公休公告請至臉書FB搜尋：貳三平價熱炒，多數人訂位要付定金喔！）",
    "address": "300台灣新竹市東區金山二十三街No. 86號",
    "region": "hsinchu_county",
    "latitude": 24.7752314,
    "longitude": 121.026273,
    "orderLinks": [
      {
        "id": "d20568f4-642c-4b87-a0e7-71d8e481af2d",
        "platform": "官網",
        "url": "https://www.facebook.com/%E8%B2%B3%E4%B8%89-%E5%B9%B3%E5%83%B9%E7%86%B1%E7%82%92-121255165221319/"
      }
    ],
    "rating": 4.4,
    "phone": "03 666 2722"
  },
  {
    "id": "ChIJs-HgUwA3aDQRcA-3O7DDkJA",
    "name": "彩碗 ColorBowl Poke 新竹金山店",
    "address": "300台灣新竹市東區金山十三街1號",
    "region": "hsinchu_county",
    "latitude": 24.7773529,
    "longitude": 121.02276529999999,
    "orderLinks": [
      {
        "id": "a5b395c3-bf3a-4e7a-b933-9ffe17ceafe8",
        "platform": "官網",
        "url": "https://www.facebook.com/profile.php?id=61555646625930&mibextid=LQQJ4d"
      }
    ],
    "rating": 4.8,
    "phone": "03 578 9965"
  },
  {
    "id": "ChIJ1-kH-ac3aDQRJoX4GtFHDP4",
    "name": "晨間廚房 新竹金山店",
    "address": "300台灣新竹市東區金山街136號",
    "region": "hsinchu_county",
    "latitude": 24.7762159,
    "longitude": 121.0250525,
    "orderLinks": [
      {
        "id": "b6e2874e-c005-4122-b6b4-fdc6eb3b5453",
        "platform": "官網",
        "url": "https://www.mk2000.com.tw/"
      }
    ],
    "rating": 4.1,
    "phone": "03 666 7157"
  },
  {
    "id": "ChIJr8MK8i42aDQRrAiL8kHdLRQ",
    "name": "燃舍串燒き金山總店",
    "address": "300台灣新竹市東區金山街160號",
    "region": "hsinchu_county",
    "latitude": 24.77562,
    "longitude": 121.02624379999999,
    "orderLinks": [
      {
        "id": "e2c6b14e-f57a-436a-bc81-aa8f6ec6d3c3",
        "platform": "官網",
        "url": "https://www.facebook.com/yakitoristore/"
      }
    ],
    "rating": 4.5,
    "phone": "03 578 8851"
  },
  {
    "id": "ChIJMaSlSKQ3aDQRrQiU04Ac3j0",
    "name": "山穴XXCoffee（營業時間依IG為主）",
    "address": "31065台灣新竹縣竹東鎮柯湖路一段121巷10號",
    "region": "hsinchu_county",
    "latitude": 24.776726399999998,
    "longitude": 121.03046219999999,
    "orderLinks": [
      {
        "id": "1b0b17dd-5792-44db-9d77-0e76e28b65ea",
        "platform": "官網",
        "url": "https://instagram.com/xxcoffee_roast"
      }
    ],
    "rating": 4.8,
    "phone": "0919 003 500"
  },
  {
    "id": "ChIJU-W4lS42aDQR_1HQBm2W1rU",
    "name": "帕比絲手作印度廚房",
    "address": "300台灣新竹市東區金山二十三街69號",
    "region": "hsinchu_county",
    "latitude": 24.775245,
    "longitude": 121.02660300000001,
    "orderLinks": [
      {
        "id": "13ba92bd-4244-4b95-918b-da59c4b65ba8",
        "platform": "官網",
        "url": "https://www.facebook.com/bhabhis.2369"
      }
    ],
    "rating": 4.3,
    "phone": "03 567 8591"
  },
  {
    "id": "ChIJ6-c_CS82aDQRWmc3YhBy5r4",
    "name": "胡塗白湯小火鍋 金山店",
    "address": "300台灣新竹市東區金山街128號",
    "region": "hsinchu_county",
    "latitude": 24.7762865,
    "longitude": 121.02491979999999,
    "orderLinks": [
      {
        "id": "5e4453a9-f7e0-45ac-807e-d63d13aa5e28",
        "platform": "官網",
        "url": "https://m.facebook.com/%E8%83%A1%E5%A1%97%E9%A4%8A%E7%94%9F%E5%B0%8F%E7%81%AB%E9%8D%8B-510956512248952/?locale2=zh_TW"
      }
    ],
    "rating": 4.2,
    "phone": "03 578 9005"
  },
  {
    "id": "ChIJ5az0Wy42aDQRc9yc5Moa6f8",
    "name": "東枝小館",
    "address": "300台灣新竹市東區光復路一段89巷195號",
    "region": "hsinchu_county",
    "latitude": 24.7771287,
    "longitude": 121.02602609999998,
    "orderLinks": [],
    "rating": 4.2,
    "phone": "0987 904 536"
  },
  {
    "id": "ChIJZfSEbZE3aDQRfJ1hutmdWl4",
    "name": "專蜀味覺 麻辣滷-金山形象店",
    "address": "1樓, No. 175號金山街東區新竹市台灣 300",
    "region": "hsinchu_county",
    "latitude": 24.775919,
    "longitude": 121.0260672,
    "orderLinks": [],
    "rating": 4,
    "phone": "03 563 0555"
  },
  {
    "id": "ChIJL0JPROY3aDQRfhj88h3LL4g",
    "name": "Gray Café",
    "address": "300台灣新竹市東區金山二十三街89號",
    "region": "hsinchu_county",
    "latitude": 24.774842699999997,
    "longitude": 121.0262952,
    "orderLinks": [
      {
        "id": "b06c4bde-0ead-46ca-918e-ce2d67d7da51",
        "platform": "官網",
        "url": "https://www.facebook.com/GrayCafe2022"
      }
    ],
    "rating": 4.6,
    "phone": "03 668 6598"
  },
  {
    "id": "ChIJmSwuW_M3aDQR3zQAihYblhY",
    "name": "Eden Hall 酒托邦",
    "address": "300台灣新竹市東區金山二十三街77號1樓",
    "region": "hsinchu_county",
    "latitude": 24.775096599999998,
    "longitude": 121.02638610000001,
    "orderLinks": [
      {
        "id": "69bc5859-1cb2-4b08-ba3c-3f78db34f2fe",
        "platform": "官網",
        "url": "https://fb.me/EdenHall.2022"
      }
    ],
    "rating": 5,
    "phone": "03 666 3806"
  },
  {
    "id": "ChIJFRABGi82aDQR5pULYyAfues",
    "name": "喫鍋 金山店",
    "address": "300台灣新竹市東區金山十八街20號",
    "region": "hsinchu_county",
    "latitude": 24.7761225,
    "longitude": 121.02415090000001,
    "orderLinks": [],
    "rating": 4.1,
    "phone": "03 666 9597"
  },
  {
    "id": "ChIJQwTp_O03aDQRuZjp2ELVGBU",
    "name": "走吧大醬湯專門店(週三營業改至19:00)",
    "address": "300台灣新竹市東區金山十七街36號",
    "region": "hsinchu_county",
    "latitude": 24.776105599999998,
    "longitude": 121.0238378,
    "orderLinks": [
      {
        "id": "4b2c51eb-5b51-4d23-8734-48cc4f2a755a",
        "platform": "官網",
        "url": "https://www.instagram.com/gaja_koreanfood/"
      }
    ],
    "rating": 4.4,
    "phone": "0967 006 978"
  },
  {
    "id": "ChIJHcMYpQQ3aDQR9VVVoqMQZ1Y",
    "name": "貓匿MAONI Brunch（最後點餐13:15或餐點完售）",
    "address": "300台灣新竹市東區金山街148號",
    "region": "hsinchu_county",
    "latitude": 24.775984599999997,
    "longitude": 121.02562139999998,
    "orderLinks": [
      {
        "id": "f706d8ee-079a-4dfe-84b7-3ad8c715fe0b",
        "platform": "官網",
        "url": "https://m.facebook.com/MaoniBrunch?wtsid=rdr_0gwcKA3KnhY340B8m&mibextid=Zxz2cZ"
      }
    ],
    "rating": 3.8,
    "phone": "03 577 9266"
  },
  {
    "id": "ChIJe4LmCQA3aDQR66rmHDkMWG8",
    "name": "早飯晚雞 海南雞飯",
    "address": "300台灣新竹市東區金山二十三街60號",
    "region": "hsinchu_county",
    "latitude": 24.7757841,
    "longitude": 121.0265915,
    "orderLinks": [],
    "rating": 4.8,
    "phone": "03 567 9712"
  },
  {
    "id": "ChIJZetmegA3aDQRZx7wc0wxkAw",
    "name": "C’FINE 舒飯健康餐盒新竹金山店",
    "address": "300台灣新竹市東區金山街215號",
    "region": "hsinchu_county",
    "latitude": 24.775185699999998,
    "longitude": 121.02761749999999,
    "orderLinks": [
      {
        "id": "da00ccff-26ba-4efa-8bbe-3480d4eb9a77",
        "platform": "官網",
        "url": "https://line.me/R/ti/p/@622anymx"
      }
    ],
    "rating": 4.5,
    "phone": "03 668 6116"
  },
  {
    "id": "ChIJgQ_zADI3aDQRwy0PwTPbLdY",
    "name": "Bar 蛤",
    "address": "300台灣新竹市東區金山廿三街13號",
    "region": "hsinchu_county",
    "latitude": 24.7766232,
    "longitude": 121.0274049,
    "orderLinks": [
      {
        "id": "f26ad58a-b16d-49ec-a35a-a1b136cfe4f4",
        "platform": "官網",
        "url": "https://www.instagram.com/barharr.hsinchu/"
      }
    ],
    "rating": 4.6,
    "phone": "03 567 9027"
  },
  {
    "id": "ChIJk0RL7C42aDQRuZces9tcdmw",
    "name": "旭品關八",
    "address": "300台灣新竹市東區金山街158號",
    "region": "hsinchu_county",
    "latitude": 24.775744500000002,
    "longitude": 121.0259983,
    "orderLinks": [],
    "rating": 4.4,
    "phone": "0908 911 325"
  },
  {
    "id": "ChIJCyNyki42aDQRQ23C0ST7GCY",
    "name": "洪師傅營養早餐",
    "address": "300台灣新竹市東區金山二十三街62號",
    "region": "hsinchu_county",
    "latitude": 24.7756942,
    "longitude": 121.02661439999999,
    "orderLinks": [],
    "rating": 4.3,
    "phone": "03 579 8240"
  },
  {
    "id": "ChIJ0T4sic03aDQR33CzLs63Ez4",
    "name": "右左庄羊肉爐/薑母鴨",
    "address": "310台灣新竹縣竹東鎮中興路四段650號",
    "region": "hsinchu_county",
    "latitude": 24.7770264,
    "longitude": 121.03748010000001,
    "orderLinks": [
      {
        "id": "bbb68792-d0dc-4419-8b02-50e19008fd4a",
        "platform": "官網",
        "url": "https://www.facebook.com/%E8%8C%82%E6%9E%97%E7%BE%8A%E8%82%89%E7%88%90-%E7%AB%B9%E6%9D%B1%E4%B8%AD%E8%88%88%E5%BA%97-1670504003166903/"
      }
    ],
    "rating": 4.2,
    "phone": "0916 765 525"
  },
  {
    "id": "ChIJ6Zxsr9o3aDQRzE5OkFZTrHw",
    "name": "工研院中興院區員工餐廳",
    "address": "310台灣新竹縣竹東鎮",
    "region": "hsinchu_county",
    "latitude": 24.774167799999997,
    "longitude": 121.04551769999999,
    "orderLinks": [
      {
        "id": "e36aa6fa-b1c9-4798-bab2-ff9f72652456",
        "platform": "官網",
        "url": "http://www.itri.org.tw/"
      }
    ],
    "rating": 4.1,
    "phone": null
  },
  {
    "id": "ChIJ1WMK8M03aDQR3ojloDRsNaM",
    "name": "摩斯漢堡 工研院店",
    "address": "310台灣新竹縣竹東鎮中興路四段195號52館",
    "region": "hsinchu_county",
    "latitude": 24.7747256,
    "longitude": 121.0455637,
    "orderLinks": [
      {
        "id": "ec09d936-e037-4e1b-afb6-40b8ea643484",
        "platform": "官網",
        "url": "https://www.mos.com.tw/"
      }
    ],
    "rating": 4,
    "phone": "03 591 0438"
  },
  {
    "id": "ChIJi23fp9o3aDQRsYdXLEBbU7s",
    "name": "工研院八分飽",
    "address": "310台灣新竹縣竹東鎮中興路四段195號",
    "region": "hsinchu_county",
    "latitude": 24.7749459,
    "longitude": 121.04450810000002,
    "orderLinks": [],
    "rating": 3.9,
    "phone": "03 591 8186"
  },
  {
    "id": "ChIJLzVC9Yg3aDQR8nJ9lNg66oc",
    "name": "金仙便當工研院店",
    "address": "310台灣新竹縣竹東鎮中興路四段195號",
    "region": "hsinchu_county",
    "latitude": 24.774920400000003,
    "longitude": 121.044387,
    "orderLinks": [],
    "rating": 5,
    "phone": null
  },
  {
    "id": "ChIJ_yEnUVc3aDQRNBkaG3FgDYA",
    "name": "Juice Bear-工研院店",
    "address": "310台灣新竹縣竹東鎮中興路四段195號",
    "region": "hsinchu_county",
    "latitude": 24.774660400000002,
    "longitude": 121.04545639999999,
    "orderLinks": [
      {
        "id": "3f4f3d85-9c90-4639-a517-6b0c26a0543b",
        "platform": "官網",
        "url": "http://juicebear.com.tw/"
      }
    ],
    "rating": 4.7,
    "phone": "03 582 0232"
  },
  {
    "id": "ChIJrWjHWAA3aDQRilv94rY9D4s",
    "name": "二哥快炒",
    "address": "310台灣新竹縣竹東鎮中興路四段650號",
    "region": "hsinchu_county",
    "latitude": 24.777071,
    "longitude": 121.0376876,
    "orderLinks": [],
    "rating": null,
    "phone": null
  },
  {
    "id": "ChIJo4s_YQA3aDQREoE9O3bWsLU",
    "name": "Hakka restaurant",
    "address": "310台灣新竹縣竹東鎮",
    "region": "hsinchu_county",
    "latitude": 24.774922,
    "longitude": 121.04497679999999,
    "orderLinks": [],
    "rating": null,
    "phone": null
  },
  {
    "id": "ChIJkZZhIAA3aDQRHvHVmGssUfc",
    "name": "文湯武醬",
    "address": "310台灣新竹縣竹東鎮中興路四段195號",
    "region": "hsinchu_county",
    "latitude": 24.7746635,
    "longitude": 121.04545710000001,
    "orderLinks": [],
    "rating": null,
    "phone": null
  },
  {
    "id": "ChIJJUXgUAA3aDQRubxBwqjexcU",
    "name": "阿芳的店",
    "address": "310台灣新竹縣竹東鎮",
    "region": "hsinchu_county",
    "latitude": 24.7770516,
    "longitude": 121.03804830000001,
    "orderLinks": [],
    "rating": 5,
    "phone": "0907 324 123"
  },
  {
    "id": "ChIJXb6lC6Q3aDQR5OorZ5GeWsI",
    "name": "卡菲努努親子寵物餐廳",
    "address": "310台灣新竹縣竹東鎮明星一路138號",
    "region": "hsinchu_county",
    "latitude": 24.775207599999998,
    "longitude": 121.05487729999999,
    "orderLinks": [
      {
        "id": "059250b9-bd8b-498d-8407-f68031c14256",
        "platform": "官網",
        "url": "https://www.facebook.com/cafenunu"
      }
    ],
    "rating": 4.6,
    "phone": "03 582 7709"
  },
  {
    "id": "ChIJSUUn7sI3aDQRoehHyAO9tkg",
    "name": "岩漿漢方麻辣火鍋-竹東明星店",
    "address": "310台灣新竹縣竹東鎮明星一路110號",
    "region": "hsinchu_county",
    "latitude": 24.774722699999998,
    "longitude": 121.0545337,
    "orderLinks": [
      {
        "id": "3fb447b1-6506-454d-9c6b-d183010c211b",
        "platform": "官網",
        "url": "http://yenchiang-hotpot.com/"
      }
    ],
    "rating": 4.7,
    "phone": "03 582 1318"
  },
  {
    "id": "ChIJnzWJDwA3aDQRJCXiZz8ipyE",
    "name": "隔壁宵夜竹東店",
    "address": "310台灣新竹縣竹東鎮中興路三段110號",
    "region": "hsinchu_county",
    "latitude": 24.766710099999997,
    "longitude": 121.0568285,
    "orderLinks": [],
    "rating": 4.8,
    "phone": "0921 081 756"
  },
  {
    "id": "ChIJ0VUoj2c3aDQRrTZO3QGuXYo",
    "name": "紅吱吱平價牛排館-二重店",
    "address": "310021台灣新竹縣竹東鎮光明路204號1樓",
    "region": "hsinchu_county",
    "latitude": 24.771087899999998,
    "longitude": 121.05653430000001,
    "orderLinks": [
      {
        "id": "7969a816-230c-4ff9-9ac8-9d976e7c9c6e",
        "platform": "官網",
        "url": "https://quickorder.prox.com.tw/801d54a0-1720-4d62-a8c6-4648ca91ce52"
      }
    ],
    "rating": 4.4,
    "phone": "03 583 7888"
  },
  {
    "id": "ChIJP7STxmw3aDQR5N8zZyW08FU",
    "name": "PIZZA HUT 必勝客 竹東中興店",
    "address": "31054台灣新竹縣竹東鎮中興路三段127號",
    "region": "hsinchu_county",
    "latitude": 24.7667598,
    "longitude": 121.05636270000001,
    "orderLinks": [],
    "rating": 4.3,
    "phone": "03 582 1112"
  },
  {
    "id": "ChIJzcQqwt03aDQRDIbM5thmiOw",
    "name": "二重老店麵食館",
    "address": "310台灣新竹縣竹東鎮中興路三段245巷4號之1號310",
    "region": "hsinchu_county",
    "latitude": 24.7683579,
    "longitude": 121.05472459999999,
    "orderLinks": [],
    "rating": 4.2,
    "phone": "0963 031 171"
  },
  {
    "id": "ChIJzQ5JSeNHaDQRrJLymG7vI-Y",
    "name": "川湘匯館",
    "address": "310台灣新竹縣竹東鎮中興路四段176號",
    "region": "hsinchu_county",
    "latitude": 24.7744957,
    "longitude": 121.04814299999998,
    "orderLinks": [],
    "rating": 4.3,
    "phone": "03 595 0577"
  },
  {
    "id": "ChIJs-ln2eA3aDQRDqKX5z8sL6E",
    "name": "英豪食廚房",
    "address": "310台灣新竹縣竹東鎮中興路三段35號",
    "region": "hsinchu_county",
    "latitude": 24.765560699999998,
    "longitude": 121.05764860000001,
    "orderLinks": [
      {
        "id": "d4f9705e-1c4b-44d7-a478-bb0400f35bb5",
        "platform": "官網",
        "url": "https://www.facebook.com/Ain.noodle/"
      }
    ],
    "rating": 4.3,
    "phone": "03 582 9971"
  },
  {
    "id": "ChIJ1X2lTgA3aDQRgm3fSMljx-A",
    "name": "達美樂披薩-竹東二重中興店",
    "address": "310台灣新竹縣竹東鎮中興路三段226號",
    "region": "hsinchu_county",
    "latitude": 24.7686331,
    "longitude": 121.0551623,
    "orderLinks": [
      {
        "id": "81cd7a36-4056-4fa9-b4d8-1bed93803ff0",
        "platform": "官網",
        "url": "https://www.dominos.com.tw/"
      }
    ],
    "rating": 3.9,
    "phone": "03 583 0052"
  },
  {
    "id": "ChIJFwUgEAA3aDQRuJ0gRuw_QLU",
    "name": "ATOMIX PIZZA",
    "address": "No. 184號, 中興路三段竹東鎮新竹縣台灣 310",
    "region": "hsinchu_county",
    "latitude": 24.7678057,
    "longitude": 121.05580069999999,
    "orderLinks": [],
    "rating": 4.9,
    "phone": "03 582 2010"
  },
  {
    "id": "ChIJ7_1KuOhHaDQRbM-PLEDlX_E",
    "name": "喫鍋飯",
    "address": "310台灣新竹縣竹東鎮中興路三段268號",
    "region": "hsinchu_county",
    "latitude": 24.7691907,
    "longitude": 121.05435430000001,
    "orderLinks": [],
    "rating": 4.3,
    "phone": "03 582 2278"
  },
  {
    "id": "ChIJEfKds903aDQRq5W5r8DlkD0",
    "name": "八方雲集-竹東中興店",
    "address": "310台灣新竹縣竹東鎮中興路三段321號",
    "region": "hsinchu_county",
    "latitude": 24.7693826,
    "longitude": 121.05359770000001,
    "orderLinks": [
      {
        "id": "76b67dcb-c30c-4ed5-9025-09cc8d36d9a8",
        "platform": "官網",
        "url": "https://www.8way.com.tw/"
      }
    ],
    "rating": 3.9,
    "phone": "03 583 0522"
  },
  {
    "id": "ChIJ806FOwA3aDQRCaTAm0xb3w8",
    "name": "麥味登早午餐-竹東旭光店",
    "address": "310台灣新竹縣竹東鎮旭光二路13號",
    "region": "hsinchu_county",
    "latitude": 24.772441,
    "longitude": 121.05726689999999,
    "orderLinks": [
      {
        "id": "f87cf494-6c85-4b15-abef-fb3bcc4d10ba",
        "platform": "官網",
        "url": "https://www.mwd.com.tw/index.php"
      }
    ],
    "rating": 3.1,
    "phone": "03 582 6531"
  },
  {
    "id": "ChIJZwjClXo3aDQRVnyR3QqwGEQ",
    "name": "君食堂",
    "address": "310台灣新竹县竹东镇自由街122號1樓",
    "region": "hsinchu_county",
    "latitude": 24.772078099999998,
    "longitude": 121.05493899999999,
    "orderLinks": [
      {
        "id": "40234714-b8a1-48b9-b6f1-b52f2bf48490",
        "platform": "官網",
        "url": "https://m.facebook.com/%E5%90%9B%E9%A3%9F%E5%A0%82-104282115387262/"
      }
    ],
    "rating": 4.5,
    "phone": "0979 232 232"
  },
  {
    "id": "ChIJdwww8N03aDQRmxprPQvGnDE",
    "name": "二重早點",
    "address": "310台灣新竹縣竹東鎮中興路三段192號",
    "region": "hsinchu_county",
    "latitude": 24.767944800000002,
    "longitude": 121.05575150000001,
    "orderLinks": [],
    "rating": 4.5,
    "phone": "03 582 4920"
  },
  {
    "id": "ChIJyS-SYpA3aDQRJrfwifTdg3M",
    "name": "彡食亭-平價鐵板燒 竹東二重店",
    "address": "310台灣新竹縣竹東鎮中興路三段312號",
    "region": "hsinchu_county",
    "latitude": 24.7696108,
    "longitude": 121.0537038,
    "orderLinks": [],
    "rating": 4.2,
    "phone": "03 583 0520"
  },
  {
    "id": "ChIJ6_KHVJQ2aDQRi22Ct0ZeQ_k",
    "name": "快樂牛肉麵",
    "address": "310台灣新竹縣竹東鎮中興路三段249號",
    "region": "hsinchu_county",
    "latitude": 24.768375499999998,
    "longitude": 121.0549123,
    "orderLinks": [
      {
        "id": "2576373c-85cf-4251-b9e5-9723dd09e336",
        "platform": "官網",
        "url": "http://facebook.com/HappyGUMAMI"
      }
    ],
    "rating": 3.9,
    "phone": "0911 826 948"
  },
  {
    "id": "ChIJEaUoPAA3aDQReubUiblFccw",
    "name": "皇膳湯包二重店",
    "address": "310台灣新竹縣竹東鎮中興路三段314號",
    "region": "hsinchu_county",
    "latitude": 24.769629199999997,
    "longitude": 121.0536726,
    "orderLinks": [
      {
        "id": "62af2001-e747-4e5f-a918-35434b9f494f",
        "platform": "官網",
        "url": "https://www.facebook.com/profile.php/?id=61554308787213"
      }
    ],
    "rating": 4.1,
    "phone": "0983 675 120"
  },
  {
    "id": "ChIJGT4aYN03aDQREve6aN0ti2s",
    "name": "22度C麵食館",
    "address": "310台灣新竹縣竹東鎮民族路99號",
    "region": "hsinchu_county",
    "latitude": 24.770890400000003,
    "longitude": 121.05631410000001,
    "orderLinks": [],
    "rating": 4.3,
    "phone": "03 582 1606"
  },
  {
    "id": "ChIJiXMO45dKaDQRpXNRUa-iRsE",
    "name": "蚵舉壯元",
    "address": "300台灣新竹市香山區中華路五段322號",
    "region": "hsinchu_city",
    "latitude": 24.781585,
    "longitude": 120.91902779999998,
    "orderLinks": [
      {
        "id": "213a71e5-6568-4e6c-88c0-a9df2d958486",
        "platform": "官網",
        "url": "https://www.facebook.com/StrongOysters"
      }
    ],
    "rating": 4.5,
    "phone": "0983 000 960"
  },
  {
    "id": "ChIJSTNKcwBLaDQRtSUiMMrf7Bk",
    "name": "Chilltofu（臭豆腐）（目前只接預定）",
    "address": "300台灣新竹市香山區中華路五段320巷35弄63之4號",
    "region": "hsinchu_city",
    "latitude": 24.782311399999998,
    "longitude": 120.9162257,
    "orderLinks": [],
    "rating": 5,
    "phone": "0926 847 631"
  },
  {
    "id": "ChIJo0TYWABLaDQRAIBeDhSGQf4",
    "name": "有茶咖",
    "address": "300台灣新竹市香山區中華路五段190號",
    "region": "hsinchu_city",
    "latitude": 24.785289799999997,
    "longitude": 120.92099460000001,
    "orderLinks": [],
    "rating": 5,
    "phone": null
  },
  {
    "id": "ChIJZ5Q1NYZKaDQRczAITNf9_CY",
    "name": "柴寮披薩 Luau pizza",
    "address": "300台灣新竹市香山區元培街323巷5號",
    "region": "hsinchu_city",
    "latitude": 24.779211699999998,
    "longitude": 120.9388733,
    "orderLinks": [],
    "rating": 4.4,
    "phone": "0908 502 903"
  },
  {
    "id": "ChIJJwIzWLRLaDQRiKz1ZfAQ09Q",
    "name": "迎友飯糰",
    "address": "300台灣新竹市香山區元培街220號",
    "region": "hsinchu_city",
    "latitude": 24.7809101,
    "longitude": 120.934071,
    "orderLinks": [],
    "rating": 4.8,
    "phone": null
  },
  {
    "id": "ChIJw95MqpxKaDQR-mdqwKjGZyk",
    "name": "黑白早餐屋",
    "address": "300台灣新竹市香山區元培街112號",
    "region": "hsinchu_city",
    "latitude": 24.785355799999998,
    "longitude": 120.93008239999999,
    "orderLinks": [],
    "rating": 4.3,
    "phone": "0982 156 006"
  },
  {
    "id": "ChIJN3cC0IdKaDQRuU-wO30EJNo",
    "name": "麻吉早餐店",
    "address": "300台灣新竹市香山區元培街304號",
    "region": "hsinchu_city",
    "latitude": 24.7783542,
    "longitude": 120.93937799999999,
    "orderLinks": [
      {
        "id": "3d2a76bf-f2fe-478c-acc0-d60cb38359f0",
        "platform": "官網",
        "url": "https://www.facebook.com/mg0923/"
      }
    ],
    "rating": 4.4,
    "phone": "0932 287 068"
  },
  {
    "id": "ChIJKSUEwIdKaDQRrPh2zmMdbjQ",
    "name": "阿春小吃",
    "address": "300台灣新竹市香山區元培街337-16號",
    "region": "hsinchu_city",
    "latitude": 24.778817699999998,
    "longitude": 120.94028080000001,
    "orderLinks": [],
    "rating": 4.6,
    "phone": "0937 150 916"
  },
  {
    "id": "ChIJJYvcfgtKaDQROOQ13jblExI",
    "name": "櫻櫻鴨肉麵〔櫻之鍋（小火鍋）〕",
    "address": "300台灣新竹市北區明湖路608巷2號",
    "region": "hsinchu_city",
    "latitude": 24.7768138,
    "longitude": 120.96717599999998,
    "orderLinks": [],
    "rating": 4.2,
    "phone": "0910 186 634"
  },
  {
    "id": "ChIJgWi6cPU1aDQRoySm3S_t-UY",
    "name": "美而美",
    "address": "300台灣新竹市東區明湖路460號",
    "region": "hsinchu_city",
    "latitude": 24.782798099999997,
    "longitude": 120.9670959,
    "orderLinks": [],
    "rating": 4.3,
    "phone": "03 520 1183"
  },
  {
    "id": "ChIJ9V3w_P5LaDQRXYT10iHI9tw",
    "name": "嘉豐輕食店",
    "address": "300台灣新竹市東區明湖路415巷2-1號",
    "region": "hsinchu_city",
    "latitude": 24.7815577,
    "longitude": 120.96691910000001,
    "orderLinks": [],
    "rating": 4.8,
    "phone": "0987 426 922"
  },
  {
    "id": "ChIJdbK3rac1aDQRWseObckYkpA",
    "name": "俏王妃美式炸雞新竹明湖店",
    "address": "300台灣新竹市東區明湖路482巷36號",
    "region": "hsinchu_city",
    "latitude": 24.7816655,
    "longitude": 120.964703,
    "orderLinks": [],
    "rating": 4.3,
    "phone": "0902 446 960"
  },
  {
    "id": "ChIJzVclDfpLaDQR7lspuKYPZXI",
    "name": "FASTARIAN 雨林美式蔬食料理（營業時間請看IG&FB限動）",
    "address": "300台灣新竹市東區24°46'43.1\"N 120°58'01.5\"E",
    "region": "hsinchu_city",
    "latitude": 24.7786474,
    "longitude": 120.9671094,
    "orderLinks": [
      {
        "id": "f87fab7d-96cb-45c0-8af9-aa60a24ac465",
        "platform": "官網",
        "url": "https://instagram.com/free_chef_kim?utm_medium=copy_link"
      }
    ],
    "rating": 5,
    "phone": "0910 257 151"
  },
  {
    "id": "ChIJXZiz72w1aDQRh_aAdpM6D6s",
    "name": "阿胖豆漿",
    "address": "300台灣新竹市東區明湖路359號",
    "region": "hsinchu_city",
    "latitude": 24.786438999999998,
    "longitude": 120.9677825,
    "orderLinks": [],
    "rating": 4.3,
    "phone": "03 519 1962"
  },
  {
    "id": "ChIJc_yWQwA1aDQR6f83CEDUAMs",
    "name": "彼得滷味新竹明湖店",
    "address": "300台灣新竹市東區明湖路392號",
    "region": "hsinchu_city",
    "latitude": 24.785599500000004,
    "longitude": 120.96750619999999,
    "orderLinks": [],
    "rating": 4.7,
    "phone": "0936 699 251"
  },
  {
    "id": "ChIJK3tjlv81aDQRrhSz9c_f9ho",
    "name": "孫子文牛肉麵",
    "address": "300台灣新竹市東區高翠路275號",
    "region": "hsinchu_city",
    "latitude": 24.779013,
    "longitude": 120.98591719999999,
    "orderLinks": [
      {
        "id": "70a9cdad-1a9c-4cc3-a8f4-b37b44f432e2",
        "platform": "官網",
        "url": "https://zh-tw.facebook.com/pages/category/Diner/%E9%87%8D%E6%85%B6%E5%AD%AB%E5%AD%90%E6%96%87%E7%89%9B%E8%82%89%E9%BA%B5-%E9%AB%98%E7%BF%A0%E5%BA%97-332508577104967/"
      }
    ],
    "rating": 4.2,
    "phone": "03 579 7098"
  },
  {
    "id": "ChIJO34F0_81aDQRFoGVWM8hLR4",
    "name": "雲南泰式小吃",
    "address": "300台灣新竹市東區高翠路217號",
    "region": "hsinchu_city",
    "latitude": 24.7799384,
    "longitude": 120.98697219999998,
    "orderLinks": [
      {
        "id": "6159e805-63dc-45bf-bea1-2e54f3dcbdc3",
        "platform": "官網",
        "url": "https://amy77.com/blog/post/26204574"
      }
    ],
    "rating": 4.3,
    "phone": "03 668 6731"
  },
  {
    "id": "ChIJW71nMwA1aDQRSOswKt0ecxc",
    "name": "小牛比較懶牛肉麵",
    "address": "300台灣新竹市東區高翠路267號",
    "region": "hsinchu_city",
    "latitude": 24.779197999999997,
    "longitude": 120.98611969999999,
    "orderLinks": [
      {
        "id": "d3a2f984-3324-4501-95ee-add2198b8129",
        "platform": "官網",
        "url": "https://www.facebook.com/share/P5F5qMWBuC2ZVxH1/?mibextid=qi2Omg"
      }
    ],
    "rating": 4.7,
    "phone": "03 579 9799"
  },
  {
    "id": "ChIJ-y2DwP81aDQR4EAk6ILKkHA",
    "name": "六家麵店(新竹高翠店)",
    "address": "300台灣新竹市東區高翠路255號",
    "region": "hsinchu_city",
    "latitude": 24.7793441,
    "longitude": 120.98628199999999,
    "orderLinks": [],
    "rating": 4,
    "phone": "03 578 5709"
  },
  {
    "id": "ChIJP3iqhgBKaDQR-_NoLxFsKro",
    "name": "沅滷味",
    "address": "300台灣新竹市東區高翠路333號",
    "region": "hsinchu_city",
    "latitude": 24.7777708,
    "longitude": 120.9843978,
    "orderLinks": [],
    "rating": 4.5,
    "phone": "0987 382 800"
  },
  {
    "id": "ChIJjRhrM-ZLaDQRaL2_jbk78sE",
    "name": "功夫茶 KUNGFUTEA 新竹高翠店",
    "address": "300台灣新竹市東區高翠路373號",
    "region": "hsinchu_city",
    "latitude": 24.777222,
    "longitude": 120.98365510000001,
    "orderLinks": [
      {
        "id": "09904a0d-0e77-4e68-8eb4-f9cae1ddb80d",
        "platform": "官網",
        "url": "https://lin.ee/vtplI47"
      }
    ],
    "rating": 4.8,
    "phone": "03 564 5588"
  },
  {
    "id": "ChIJ7eH-gQBKaDQRJRLyAy_BAio",
    "name": "美美麵‧飯食館",
    "address": "300台灣新竹市東區高翠路330號",
    "region": "hsinchu_city",
    "latitude": 24.7781761,
    "longitude": 120.98443729999998,
    "orderLinks": [
      {
        "id": "4d28120e-02b0-4945-abf0-27e7eccfae2d",
        "platform": "官網",
        "url": "https://lin.ee/LBcy47R"
      }
    ],
    "rating": 4,
    "phone": "03 562 3288"
  },
  {
    "id": "ChIJF1Q4kQBKaDQRLJHrXOsT7zQ",
    "name": "夏日鍋物",
    "address": "300台灣新竹市東區高翠路357號",
    "region": "hsinchu_city",
    "latitude": 24.7774459,
    "longitude": 120.9838769,
    "orderLinks": [
      {
        "id": "d15b99ac-1a1e-4a85-a8fc-3ede32dcbc10",
        "platform": "官網",
        "url": "https://m.facebook.com/SummerGuoWu/"
      }
    ],
    "rating": 4,
    "phone": "0913 679 725"
  },
  {
    "id": "ChIJeXQ7VG02aDQR2WlUvNapuS8",
    "name": "微笑的魚 新竹竹科分店",
    "address": "300台灣新竹市東區高翠路351號",
    "region": "hsinchu_city",
    "latitude": 24.7775675,
    "longitude": 120.98402530000001,
    "orderLinks": [
      {
        "id": "cdd1b28f-327f-4e67-9aff-aa1f664c587a",
        "platform": "官網",
        "url": "https://www.facebook.com/sf.muffin/"
      }
    ],
    "rating": 3.9,
    "phone": "0903 369 383"
  },
  {
    "id": "ChIJB5J3ngA2aDQR1S75vvpl_Cc",
    "name": "阿信快餐便當",
    "address": "300台灣新竹市東區高翠路171號",
    "region": "hsinchu_city",
    "latitude": 24.781006299999998,
    "longitude": 120.98775429999999,
    "orderLinks": [],
    "rating": 4.4,
    "phone": "03 563 5996"
  },
  {
    "id": "ChIJnZ6SoQA2aDQRA5pm7Mf0IU0",
    "name": "盛美平價快炒",
    "address": "300台灣新竹市東區高翠路151號300號",
    "region": "hsinchu_city",
    "latitude": 24.7813956,
    "longitude": 120.98796569999999,
    "orderLinks": [],
    "rating": 4.4,
    "phone": "0912 235 320"
  },
  {
    "id": "ChIJI2dphQBKaDQRQ4EiY5pKRzo",
    "name": "四海遊龍 高翠店",
    "address": "300台灣新竹市東區高翠路343號",
    "region": "hsinchu_city",
    "latitude": 24.7776218,
    "longitude": 120.984212,
    "orderLinks": [
      {
        "id": "443f9e79-a65a-47ff-903f-4d3cd4990b57",
        "platform": "官網",
        "url": "http://www.0800224466.com/"
      }
    ],
    "rating": 3.2,
    "phone": "03 579 5085"
  },
  {
    "id": "ChIJqVJmniE1aDQRA8vVQJHpaok",
    "name": "輝 手作煎餃",
    "address": "300台灣新竹市東區高翠路191號",
    "region": "hsinchu_city",
    "latitude": 24.7806732,
    "longitude": 120.98762740000001,
    "orderLinks": [],
    "rating": 4.9,
    "phone": "0928 577 249"
  },
  {
    "id": "ChIJ9d6shQBKaDQRmgOoHLHGQH8",
    "name": "Gaocui 339 Brunch",
    "address": "300台灣新竹市東區高翠路339號",
    "region": "hsinchu_city",
    "latitude": 24.777711,
    "longitude": 120.9842936,
    "orderLinks": [],
    "rating": 3.7,
    "phone": "03 563 0135"
  },
  {
    "id": "ChIJacKTd6JLaDQRZcVp3hBDmLE",
    "name": "橙爺雞排-新竹店",
    "address": "300台灣新竹市東區高翠路319號",
    "region": "hsinchu_city",
    "latitude": 24.778071,
    "longitude": 120.9847338,
    "orderLinks": [
      {
        "id": "39714130-7eb4-44c6-881f-385b39040d18",
        "platform": "官網",
        "url": "https://www.facebook.com/profile.php?id=61551438960279"
      }
    ],
    "rating": 4.1,
    "phone": "0905 667 975"
  },
  {
    "id": "ChIJw4UamgBKaDQRaOHwZ1qMxro",
    "name": "鼎福大碗麵",
    "address": "300台灣新竹市東區高翠路360號",
    "region": "hsinchu_city",
    "latitude": 24.777633899999998,
    "longitude": 120.9836984,
    "orderLinks": [
      {
        "id": "33f09be0-3718-4728-865e-2350d836d089",
        "platform": "官網",
        "url": "http://aerith1111.pixnet.net/blog/post/42413668"
      }
    ],
    "rating": 4.1,
    "phone": "03 561 9319"
  },
  {
    "id": "ChIJPw97rgBKaDQR-KMkfAHldWg",
    "name": "古奇峰黃家水煎包",
    "address": "300台灣新竹市東區高峰路454號",
    "region": "hsinchu_city",
    "latitude": 24.7782187,
    "longitude": 120.9823056,
    "orderLinks": [
      {
        "id": "a94c7f9e-5b95-4751-a725-00fb671cdc95",
        "platform": "官網",
        "url": "https://www.facebook.com/%E5%8F%A4%E5%A5%87%E5%B3%B0%E9%BB%83%E5%AE%B6%E6%B0%B4%E7%85%8E%E5%8C%85-596162820412050/"
      }
    ],
    "rating": 4,
    "phone": "03 561 6858"
  },
  {
    "id": "ChIJk4wgkf81aDQRDKe4Vo_J7eo",
    "name": "僑記刀切麵食館",
    "address": "No. 287, 高翠路東區新竹市台灣 300",
    "region": "hsinchu_city",
    "latitude": 24.7787545,
    "longitude": 120.9855837,
    "orderLinks": [],
    "rating": 3.7,
    "phone": "03 666 1208"
  },
  {
    "id": "ChIJI2-EmwA2aDQRYpJWBICgb-I",
    "name": "8+8 早餐坊（高翠路175號）",
    "address": "300台灣新竹市東區高翠路175號",
    "region": "hsinchu_city",
    "latitude": 24.7808782,
    "longitude": 120.98771769999999,
    "orderLinks": [],
    "rating": 3.9,
    "phone": "03 577 8778"
  },
  {
    "id": "ChIJ76MBfAA3aDQRi_IbQ18TJnw",
    "name": "星巴克 瑞昱門市",
    "address": "300台灣新竹市東區園區二路9號",
    "region": "hsinchu_city",
    "latitude": 24.7806554,
    "longitude": 120.99812329999997,
    "orderLinks": [],
    "rating": 4.2,
    "phone": "03 567 9882"
  },
  {
    "id": "ChIJEaCmPQc2aDQRU3KNyg4as2I",
    "name": "車庫町日式咖哩，丼飯",
    "address": "300台灣新竹市東區寶山路452巷8弄13號",
    "region": "hsinchu_city",
    "latitude": 24.7834315,
    "longitude": 120.98986389999997,
    "orderLinks": [
      {
        "id": "3fd430f1-03f1-4c99-94a7-4036d8a9d817",
        "platform": "官網",
        "url": "https://www.facebook.com/%E8%BB%8A%E5%BA%AB%E7%94%BA%E6%97%A5%E5%BC%8F%E5%92%96%E5%93%A9%E4%B8%BC%E9%A3%AF-400392670359308/"
      }
    ],
    "rating": 4.2,
    "phone": "03 579 5350"
  },
  {
    "id": "ChIJhw6zlas3aDQRzYz7p8GDrUo",
    "name": "安好食 寶山店",
    "address": "300台灣新竹市東區寶山路418號",
    "region": "hsinchu_city",
    "latitude": 24.7848501,
    "longitude": 120.9899493,
    "orderLinks": [
      {
        "id": "39988fed-842f-45da-b7a4-2d683eb545a7",
        "platform": "官網",
        "url": "https://app.eats365pos.com/tw/tc/anhao_food_treasure_mountain"
      }
    ],
    "rating": 4.8,
    "phone": "03 577 4189"
  },
  {
    "id": "ChIJiYFArvY3aDQRRNGDeggpPCk",
    "name": "Nude 裸色茶啡",
    "address": "300台灣新竹市東區創新二路7號",
    "region": "hsinchu_city",
    "latitude": 24.7791463,
    "longitude": 120.9962314,
    "orderLinks": [
      {
        "id": "0efbe2f8-58fd-4b4d-bb24-56bd0ba83c21",
        "platform": "官網",
        "url": "https://www.facebook.com/nudetrendycafe/"
      }
    ],
    "rating": 4.4,
    "phone": "03 668 7691"
  },
  {
    "id": "ChIJK38UiQc2aDQRH_2NF9sR0EY",
    "name": "雙饗丼 新竹寶山店",
    "address": "300台灣新竹市東區寶山路430號",
    "region": "hsinchu_city",
    "latitude": 24.784720399999998,
    "longitude": 120.99010989999998,
    "orderLinks": [
      {
        "id": "74b49d2e-6034-431b-82cf-4aee97e69a36",
        "platform": "官網",
        "url": "https://lin.ee/loAkfyQ"
      }
    ],
    "rating": 4.1,
    "phone": "03 579 9847"
  },
  {
    "id": "ChIJY6QMvPw1aDQRU5d1WnGvPRg",
    "name": "拉亞漢堡 新竹寶山",
    "address": "300台灣新竹市東區寶山路440號",
    "region": "hsinchu_city",
    "latitude": 24.7846902,
    "longitude": 120.9903403,
    "orderLinks": [
      {
        "id": "56ba881b-67c8-4876-b6e3-259c510619a4",
        "platform": "官網",
        "url": "https://now.laya.com.tw/table?store=64a4deabc06ca680d4ab24b6"
      }
    ],
    "rating": 3.3,
    "phone": "03 577 8839"
  },
  {
    "id": "ChIJ27R6Bwc2aDQRFopW3o0XlAg",
    "name": "創義食族",
    "address": "300台灣新竹市東區寶山路416號",
    "region": "hsinchu_city",
    "latitude": 24.7848866,
    "longitude": 120.9899167,
    "orderLinks": [],
    "rating": 3.9,
    "phone": "03 668 7798"
  },
  {
    "id": "ChIJ0-X0_g43aDQRNVZPMfEoTi0",
    "name": "軒邑快餐",
    "address": "300台灣新竹市東區寶山路426號1樓",
    "region": "hsinchu_city",
    "latitude": 24.7847412,
    "longitude": 120.9900049,
    "orderLinks": [
      {
        "id": "8742fbce-280d-4c9f-9439-2891639bdbdc",
        "platform": "官網",
        "url": "https://www.facebook.com/profile.php?id=100063660831692&mibextid=ZbWKwL"
      }
    ],
    "rating": 4,
    "phone": "03 666 1949"
  },
  {
    "id": "ChIJP4dimRk2aDQRaBKom_y6_NM",
    "name": "托斯卡尼尼義大利餐廳-竹科店",
    "address": "300台灣新竹市東區新安路2-1號",
    "region": "hsinchu_city",
    "latitude": 24.782403,
    "longitude": 121.00604200000001,
    "orderLinks": [
      {
        "id": "d747d151-e0b6-4fe1-ba80-07bf149f2998",
        "platform": "官網",
        "url": "http://toscanini.okgo.tw/"
      }
    ],
    "rating": 4.1,
    "phone": "03 666 9505"
  },
  {
    "id": "ChIJ8-Ir3xE2aDQRe7VYwqceEkQ",
    "name": "麥當勞-新竹交大餐廳",
    "address": "300台灣新竹市東區女二舍國立交通大學B棟1F大學路1001號之",
    "region": "hsinchu_city",
    "latitude": 24.784781499999998,
    "longitude": 120.99912020000001,
    "orderLinks": [
      {
        "id": "743247c8-42f8-4cc1-81d8-c672100dce38",
        "platform": "官網",
        "url": "https://www.mcdonalds.com/tw/zh-tw.html"
      }
    ],
    "rating": 4,
    "phone": "03 573 4333"
  },
  {
    "id": "ChIJk5rJxR42aDQRUs45baSmRHI",
    "name": "漢堡王 Burger King 竹科店",
    "address": "300台灣新竹市東區工業東二路1號",
    "region": "hsinchu_city",
    "latitude": 24.779784799999998,
    "longitude": 121.005538,
    "orderLinks": [
      {
        "id": "b7a41433-d8eb-4368-a481-6b4474821d11",
        "platform": "官網",
        "url": "https://www.burgerking.com.tw/"
      }
    ],
    "rating": 4,
    "phone": "03 564 3996"
  },
  {
    "id": "ChIJOUiFNwQ3aDQRjdcM2Tsh48c",
    "name": "安妞韓國烤肉食堂-新竹竹科店",
    "address": "30075台灣新竹市東區工業東二路1號科技生活館1樓",
    "region": "hsinchu_city",
    "latitude": 24.7798448,
    "longitude": 121.0056449,
    "orderLinks": [
      {
        "id": "db4d9fed-0d00-48a7-ae82-1384af00c6e9",
        "platform": "inline",
        "url": "https://inline.app/booking/-MxlOnofn8Ew22KvmQpW:inline-live-2/-N5hr_1uGdyl7aNIYR5l"
      }
    ],
    "rating": 4.7,
    "phone": "03 577 1166"
  },
  {
    "id": "ChIJ1R1lGRA2aDQR0OU4Hv0sMnU",
    "name": "LALA Kitchen 交大店",
    "address": "300台灣新竹市東區大學路1001號",
    "region": "hsinchu_city",
    "latitude": 24.786283599999997,
    "longitude": 120.99969309999999,
    "orderLinks": [
      {
        "id": "e7333ed2-f44f-4dea-b312-a39c5a34c6e5",
        "platform": "官網",
        "url": "https://www.facebook.com/NolaKitchenNCTU"
      }
    ],
    "rating": 3.8,
    "phone": "03 573 7162"
  },
  {
    "id": "ChIJ_X-SXBk2aDQR2gweJGKLUEA",
    "name": "禾園茶館",
    "address": "300台灣新竹市東區工業東二路1號3樓",
    "region": "hsinchu_city",
    "latitude": 24.779719099999998,
    "longitude": 121.00542099999998,
    "orderLinks": [
      {
        "id": "ae1153d0-1965-4f61-bc4d-c77d5b9973da",
        "platform": "官網",
        "url": "https://www.facebook.com/Heyuan.tea/"
      }
    ],
    "rating": 4.5,
    "phone": "03 666 2706"
  },
  {
    "id": "ChIJsdKBkTc3aDQRWXucR4NgusY",
    "name": "漢堡王 交大店",
    "address": "300台灣新竹市東區大學路1001號研三舍餐廳",
    "region": "hsinchu_city",
    "latitude": 24.783808999999998,
    "longitude": 120.9971564,
    "orderLinks": [
      {
        "id": "e7df0029-5dff-4b15-87f0-8e5459a4cc50",
        "platform": "官網",
        "url": "http://www.burgerking.com.tw/"
      }
    ],
    "rating": 4.1,
    "phone": "03 575 0079"
  },
  {
    "id": "ChIJ4WQ8CAA3aDQR-emAFviWHvs",
    "name": "義早早午餐-新竹交大店",
    "address": "300台灣新竹市東區大學路1001號研三舍",
    "region": "hsinchu_city",
    "latitude": 24.7839058,
    "longitude": 120.99730149999998,
    "orderLinks": [
      {
        "id": "374385d9-25d5-476a-8063-60c5f21bcefa",
        "platform": "官網",
        "url": "https://www.facebook.com/eatmorning162"
      }
    ],
    "rating": 4.4,
    "phone": "03 575 1665"
  },