[
  {
    "id": "ChIJ8-Ir3xE2aDQRe7VYwqceEkQ",
    "name": "麥當勞-新竹交大餐廳",
    "address": "300台灣新竹市東區女二舍國立交通大學B棟1F大學路1001號之",
    "region": "hsinchu_city",
    "latitude": 24.784781499999998,
    "longitude": 120.99912020000001,
    "orderLinks": [
      {
        "id": "83468f51-99c6-4548-a66b-35047ab05b38",
        "platform": "官網",
        "url": "https://www.mcdonalds.com/tw/zh-tw.html"
      }
    ],
    "rating": 4,
    "phone": "03 573 4333"
  },
  {
    "id": "ChIJk5rJxR42aDQRUs45baSmRHI",
    "name": "漢堡王 Burger King 竹科店",
    "address": "300台灣新竹市東區工業東二路1號",
    "region": "hsinchu_city",
    "latitude": 24.779784799999998,
    "longitude": 121.005538,
    "orderLinks": [
      {
        "id": "583688ef-04b6-43a1-b478-b64c626eb0d4",
        "platform": "官網",
        "url": "https://www.burgerking.com.tw/"
      }
    ],
    "rating": 4,
    "phone": "03 564 3996"
  },
  {
    "id": "ChIJixrR5xE2aDQRcSR1SqrnbRs",
    "name": "小木屋鬆餅 交大店",
    "address": "300台灣新竹市東區大學路1001號交通大學資訊技術服務中心前餐亭",
    "region": "hsinchu_city",
    "latitude": 24.7876683,
    "longitude": 120.99761310000001,
    "orderLinks": [
      {
        "id": "d429bf42-3b05-414b-a534-b1c8dd416161",
        "platform": "官網",
        "url": "https://shinemood2006.com/"
      }
    ],
    "rating": 4.4,
    "phone": "03 573 5754"
  },
  {
    "id": "ChIJ76MBfAA3aDQRi_IbQ18TJnw",
    "name": "星巴克 瑞昱門市",
    "address": "300台灣新竹市東區園區二路9號",
    "region": "hsinchu_city",
    "latitude": 24.7806554,
    "longitude": 120.99812329999997,
    "orderLinks": [],
    "rating": 4.2,
    "phone": "03 567 9882"
  },
  {
    "id": "ChIJOUiFNwQ3aDQRjdcM2Tsh48c",
    "name": "安妞韓國烤肉食堂-新竹竹科店",
    "address": "30075台灣新竹市東區工業東二路1號科技生活館1樓",
    "region": "hsinchu_city",
    "latitude": 24.7798448,
    "longitude": 121.0056449,
    "orderLinks": [
      {
        "id": "f3556d16-668a-4e5f-8f20-908a1c6babbb",
        "platform": "inline",
        "url": "https://inline.app/booking/-MxlOnofn8Ew22KvmQpW:inline-live-2/-N5hr_1uGdyl7aNIYR5l"
      }
    ],
    "rating": 4.7,
    "phone": "03 577 1166"
  },
  {
    "id": "ChIJ1R1lGRA2aDQR0OU4Hv0sMnU",
    "name": "LALA Kitchen 交大店",
    "address": "300台灣新竹市東區大學路1001號",
    "region": "hsinchu_city",
    "latitude": 24.786283599999997,
    "longitude": 120.99969309999999,
    "orderLinks": [
      {
        "id": "be05df62-a064-473f-a666-275f03721804",
        "platform": "官網",
        "url": "https://www.facebook.com/NolaKitchenNCTU"
      }
    ],
    "rating": 3.8,
    "phone": "03 573 7162"
  },
  {
    "id": "ChIJEaCmPQc2aDQRU3KNyg4as2I",
    "name": "車庫町日式咖哩，丼飯",
    "address": "300台灣新竹市東區寶山路452巷8弄13號",
    "region": "hsinchu_city",
    "latitude": 24.7834315,
    "longitude": 120.98986389999997,
    "orderLinks": [
      {
        "id": "137e516c-aa9e-46d2-a340-1619169e27b3",
        "platform": "官網",
        "url": "https://www.facebook.com/%E8%BB%8A%E5%BA%AB%E7%94%BA%E6%97%A5%E5%BC%8F%E5%92%96%E5%93%A9%E4%B8%BC%E9%A3%AF-400392670359308/"
      }
    ],
    "rating": 4.2,
    "phone": "03 579 5350"
  },
  {
    "id": "ChIJO34F0_81aDQRFoGVWM8hLR4",
    "name": "雲南泰式小吃",
    "address": "300台灣新竹市東區高翠路217號",
    "region": "hsinchu_city",
    "latitude": 24.7799384,
    "longitude": 120.98697219999998,
    "orderLinks": [
      {
        "id": "ba665dfe-12d3-4367-a860-3ba900c3bb77",
        "platform": "官網",
        "url": "https://amy77.com/blog/post/26204574"
      }
    ],
    "rating": 4.3,
    "phone": "03 668 6731"
  },
  {
    "id": "ChIJsdKBkTc3aDQRWXucR4NgusY",
    "name": "漢堡王 交大店",
    "address": "300台灣新竹市東區大學路1001號研三舍餐廳",
    "region": "hsinchu_city",
    "latitude": 24.783808999999998,
    "longitude": 120.9971564,
    "orderLinks": [
      {
        "id": "29fee96a-9718-481f-a2db-47827fe18869",
        "platform": "官網",
        "url": "http://www.burgerking.com.tw/"
      }
    ],
    "rating": 4.1,
    "phone": "03 575 0079"
  },
  {
    "id": "ChIJ_X-SXBk2aDQR2gweJGKLUEA",
    "name": "禾園茶館",
    "address": "300台灣新竹市東區工業東二路1號3樓",
    "region": "hsinchu_city",
    "latitude": 24.779719099999998,
    "longitude": 121.00542099999998,
    "orderLinks": [
      {
        "id": "79ba132d-7f7f-4385-b941-1d8b5a00c2d0",
        "platform": "官網",
        "url": "https://www.facebook.com/Heyuan.tea/"
      }
    ],
    "rating": 4.5,
    "phone": "03 666 2706"
  },
  {
    "id": "ChIJhw6zlas3aDQRzYz7p8GDrUo",
    "name": "安好食 寶山店",
    "address": "300台灣新竹市東區寶山路418號",
    "region": "hsinchu_city",
    "latitude": 24.7848501,
    "longitude": 120.9899493,
    "orderLinks": [
      {
        "id": "27c9948e-387b-4004-959d-d43f11ee480f",
        "platform": "官網",
        "url": "https://app.eats365pos.com/tw/tc/anhao_food_treasure_mountain"
      }
    ],
    "rating": 4.8,
    "phone": "03 577 4189"
  },
  {
    "id": "ChIJiYFArvY3aDQRRNGDeggpPCk",
    "name": "Nude 裸色茶啡",
    "address": "300台灣新竹市東區創新二路7號",
    "region": "hsinchu_city",
    "latitude": 24.7791463,
    "longitude": 120.9962314,
    "orderLinks": [
      {
        "id": "564a08bc-e9ca-4ea6-9ef0-5dac716299cc",
        "platform": "官網",
        "url": "https://www.facebook.com/nudetrendycafe/"
      }
    ],
    "rating": 4.4,
    "phone": "03 668 7691"
  },
  {
    "id": "ChIJ4WQ8CAA3aDQR-emAFviWHvs",
    "name": "義早早午餐-新竹交大店",
    "address": "300台灣新竹市東區大學路1001號研三舍",
    "region": "hsinchu_city",
    "latitude": 24.7839058,
    "longitude": 120.99730149999998,
    "orderLinks": [
      {
        "id": "983a432d-102c-469b-bb66-510771af533a",
        "platform": "官網",
        "url": "https://www.facebook.com/eatmorning162"
      }
    ],
    "rating": 4.4,
    "phone": "03 575 1665"
  },
  {
    "id": "ChIJ-y2DwP81aDQR4EAk6ILKkHA",
    "name": "六家麵店(新竹高翠店)",
    "address": "300台灣新竹市東區高翠路255號",
    "region": "hsinchu_city",
    "latitude": 24.7793441,
    "longitude": 120.98628199999999,
    "orderLinks": [],
    "rating": 4,
    "phone": "03 578 5709"
  },
  {
    "id": "ChIJoRAKjho2aDQRyTO0-JxnIf4",
    "name": "Lim Coffee咖啡館",
    "address": "300台灣新竹市東區展業一路11號",
    "region": "hsinchu_city",
    "latitude": 24.7837075,
    "longitude": 121.0006945,
    "orderLinks": [
      {
        "id": "d4b666cd-2095-40fd-b86f-5d3930c73031",
        "platform": "官網",
        "url": "https://m.facebook.com/Lim-coffee-983335088378049/"
      }
    ],
    "rating": 4.5,
    "phone": "03 666 7707"
  },
  {
    "id": "ChIJz_hO70E3aDQRQ1ewGMF2lDg",
    "name": "天晟燒臘",
    "address": "300093台灣新竹市東區大學路1001-2號",
    "region": "hsinchu_city",
    "latitude": 24.784494199999997,
    "longitude": 120.99952859999998,
    "orderLinks": [],
    "rating": 4.2,
    "phone": "0910 226 721"
  },
  {
    "id": "ChIJbTgnHxA2aDQR3WiUvpbZUzk",
    "name": "國立陽明交通大學第一餐廳",
    "address": "300台灣新竹市東區大學路1001號",
    "region": "hsinchu_city",
    "latitude": 24.786524,
    "longitude": 120.9993977,
    "orderLinks": [],
    "rating": 3.8,
    "phone": "03 571 2121"
  },
  {
    "id": "ChIJK38UiQc2aDQRH_2NF9sR0EY",
    "name": "雙饗丼 新竹寶山店",
    "address": "300台灣新竹市東區寶山路430號",
    "region": "hsinchu_city",
    "latitude": 24.784720399999998,
    "longitude": 120.99010989999998,
    "orderLinks": [
      {
        "id": "63ea94db-da47-43ed-b4d1-214741062124",
        "platform": "官網",
        "url": "https://lin.ee/loAkfyQ"
      }
    ],
    "rating": 4.1,
    "phone": "03 579 9847"
  },
  {
    "id": "ChIJl6JrUf5JaDQRGF2HXgwR8Ws",
    "name": "STARBUCKS 星巴克 (園區門市)不對外開放",
    "address": "300台灣新竹縣寶山鄉研新一路9號",
    "region": "hsinchu_city",
    "latitude": 24.7752198,
    "longitude": 120.9902335,
    "orderLinks": [
      {
        "id": "e22a45c6-46f8-4e77-9b2c-1ebd6435be2b",
        "platform": "官網",
        "url": "https://www.starbucks.com.tw/stores/storesearch.jspx?fetchStore=storehours"
      }
    ],
    "rating": 3.3,
    "phone": "03 666 2818"
  },
  {
    "id": "ChIJY6QMvPw1aDQRU5d1WnGvPRg",
    "name": "拉亞漢堡 新竹寶山",
    "address": "300台灣新竹市東區寶山路440號",
    "region": "hsinchu_city",
    "latitude": 24.7846902,
    "longitude": 120.9903403,
    "orderLinks": [
      {
        "id": "04c0bb9a-d988-481e-9476-6805e698ce27",
        "platform": "官網",
        "url": "https://now.laya.com.tw/table?store=64a4deabc06ca680d4ab24b6"
      }
    ],
    "rating": 3.3,
    "phone": "03 577 8839"
  },
  {
    "id": "ChIJ10olRPhJaDQRt9RVWbLiFeo",
    "name": "海水屋 寶山雙豐店",
    "address": "308台灣新竹縣寶山鄉雙豐路168號",
    "region": "hsinchu_city",
    "latitude": 24.768032100000003,
    "longitude": 120.9889537,
    "orderLinks": [
      {
        "id": "e89f1657-3f38-4b8e-8feb-e9dd78d7ba3e",
        "platform": "官網",
        "url": "https://www.facebook.com/hisweetwu/"
      }
    ],
    "rating": 3.9,
    "phone": "03 529 7749"
  },
  {
    "id": "ChIJe4dmNGZJaDQRB3jetIrgeNY",
    "name": "鑫山複合式餐廳｜進仔薑母鴨",
    "address": "308台灣新竹縣寶山鄉雙園路二段32號",
    "region": "hsinchu_city",
    "latitude": 24.7682945,
    "longitude": 120.99927859999998,
    "orderLinks": [
      {
        "id": "37cea598-6714-4967-bf5a-2409f8b09cd5",
        "platform": "官網",
        "url": "https://www.facebook.com/profile.php?id=100093607753716&mibextid=LQQJ4d"
      }
    ],
    "rating": 4.8,
    "phone": "0933 794 322"
  },
  {
    "id": "ChIJK3tjlv81aDQRrhSz9c_f9ho",
    "name": "孫子文牛肉麵",
    "address": "300台灣新竹市東區高翠路275號",
    "region": "hsinchu_city",
    "latitude": 24.779013,
    "longitude": 120.98591719999999,
    "orderLinks": [
      {
        "id": "8fe8a347-270a-4786-90bc-38dbfe681a16",
        "platform": "官網",
        "url": "https://zh-tw.facebook.com/pages/category/Diner/%E9%87%8D%E6%85%B6%E5%AD%AB%E5%AD%90%E6%96%87%E7%89%9B%E8%82%89%E9%BA%B5-%E9%AB%98%E7%BF%A0%E5%BA%97-332508577104967/"
      }
    ],
    "rating": 4.2,
    "phone": "03 579 7098"
  },
  {
    "id": "ChIJlyob0xc3aDQR61rgFrg_pnw",
    "name": "(3/14～4/5公休 )野夫手作義式披薩(用餐請預約訂位)",
    "address": "308台灣新竹縣寶山鄉雙園路二段182巷55號",
    "region": "hsinchu_city",
    "latitude": 24.7690982,
    "longitude": 120.99448260000001,
    "orderLinks": [
      {
        "id": "1c824598-15d2-4d6f-9401-5d73d6d775c8",
        "platform": "官網",
        "url": "https://www.facebook.com/savagehouse0857/"
      }
    ],
    "rating": 4.8,
    "phone": "0978 651 732"
  },
  {
    "id": "ChIJW71nMwA1aDQRSOswKt0ecxc",
    "name": "小牛比較懶牛肉麵",
    "address": "300台灣新竹市東區高翠路267號",
    "region": "hsinchu_city",
    "latitude": 24.779197999999997,
    "longitude": 120.98611969999999,
    "orderLinks": [
      {
        "id": "39cd00eb-b5ff-4ff7-bc70-48f5c057b3a3",
        "platform": "官網",
        "url": "https://www.facebook.com/share/P5F5qMWBuC2ZVxH1/?mibextid=qi2Omg"
      }
    ],
    "rating": 4.7,
    "phone": "03 579 9799"
  },
  {
    "id": "ChIJtcpfxUpJaDQR130S8WNvSSg",
    "name": "麥味登雙豐店",
    "address": "308台灣新竹縣寶山鄉雙豐路170號",
    "region": "hsinchu_city",
    "latitude": 24.7678053,
    "longitude": 120.98861219999998,
    "orderLinks": [
      {
        "id": "7e3158ab-4857-4257-8cdf-538c2cfe46c3",
        "platform": "官網",
        "url": "https://www.facebook.com/profile.php?id=61553680222718&mibextid=LQQJ4d"
      }
    ],
    "rating": 4.5,
    "phone": "0938 876 170"
  },
  {
    "id": "ChIJB5J3ngA2aDQR1S75vvpl_Cc",
    "name": "阿信快餐便當",
    "address": "300台灣新竹市東區高翠路171號",
    "region": "hsinchu_city",
    "latitude": 24.781006299999998,
    "longitude": 120.98775429999999,
    "orderLinks": [],
    "rating": 4.4,
    "phone": "03 563 5996"
  },
  {
    "id": "ChIJnZ6SoQA2aDQRA5pm7Mf0IU0",
    "name": "盛美平價快炒",
    "address": "300台灣新竹市東區高翠路151號300號",
    "region": "hsinchu_city",
    "latitude": 24.7813956,
    "longitude": 120.98796569999999,
    "orderLinks": [],
    "rating": 4.4,
    "phone": "0912 235 320"
  },
  {
    "id": "ChIJqVJmniE1aDQRA8vVQJHpaok",
    "name": "輝 手作煎餃",
    "address": "300台灣新竹市東區高翠路191號",
    "region": "hsinchu_city",
    "latitude": 24.7806732,
    "longitude": 120.98762740000001,
    "orderLinks": [],
    "rating": 4.9,
    "phone": "0928 577 249"
  },
  {
    "id": "ChIJA5kiogE2aDQRK5i4pgylbAg",
    "name": "星巴克 研新門市 - 限台積員工",
    "address": "300台灣新竹縣寶山鄉研新二路6號",
    "region": "hsinchu_city",
    "latitude": 24.778514899999998,
    "longitude": 120.9916583,
    "orderLinks": [
      {
        "id": "42379b55-f68e-4afd-8295-91bbead71343",
        "platform": "官網",
        "url": "https://www.starbucks.com.tw/"
      }
    ],
    "rating": 3.6,
    "phone": "03 578 5032"
  },
  {
    "id": "ChIJF7xNU1xJaDQRQKv2WB8am2c",
    "name": "鑫山複合式KTV（2F）",
    "address": "308台灣新竹縣寶山鄉雙園路二段32號2樓",
    "region": "hsinchu_city",
    "latitude": 24.768459999999997,
    "longitude": 120.998912,
    "orderLinks": [],
    "rating": 4.7,
    "phone": "0981 477 785"
  },
  {
    "id": "ChIJTXBwqQRJaDQR232sM9GkPSQ",
    "name": "STARBUCKS 星巴克 (台積電5門市)",
    "address": "308台灣新竹縣寶山鄉園區三路121號",
    "region": "hsinchu_city",
    "latitude": 24.774071,
    "longitude": 120.9979912,
    "orderLinks": [
      {
        "id": "910caffe-3e5a-4e14-bc94-2c0518918a70",
        "platform": "官網",
        "url": "https://www.starbucks.com.tw/"
      }
    ],
    "rating": 2.7,
    "phone": "03 578 4754"
  },
  {
    "id": "ChIJxZF9PtBJaDQRjmmMNDSsSoU",
    "name": "Ks’ house",
    "address": "308台灣新竹縣寶山鄉雙園路二段182巷39號",
    "region": "hsinchu_city",
    "latitude": 24.7686673,
    "longitude": 120.99461380000001,
    "orderLinks": [],
    "rating": 4.2,
    "phone": "03 520 1988"
  },
  {
    "id": "ChIJacKTd6JLaDQRZcVp3hBDmLE",
    "name": "橙爺雞排-新竹店",
    "address": "300台灣新竹市東區高翠路319號",
    "region": "hsinchu_city",
    "latitude": 24.778071,
    "longitude": 120.9847338,
    "orderLinks": [
      {
        "id": "344d23e6-b5af-4c03-a715-d383348515d0",
        "platform": "官網",
        "url": "https://www.facebook.com/profile.php?id=61551438960279"
      }
    ],
    "rating": 4.1,
    "phone": "0905 667 975"
  },
  {
    "id": "ChIJI2-EmwA2aDQRYpJWBICgb-I",
    "name": "8+8 早餐坊（高翠路175號）",
    "address": "300台灣新竹市東區高翠路175號",
    "region": "hsinchu_city",
    "latitude": 24.7808782,
    "longitude": 120.98771769999999,
    "orderLinks": [],
    "rating": 3.9,
    "phone": "03 577 8778"
  },
  {
    "id": "ChIJP3iqhgBKaDQR-_NoLxFsKro",
    "name": "沅滷味",
    "address": "300台灣新竹市東區高翠路333號",
    "region": "hsinchu_city",
    "latitude": 24.7777708,
    "longitude": 120.9843978,
    "orderLinks": [],
    "rating": 4.5,
    "phone": "0987 382 800"
  },
  {
    "id": "ChIJ7eH-gQBKaDQRJRLyAy_BAio",
    "name": "美美麵‧飯食館",
    "address": "300台灣新竹市東區高翠路330號",
    "region": "hsinchu_city",
    "latitude": 24.7781761,
    "longitude": 120.98443729999998,
    "orderLinks": [
      {
        "id": "936b9ed0-cbed-4ede-aa14-30c51683a47c",
        "platform": "官網",
        "url": "https://lin.ee/LBcy47R"
      }
    ],
    "rating": 4,
    "phone": "03 562 3288"
  },
  {
    "id": "ChIJjRhrM-ZLaDQRaL2_jbk78sE",
    "name": "功夫茶 KUNGFUTEA 新竹高翠店",
    "address": "300台灣新竹市東區高翠路373號",
    "region": "hsinchu_city",
    "latitude": 24.777222,
    "longitude": 120.98365510000001,
    "orderLinks": [
      {
        "id": "1b608515-59f9-4533-8989-8d2a06440316",
        "platform": "官網",
        "url": "https://lin.ee/vtplI47"
      }
    ],
    "rating": 4.8,
    "phone": "03 564 5588"
  },
  {
    "id": "ChIJzwkaiU83aDQRrTLvSAiuABw",
    "name": "SUBWAY-新竹交大店",
    "address": "300台灣新竹市東區大學路1001號",
    "region": "hsinchu_city",
    "latitude": 24.7892323,
    "longitude": 120.9969874,
    "orderLinks": [
      {
        "id": "e3749a1d-5778-48ad-afbf-0c5f54a55ac6",
        "platform": "官網",
        "url": "https://subway.com.tw/"
      }
    ],
    "rating": 3.3,
    "phone": "03 572 8798"
  },
  {
    "id": "ChIJeXozo_dJaDQRi4nLpChxHDU",
    "name": "老復興飲食店",
    "address": "308台灣新竹縣寶山鄉雙園路二段359號",
    "region": "hsinchu_city",
    "latitude": 24.7646057,
    "longitude": 120.9898604,
    "orderLinks": [],
    "rating": 4.3,
    "phone": "03 520 1237"
  },
  {
    "id": "ChIJL35glSZKaDQRMdk7N84FAR4",
    "name": "鑫園客家菜餐廳",
    "address": "308台灣新竹縣寶山鄉湳坑路二段130號308",
    "region": "hsinchu_city",
    "latitude": 24.764129,
    "longitude": 120.98974399999999,
    "orderLinks": [
      {
        "id": "64e13db9-2d13-40e0-94b2-9df5358c51cb",
        "platform": "官網",
        "url": "https://www.facebook.com/mylove035203706"
      }
    ],
    "rating": 4.2,
    "phone": "03 520 3706"
  },
  {
    "id": "ChIJ-6h7sKdJaDQRUg45gzeh7pA",
    "name": "三本柱薑母鴨x鮮蚵放題 竹科店｜東石鮮蚵｜烤蚵推薦｜新竹必吃｜在地美食｜特色小吃｜秘製烤雞｜台式快炒｜竹科聚會餐廳",
    "address": "308005台灣新竹縣寶山鄉湳坑路二段121巷11號",
    "region": "hsinchu_city",
    "latitude": 24.763390899999997,
    "longitude": 120.98946079999999,
    "orderLinks": [
      {
        "id": "d5c6f27a-ed0c-4f6b-b601-c9c96e623498",
        "platform": "官網",
        "url": "https://www.facebook.com/share/NGhstnmfZDKXsLtz/?mibextid=LQQJ4d"
      }
    ],
    "rating": 4.3,
    "phone": "03 520 5209"
  },
  {
    "id": "ChIJgeM8ZR1KaDQRd3ZqnsrYQ_E",
    "name": "佳禾日式炭燒JIAHE(預約優先制)",
    "address": "308台灣新竹縣寶山鄉明湖路57號",
    "region": "hsinchu_city",
    "latitude": 24.764660499999998,
    "longitude": 120.9872098,
    "orderLinks": [],
    "rating": 4.4,
    "phone": "03 520 0660"
  },
  {
    "id": "ChIJr86JnPdJaDQRcNKHSZsX4x0",
    "name": "葉阿姨蔥油餅麵缐糊(廟旁邊)",
    "address": "308台灣新竹縣寶山鄉雙豐路3號",
    "region": "hsinchu_city",
    "latitude": 24.7653681,
    "longitude": 120.9901865,
    "orderLinks": [],
    "rating": 4.5,
    "phone": "0930 098 948"
  },
  {
    "id": "ChIJn_dp-fBJaDQReAvFZbfDiK4",
    "name": "台北江麻辣臭豆腐專賣舖 寶山店",
    "address": "30841台灣新竹縣寶山鄉湳坑路二段121巷1號",
    "region": "hsinchu_city",
    "latitude": 24.7637885,
    "longitude": 120.9895627,
    "orderLinks": [
      {
        "id": "c3156ecd-6069-4e12-9f53-cc5ce85edbb9",
        "platform": "官網",
        "url": "https://taibeijiang.weebly.com/"
      }
    ],
    "rating": 4.5,
    "phone": "0966 221 298"
  },
  {
    "id": "ChIJdza2palLaDQRR9c0P77T5HE",
    "name": "新寶水煎包",
    "address": "308台灣新竹縣寶山鄉環北路303號",
    "region": "hsinchu_city",
    "latitude": 24.767293499999997,
    "longitude": 120.9843726,
    "orderLinks": [],
    "rating": 4.6,
    "phone": "0984 287 350"
  },
  {
    "id": "ChIJ3-DEIwBJaDQRVzutIaORmkw",
    "name": "米撰雞腿壩王寶山店/池上便當/寶山排隊美食/竹科外送便當/園區外送便當/好吃會議便當/客製活動餐盒/新竹外送午晚餐/新竹排隊便當/來店消費可享免費停車",
    "address": "308台灣新竹縣寶山鄉湳坑路二段121巷15號",
    "region": "hsinchu_city",
    "latitude": 24.763149199999997,
    "longitude": 120.9893962,
    "orderLinks": [
      {
        "id": "028a14a7-ffc9-47ac-a7a7-874491fd1f9a",
        "platform": "官網",
        "url": "https://lin.ee/8G6JnQUA"
      }
    ],
    "rating": 4.5,
    "phone": "0963 513 150"
  },
  {
    "id": "ChIJ5eNfnPdJaDQRqCZvZPUrfRc",
    "name": "寶山廟口香雞排",
    "address": "308台灣新竹縣寶山鄉雙豐路4號",
    "region": "hsinchu_city",
    "latitude": 24.765302499999997,
    "longitude": 120.99018199999999,
    "orderLinks": [],
    "rating": 4.4,
    "phone": "03 520 6346"
  },
  {
    "id": "ChIJlaisFKdJaDQRyBPeugZvwpg",
    "name": "金正好吃-寶山店",
    "address": "308台灣新竹縣寶山鄉雙園路二段372號",
    "region": "hsinchu_city",
    "latitude": 24.764517599999998,
    "longitude": 120.9894003,
    "orderLinks": [],
    "rating": 3.2,
    "phone": "03 520 7733"
  },
  {
    "id": "ChIJf-tJyfdJaDQRS8oBabB5T9Y",
    "name": "大堂牛肉麵",
    "address": "308台灣新竹縣寶山鄉雙園路二段398號",
    "region": "hsinchu_city",
    "latitude": 24.764199299999998,
    "longitude": 120.9886292,
    "orderLinks": [],
    "rating": 3.9,
    "phone": "0912 603 373"
  },
  {
    "id": "ChIJEYEcmwBKaDQRDPC97J4Y_l0",
    "name": "高翠快餐便當店",
    "address": "308台灣新竹縣寶山鄉湳坑路二段121巷5號",
    "region": "hsinchu_city",
    "latitude": 24.763607699999998,
    "longitude": 120.98955360000001,
    "orderLinks": [
      {
        "id": "c5c8113d-8b63-4e60-b6f4-1daca8042d87",
        "platform": "官網",
        "url": "http://www.facebook.com/%E9%AB%98%E5%B3%B0%E5%BF%AB%E9%A4%90%E5%8E%9F%E9%AB%98%E5%B3%B0%E6%B3%B0%E5%BC%8F%E6%96%99%E7%90%86-942987065736709/"
      }
    ],
    "rating": 4,
    "phone": "0906 313 772"
  },
  {
    "id": "ChIJp8LEC-NJaDQRZJSGxR2BFHM",
    "name": "雙醬咖哩雙溪店",
    "address": "308台灣新竹縣寶山鄉雙園路二段410號1樓",
    "region": "hsinchu_city",
    "latitude": 24.764014099999997,
    "longitude": 120.98846169999999,
    "orderLinks": [],
    "rating": 4.7,
    "phone": "03 529 0139"
  },
  {
    "id": "ChIJgz6aKfZJaDQRLicClbH9wzQ",
    "name": "胖老爹美式炸雞 新竹寶山店",
    "address": "308台灣新竹縣寶山鄉寶新路一段12號",
    "region": "hsinchu_city",
    "latitude": 24.7636844,
    "longitude": 120.98769899999999,
    "orderLinks": [],
    "rating": 3.4,
    "phone": "03 520 2242"
  },
  {
    "id": "ChIJM7b5WYJLaDQR8R8LcczJyPg",
    "name": "10 種香料印度餐車 | 10 Spices Indian Food Truck",
    "address": "No, No. 55明湖路寶山鄉新竹縣台灣 308",
    "region": "hsinchu_city",
    "latitude": 24.764597,
    "longitude": 120.98725499999999,
    "orderLinks": [],
    "rating": 4.5,
    "phone": "03 520 0660"
  },
  {
    "id": "ChIJt7OF_MNJaDQRUHdp8Z-DNAg",
    "name": "一衖麵",
    "address": "308台灣新竹縣寶山鄉雙園路一段2巷18弄1衖3號",
    "region": "hsinchu_city",
    "latitude": 24.7708534,
    "longitude": 121.0044382,
    "orderLinks": [],
    "rating": 4.4,
    "phone": "0963 518 036"
  },
  {
    "id": "ChIJy7I_vBg3aDQRnTyiDdv3Is0",
    "name": "八方雲集-新竹科館店",
    "address": "30075台灣新竹市東區工業東二路1號",
    "region": "hsinchu_city",
    "latitude": 24.7796931,
    "longitude": 121.005437,
    "orderLinks": [
      {
        "id": "053c946c-2374-4d9a-8e8b-d44d9bec9c78",
        "platform": "官網",
        "url": "https://www.8way.com.tw/"
      }
    ],
    "rating": 3.2,
    "phone": "03 579 8665"
  },
  {
    "id": "ChIJWy4n6PlJaDQRIJWXs9yU_lM",
    "name": "新寶早餐店 水煎包專賣 - 寶山店",
    "address": "308台灣新竹縣寶山鄉雙園路一段2巷11號",
    "region": "hsinchu_city",
    "latitude": 24.7706837,
    "longitude": 121.00498320000001,
    "orderLinks": [
      {
        "id": "8621eb1d-af31-4d5f-a599-4dca8aad583d",
        "platform": "官網",
        "url": "https://www.facebook.com/Xinbao2/"
      }
    ],
    "rating": 3.9,
    "phone": "03 666 9886"
  },
  {
    "id": "ChIJT3OInnE3aDQRaoK2bk4xQ4w",
    "name": "星巴克 GRC門市",
    "address": "300台灣新竹市東區工業東三路1號",
    "region": "hsinchu_city",
    "latitude": 24.7766722,
    "longitude": 121.007719,
    "orderLinks": [],
    "rating": 4.4,
    "phone": "03 668 7183"
  },
  {
    "id": "ChIJJ8EnqxE3aDQRqCqdVHfpaIU",
    "name": "雙饗丼、鐵板饄竹科店",
    "address": "308台灣新竹縣寶山鄉雙園路一段2巷2號",
    "region": "hsinchu_city",
    "latitude": 24.770774199999998,
    "longitude": 121.00535359999999,
    "orderLinks": [],
    "rating": 3.5,
    "phone": "0920 615 999"
  },
  {
    "id": "ChIJOzIBRRk2aDQRfrEkN8GhbF8",
    "name": "露米亞歐法餐廳",
    "address": "300台灣新竹市東區工業東二路1號3樓",
    "region": "hsinchu_city",
    "latitude": 24.7797591,
    "longitude": 121.00566880000001,
    "orderLinks": [
      {
        "id": "683be85f-c5b5-4b22-bd14-77ee58d236ad",
        "platform": "官網",
        "url": "http://www.facebook.com/LUMIERE.french.restaurant/"
      }
    ],
    "rating": 4.4,
    "phone": "03 563 1213"
  },
  {
    "id": "ChIJSfCPlxFJaDQR-REuB6Z71-8",
    "name": "台灣光罩員工餐廳",
    "address": "308台灣新竹縣寶山鄉創新一路11號",
    "region": "hsinchu_city",
    "latitude": 24.774883,
    "longitude": 120.998159,
    "orderLinks": [],
    "rating": 4,
    "phone": null
  },
  {
    "id": "ChIJw3yGwes3aDQRTaFMjXmE_8o",
    "name": "米諾瓦咖啡｜Minerva Café 晶豪科門市",
    "address": "300台灣新竹市東區工業東四路23號",
    "region": "hsinchu_city",
    "latitude": 24.774535399999998,
    "longitude": 121.0089575,
    "orderLinks": [
      {
        "id": "3240d214-b0d0-4c8e-b060-763260999d66",
        "platform": "官網",
        "url": "http://minerva-cafe.com.tw/"
      }
    ],
    "rating": 4.1,
    "phone": "03 666 8117"
  },
  {
    "id": "ChIJx7T--fpJaDQRs631DZePThU",
    "name": "早餐屋",
    "address": "308台灣新竹縣寶山鄉雙園一街1號",
    "region": "hsinchu_city",
    "latitude": 24.7666936,
    "longitude": 120.9966164,
    "orderLinks": [],
    "rating": 4,
    "phone": "03 529 6663"
  },
  {
    "id": "ChIJxSPSOQA3aDQRL8ijOeNkob0",
    "name": "漢堡王 Burger King 新竹瑞昱店",
    "address": "300台灣新竹市東區園區二路9號",
    "region": "hsinchu_city",
    "latitude": 24.7803839,
    "longitude": 120.99818099999999,
    "orderLinks": [
      {
        "id": "b24f587b-3aa1-46fe-ad2a-cf8ab564ab90",
        "platform": "官網",
        "url": "https://www.burgerking.com.tw/"
      }
    ],
    "rating": 5,
    "phone": "03 563 8018"
  },
  {
    "id": "ChIJscQdTQBJaDQRNrDgLZMFMDU",
    "name": "葫蘆肚小吃",
    "address": "308台灣新竹縣寶山鄉雙溪村",
    "region": "hsinchu_city",
    "latitude": 24.7665915,
    "longitude": 120.9961431,
    "orderLinks": [],
    "rating": 4.7,
    "phone": "0910 156 149"
  },
  {
    "id": "ChIJoVxJluA1aDQRHY63emw8_Qw",
    "name": "沐嵐 · Moonlight",
    "address": "300台灣新竹市東區西大路240號",
    "region": "hsinchu_city",
    "latitude": 24.7984737,
    "longitude": 120.9684659,
    "orderLinks": [
      {
        "id": "ec2ae634-1e30-457c-a366-f448303a9a07",
        "platform": "官網",
        "url": "https://www.facebook.com/profile.php?id=100063921677920"
      }
    ],
    "rating": 4.4,
    "phone": "0977 053 998"
  },
  {
    "id": "ChIJi8wdhOw1aDQR-wdES8TzUTE",
    "name": "石家魚丸",
    "address": "300台灣新竹市东区兴学街27號2９號",
    "region": "hsinchu_city",
    "latitude": 24.797790199999998,
    "longitude": 120.96785919999998,
    "orderLinks": [
      {
        "id": "3e6e6326-b181-4588-8c64-db60647cc247",
        "platform": "官網",
        "url": "https://sfishball.com.tw/"
      }
    ],
    "rating": 4.2,
    "phone": "03 524 2965"
  },
  {
    "id": "ChIJc2x47-41aDQRGRyXzAS-6w4",
    "name": "麥當勞-新竹食品餐廳",
    "address": "300台灣新竹市東區食品路228號",
    "region": "hsinchu_city",
    "latitude": 24.7950926,
    "longitude": 120.972557,
    "orderLinks": [
      {
        "id": "a0c3cc60-892e-4a3c-bd83-45474972c4c8",
        "platform": "官網",
        "url": "https://www.mcdonalds.com/tw/zh-tw.html"
      }
    ],
    "rating": 4,
    "phone": "03 562 6201"
  },
  {
    "id": "ChIJIcZk3Og1aDQRdJsrA8DdVxU",
    "name": "小鵲幸 車輪餅 - 新竹東南 起家店",
    "address": "300台灣新竹市東區東南街118號",
    "region": "hsinchu_city",
    "latitude": 24.797784,
    "longitude": 120.97397099999998,
    "orderLinks": [
      {
        "id": "79428b96-81d4-43dd-85f3-cdcd5ee32bd3",
        "platform": "官網",
        "url": "https://m.facebook.com/alittlehappinesscake"
      }
    ],
    "rating": 4.4,
    "phone": "0968 825 608"
  },
  {
    "id": "ChIJGXRRUeY1aDQRSRZx8N61PWM",
    "name": "每天都要吃早餐",
    "address": "300台灣新竹市東區東山街85號",
    "region": "hsinchu_city",
    "latitude": 24.7976983,
    "longitude": 120.97855759999999,
    "orderLinks": [
      {
        "id": "022bcd3c-2960-4882-aab1-718d88b4e5f4",
        "platform": "官網",
        "url": "https://www.facebook.com/frogfishhouse/"
      }
    ],
    "rating": 4.3,
    "phone": "03 575 0393"
  },
  {
    "id": "ChIJjao5u-I1aDQRS05YLtXGgXU",
    "name": "新築窟（蔬食）",
    "address": "300台灣新竹市東區南大路166號",
    "region": "hsinchu_city",
    "latitude": 24.800979400000003,
    "longitude": 120.9747396,
    "orderLinks": [
      {
        "id": "ca2952e3-c92f-4c75-a4c9-7bd125d5b128",
        "platform": "官網",
        "url": "https://oohchacha.net/"
      }
    ],
    "rating": 4.6,
    "phone": "03 562 3005"
  },
  {
    "id": "ChIJdcmEgJ01aDQRYaYnPKu3ONQ",
    "name": "陶板屋 新竹食品店",
    "address": "300台灣新竹市东区食品路305-1號2F",
    "region": "hsinchu_city",
    "latitude": 24.7946699,
    "longitude": 120.97288719999999,
    "orderLinks": [
      {
        "id": "c9b83264-5ab1-46a8-abee-c25a6864a09e",
        "platform": "官網",
        "url": "https://www.tokiya.com.tw/"
      }
    ],
    "rating": 4.7,
    "phone": "03 561 7168"
  },
  {
    "id": "ChIJ9e6ChgQ1aDQRf24OfsMpnz8",
    "name": "竹美港式茶餐廳 學府店(沒有訂位服務)",
    "address": "300台灣新竹市東區學府路73號",
    "region": "hsinchu_city",
    "latitude": 24.7947709,
    "longitude": 120.9781473,
    "orderLinks": [
      {
        "id": "18f2e053-0dce-4d13-a02e-1abc97cb5d6b",
        "platform": "官網",
        "url": "https://www.facebook.com/Chumei03"
      }
    ],
    "rating": 4.8,
    "phone": "03 516 0189"
  },
  {
    "id": "ChIJXTIi5-k1aDQR3GLsy69Gx5g",
    "name": "田記烤鴨",
    "address": "30062台灣新竹市東區食品路416號",
    "region": "hsinchu_city",
    "latitude": 24.7938543,
    "longitude": 120.96807129999998,
    "orderLinks": [],
    "rating": 3.8,
    "phone": "03 562 2082"
  },
  {
    "id": "ChIJZ93aQGU1aDQR8CUD11D7p5I",
    "name": "斜角古早味綿綿冰（紅豆湯、燒仙草）",
    "address": "300台灣新竹市東區南大路393號",
    "region": "hsinchu_city",
    "latitude": 24.7966017,
    "longitude": 120.96824509999999,
    "orderLinks": [
      {
        "id": "5d355226-7151-40c6-bd29-5d8121dce54d",
        "platform": "官網",
        "url": "https://instagram.com/obliqueangle_ice?utm_medium=copy_link"
      }
    ],
    "rating": 4.8,
    "phone": "03 562 1212"
  },
  {
    "id": "ChIJ6Zt5Y481aDQRG8mZ-cJZxMM",
    "name": "太空總薯-韓式2號店",
    "address": "300台灣新竹市東區食品路134巷1號",
    "region": "hsinchu_city",
    "latitude": 24.797800799999997,
    "longitude": 120.9770318,
    "orderLinks": [
      {
        "id": "b0e49f90-3e8d-4e06-8457-568a9b40380c",
        "platform": "官網",
        "url": "https://space-potato.com/chillspace02/"
      }
    ],
    "rating": 4.5,
    "phone": "03 562 9981"
  },
  {
    "id": "ChIJlVNAE141aDQREbYAaPPmb7k",
    "name": "星巴克 新竹動物園門市",
    "address": "300台灣新竹市東區博愛街111號1樓、2樓",
    "region": "hsinchu_city",
    "latitude": 24.800134999999997,
    "longitude": 120.97919449999999,
    "orderLinks": [
      {
        "id": "fb04c148-ad0c-43d2-af21-8c274149d683",
        "platform": "官網",
        "url": "http://www.starbucks.com.tw/"
      }
    ],
    "rating": 4.5,
    "phone": "03 561 9940"
  },
  {
    "id": "ChIJL7QPnzU1aDQRicUeA--NAX0",
    "name": "福徠鴨新台式烤鴨Fu DUCK IN",
    "address": "300台灣新竹市東區西大路74號",
    "region": "hsinchu_city",
    "latitude": 24.795923,
    "longitude": 120.971375,
    "orderLinks": [
      {
        "id": "2b5b33b0-0ef0-489a-90e1-0202c2df0dc5",
        "platform": "官網",
        "url": "https://www.facebook.com/profile.php?id=100090528368797&mibextid=LQQJ4d"
      }
    ],
    "rating": 4.7,
    "phone": "03 562 6208"
  },
  {
    "id": "ChIJQ4a1ouY1aDQROl6yOqnEOAk",
    "name": "阿婆早餐麵店",
    "address": "300台灣新竹市東區東山街6號",
    "region": "hsinchu_city",
    "latitude": 24.7957423,
    "longitude": 120.9804408,
    "orderLinks": [
      {
        "id": "21d9f697-524c-4068-80c0-46c3b0e30d47",
        "platform": "官網",
        "url": "https://www.facebook.com/%E9%98%BF%E5%A9%86%E6%97%A9%E9%A4%90%E9%BA%B5%E5%BA%97-136808669740035/"
      }
    ],
    "rating": 4.1,
    "phone": "03 573 0765"
  },
  {
    "id": "ChIJ_7fcdME1aDQRWtEib01QRiM",
    "name": "麥當勞-新竹南大餐廳",
    "address": "300台灣新竹市東區南大路337號1樓",
    "region": "hsinchu_city",
    "latitude": 24.7975607,
    "longitude": 120.96976639999998,
    "orderLinks": [
      {
        "id": "4a19a08b-860a-464f-8031-e903c1739235",
        "platform": "官網",
        "url": "https://www.mcdonalds.com/tw/zh-tw.html"
      }
    ],
    "rating": 3.9,
    "phone": "03 561 0742"
  },
  {
    "id": "ChIJC3sUquk1aDQRNG-5KpPLCY4",
    "name": "六扇門時尚湯鍋 新竹東南店",
    "address": "300台灣新竹市東區東南街55號",
    "region": "hsinchu_city",
    "latitude": 24.7994433,
    "longitude": 120.9730098,
    "orderLinks": [
      {
        "id": "e001e1a2-a365-4a95-9049-8ad5df3ce239",
        "platform": "官網",
        "url": "https://www.facebook.com/%E5%85%AD%E6%89%87%E9%96%80%E6%99%82%E5%B0%9A%E6%B9%AF%E9%8D%8B-%E6%96%B0%E7%AB%B9%E6%9D%B1%E5%8D%97%E5%BA%97-118580048759570/?fref=ts"
      }
    ],
    "rating": 4,
    "phone": "03 562 3111"
  },
  {
    "id": "ChIJRaoIx901aDQRhhAjzab5Kjs",
    "name": "億品鍋-新竹食品店",
    "address": "300台灣新竹市東區食品路262號",
    "region": "hsinchu_city",
    "latitude": 24.7944326,
    "longitude": 120.9717101,
    "orderLinks": [],
    "rating": 4.6,
    "phone": "03 562 0262"
  },
  {
    "id": "ChIJG9E4koA1aDQR8rDCdDVbitk",
    "name": "TWINS 廚房 正宗西藏青海羊排炕鍋",
    "address": "300台灣新竹市東區南大路107號",
    "region": "hsinchu_city",
    "latitude": 24.8012668,
    "longitude": 120.97574689999999,
    "orderLinks": [
      {
        "id": "016c539e-e2ac-4e2f-bae7-fa33555502c5",
        "platform": "官網",
        "url": "https://www.facebook.com/TWINS-%E5%BB%9A%E6%88%BF-%E6%AD%A3%E5%AE%97%E8%A5%BF%E8%97%8F%E9%9D%92%E6%B5%B7%E7%BE%8A%E6%8E%92%E7%82%95%E9%8D%8B-411997322666815/"
      }
    ],
    "rating": 4.4,
    "phone": "0938 625 718"
  },
  {
    "id": "ChIJ4TBgje81aDQRhT5GgrTaF7Q",
    "name": "皇膳湯包 寶山店",
    "address": "300台灣新竹市東區寶山路128號",
    "region": "hsinchu_city",
    "latitude": 24.7924013,
    "longitude": 120.97511909999999,
    "orderLinks": [
      {
        "id": "910fb7e4-e9a9-4067-aab8-576200da2789",
        "platform": "官網",
        "url": "https://zh-tw.facebook.com/%E7%9A%87%E8%86%B3%E6%B9%AF%E5%8C%85-608003859225782/"
      }
    ],
    "rating": 4.4,
    "phone": "0953 622 241"
  },
  {
    "id": "ChIJ_aJ6i-U1aDQRU6l60v2Cvdg",
    "name": "東南漢堡店",
    "address": "300台灣新竹市東區東南街54號",
    "region": "hsinchu_city",
    "latitude": 24.7990116,
    "longitude": 120.9730649,
    "orderLinks": [
      {
        "id": "57d80571-c998-4896-a57e-deb291f63d7d",
        "platform": "官網",
        "url": "https://www.facebook.com/%E6%9D%B1%E5%8D%97%E6%BC%A2%E5%A0%A1%E5%BA%97-155186874639390/"
      }
    ],
    "rating": 4.3,
    "phone": "03 562 3177"
  },
  {
    "id": "ChIJq2H9q4I1aDQRFEE9aMGuIvs",
    "name": "艷麗Pondok Sunny",
    "address": "300台灣新竹市東區南大路52號",
    "region": "hsinchu_city",
    "latitude": 24.802760799999998,
    "longitude": 120.977823,
    "orderLinks": [
      {
        "id": "3b48a5c5-8401-4cd3-9fbb-fc71b1b281de",
        "platform": "官網",
        "url": "https://www.pondok-sunny.com/"
      }
    ],
    "rating": 4.5,
    "phone": "0965 356 956"
  },
  {
    "id": "ChIJPaT0WVQ1aDQRt5rrq5IsHJ8",
    "name": "柒伍無煙燒肉",
    "address": "300台灣新竹市東區大同路23號",
    "region": "hsinchu_city",
    "latitude": 24.803180599999997,
    "longitude": 120.96967509999999,
    "orderLinks": [
      {
        "id": "ecac0618-9eb6-4c5e-9daa-fd4b8516b2e0",
        "platform": "官網",
        "url": "https://www.facebook.com/pages/category/Restaurant/%E6%9F%92%E4%BC%8D%E7%84%A1%E7%85%99%E7%87%92%E8%82%89-104084347787019/"
      }
    ],
    "rating": 4.9,
    "phone": "03 543 7575"
  },
  {
    "id": "ChIJ350Fswo1aDQR7AoBMbVo2tg",
    "name": "良家手工港式點心坊",
    "address": "300台灣新竹市東區花園街19號",
    "region": "hsinchu_city",
    "latitude": 24.8034714,
    "longitude": 120.9779449,
    "orderLinks": [
      {
        "id": "a0a4f74f-ecc2-4616-b899-00582856fa41",
        "platform": "官網",
        "url": "https://lin.ee/foem1Pw"
      }
    ],
    "rating": 4.4,
    "phone": "03 561 2818"
  },
  {
    "id": "ChIJV0TGlME1aDQRy0Kuutn6-Wc",
    "name": "好豆味冰沙豆花",
    "address": "300台灣新竹市東區勝利路20號",
    "region": "hsinchu_city",
    "latitude": 24.803296,
    "longitude": 120.97000309999999,
    "orderLinks": [
      {
        "id": "3d6be099-2426-42bb-b86a-c32866b0a589",
        "platform": "官網",
        "url": "https://www.facebook.com/DouWeiDouHuaDian/"
      }
    ],
    "rating": 4.3,
    "phone": "03 523 2860"
  },
  {
    "id": "ChIJvZU_Teo1aDQRbwKXyGAfAXA",
    "name": "原味鴨肉麵",
    "address": "300台灣新竹市東區勝利路59號",
    "region": "hsinchu_city",
    "latitude": 24.800525200000003,
    "longitude": 120.96841560000001,
    "orderLinks": [
      {
        "id": "70e13169-a368-4f35-88e4-78ad02b9f064",
        "platform": "官網",
        "url": "https://www.facebook.com/profile.php?id=100057360411659"
      }
    ],
    "rating": 4.3,
    "phone": "03 523 4812"
  },
  {
    "id": "ChIJmSEKN8c1aDQRgY2PNGL1G4Y",
    "name": "竹東邱記排骨酥麵-新竹店",
    "address": "300台灣新竹市東區公園路270號",
    "region": "hsinchu_city",
    "latitude": 24.8031737,
    "longitude": 120.97946820000001,
    "orderLinks": [
      {
        "id": "3662fa65-daa1-4984-ac3a-55bd23e1b1ce",
        "platform": "官網",
        "url": "https://www.facebook.com/373781029372787/posts/3486399568110902/?extid=qGIX4B0KtmzcKYSQ&d=n"
      }
    ],
    "rating": 4,
    "phone": "03 523 3678"
  },
  {
    "id": "ChIJcSaqW-A1aDQRhWAdEK6Ygws",
    "name": "璽子牛肉麵（新竹博愛店）",
    "address": "300台灣新竹市東區博愛街31號",
    "region": "hsinchu_city",
    "latitude": 24.7974231,
    "longitude": 120.985294,
    "orderLinks": [
      {
        "id": "24fd7c5b-7107-4642-a4a0-427b2f6fde49",
        "platform": "官網",
        "url": "https://sizih2007.weebly.com/"
      }
    ],
    "rating": 4.2,
    "phone": "03 571 5959"
  },
  {
    "id": "ChIJ_7fcdME1aDQRUmPgoQZDOmY",
    "name": "麥當勞-新竹中正餐廳",
    "address": "300台灣新竹市東區中正路34號",
    "region": "hsinchu_city",
    "latitude": 24.803469699999997,
    "longitude": 120.97120249999999,
    "orderLinks": [
      {
        "id": "24b628d6-e3b6-40dc-bc24-dcaf7f2e7889",
        "platform": "官網",
        "url": "https://www.mcdonalds.com/tw/zh-tw.html"
      }
    ],
    "rating": 3.7,
    "phone": "03 522 0258"
  },
  {
    "id": "ChIJcbhLsOs1aDQRCOeawP2RSxo",
    "name": "刀削麵",
    "address": "300台灣新竹市東區中華路二段572號",
    "region": "hsinchu_city",
    "latitude": 24.799809900000003,
    "longitude": 120.96783789999998,
    "orderLinks": [],
    "rating": 4.3,
    "phone": "03 524 8760"
  },
  {
    "id": "ChIJ-3Eeyt01aDQRYtBEy85vrsI",
    "name": "公園黑乾麵",
    "address": "300台灣新竹市東區體育街82號",
    "region": "hsinchu_city",
    "latitude": 24.802661999999998,
    "longitude": 120.980532,
    "orderLinks": [],
    "rating": 4.1,
    "phone": "03 562 2527"
  },
  {
    "id": "ChIJBxRPBI41aDQRYs7u-Oq4Pm4",
    "name": "春室 SPRING POOL GLASS STUDIO + The POOL",
    "address": "300台灣新竹市東區東大路一段2號",
    "region": "hsinchu_city",
    "latitude": 24.801322499999998,
    "longitude": 120.9784957,
    "orderLinks": [
      {
        "id": "61b7c991-ad2a-4700-9f19-d8c614d229a8",
        "platform": "官網",
        "url": "https://www.glasspoolstore.com/pages/about-springpoolglassstudio"
      }
    ],
    "rating": 4.6,
    "phone": "03 561 1039"
  },
  {
    "id": "ChIJgQJ9bqM1aDQRJcvuSbkJMcg",
    "name": "辛志平校長故居本館(前棟)",
    "address": "300台灣新竹市東區東門街32號",
    "region": "hsinchu_city",
    "latitude": 24.804337500000003,
    "longitude": 120.9739152,
    "orderLinks": [
      {
        "id": "1e5fd34a-057d-4367-880f-3511b7ded23d",
        "platform": "官網",
        "url": "https://www.facebook.com/Hsinchiping.former.residence/"
      }
    ],
    "rating": 4.4,
    "phone": "03 522 0351"
  },
  {
    "id": "ChIJb9ONMY01aDQRyvNAwiKOhMI",
    "name": "波諾義大利料理 新竹",
    "address": "300台灣新竹市東區南大路525號",
    "region": "hsinchu_city",
    "latitude": 24.791772700000003,
    "longitude": 120.96458659999999,
    "orderLinks": [
      {
        "id": "3025cfe3-9400-4f83-bc8b-a187ea0ff326",
        "platform": "官網",
        "url": "http://buonobella.com/"
      }
    ],
    "rating": 4.2,
    "phone": "03 561 1172"
  },
  {
    "id": "ChIJC9VFWO81aDQRvPDb8uKg9Tw",
    "name": "Mountain House 山房吐司料理 (不接受訂位）",
    "address": "300台灣新竹市東區東南街245號",
    "region": "hsinchu_city",
    "latitude": 24.795131100000003,
    "longitude": 120.97611289999998,
    "orderLinks": [
      {
        "id": "b4aa5b83-0a21-4dd5-ae42-65d3d48afeb0",
        "platform": "iCHEF",
        "url": "https://shop.ichefpos.com/store/zjOvkAVA/ordering?fbclid=PAAaYm8x5IxYUWbytrhZ6qi6cqQd0LI9D_2_M-ZN7IvKUz92KNjWk3xdrxuDA_aem_AY7ZX-3mafZpxBUn_Sjh1trFRO-NPcRVds_I3DWkEy5C-xDZORFziaxJaQevIflT2Qc"
      }
    ],
    "rating": 3.8,
    "phone": "03 572 0177"
  },
  {
    "id": "ChIJAWQbbvM1aDQRWmfTHScOHh8",
    "name": "嘉味火雞肉飯",
    "address": "300台灣新竹市東區南大路828號",
    "region": "hsinchu_city",
    "latitude": 24.7884863,
    "longitude": 120.9667269,
    "orderLinks": [],
    "rating": 4.3,
    "phone": "03 561 2170"
  },
  {
    "id": "ChIJfSEV7xM1aDQRrZZEsF5pO2s",
    "name": "雞肉男雞肉飯",
    "address": "300台灣新竹市東區食品路221號",
    "region": "hsinchu_city",
    "latitude": 24.7958782,
    "longitude": 120.97444970000001,
    "orderLinks": [
      {
        "id": "31be2fda-7302-43de-bd23-bd37549ce04b",
        "platform": "官網",
        "url": "https://www.facebook.com/profile.php?id=100089813297122&locale=zh_TW"
      }
    ],
    "rating": 4.4,
    "phone": "03 562 6221"
  },
  {
    "id": "ChIJ9Z3iN2E1aDQR-FE-fsOF368",
    "name": "一私麵宅新竹店",
    "address": "300台灣新竹市東區東南街223號",
    "region": "hsinchu_city",
    "latitude": 24.7957845,
    "longitude": 120.9756169,
    "orderLinks": [],
    "rating": 4.3,
    "phone": "03 561 2714"
  },
  {
    "id": "ChIJHRp2N-81aDQRMfWb-nwV-1c",
    "name": "麵堂拉麵專賣店",
    "address": "300台灣新竹市東區食品路223號",
    "region": "hsinchu_city",
    "latitude": 24.7958744,
    "longitude": 120.9743727,
    "orderLinks": [
      {
        "id": "ddacff4a-fff8-43b3-8448-f49e95af1097",
        "platform": "官網",
        "url": "https://www.facebook.com/miantang2014/"
      }
    ],
    "rating": 4.4,
    "phone": "03 561 9980"
  },
  {
    "id": "ChIJISOj3OU1aDQRcczo3dgWlOY",
    "name": "La Dolce Vita樂多趣義大利餐廳 店休日請看臉書與IG ～～內用假日低消600",
    "address": "300台灣新竹市東區学府路61巷5-2號",
    "region": "hsinchu_city",
    "latitude": 24.794998099999997,
    "longitude": 120.97791260000001,
    "orderLinks": [
      {
        "id": "3ba0914c-57a9-47fd-a14b-f1395f7174c1",
        "platform": "官網",
        "url": "https://www.facebook.com/dolce0vita/"
      }
    ],
    "rating": 4.4,
    "phone": "03 573 5822"
  },
  {
    "id": "ChIJCVwbK401aDQR9EJK_rACCUU",
    "name": "南大路倪家永和豆漿大王",
    "address": "300台灣新竹市東區南大路716號",
    "region": "hsinchu_city",
    "latitude": 24.7912173,
    "longitude": 120.9641762,
    "orderLinks": [],
    "rating": 4.4,
    "phone": "03 562 3749"
  },
  {
    "id": "ChIJ_8VTWwA1aDQR5F5Ix7-dd6w",
    "name": "貓的堅持（新竹店）創意輕藥膳養生料理",
    "address": "300台灣新竹市東區西大路63號",
    "region": "hsinchu_city",
    "latitude": 24.795660899999998,
    "longitude": 120.97119649999999,
    "orderLinks": [
      {
        "id": "d3b6eb16-66dc-4c60-b2a5-e76240e3f8db",
        "platform": "官網",
        "url": "https://www.facebook.com/profile.php?id=100066772443262&mibextid=LQQJ4d"
      }
    ],
    "rating": 4.6,
    "phone": "0973 525 376"
  },
  {
    "id": "ChIJq0sXzyk1aDQROyG3m3M8GEQ",
    "name": "大爺鹽酥雞",
    "address": "300台灣新竹市東區食品路329號",
    "region": "hsinchu_city",
    "latitude": 24.7943194,
    "longitude": 120.97181549999999,
    "orderLinks": [
      {
        "id": "c717a430-bddb-4a18-9ba7-5fa6971ce74e",
        "platform": "官網",
        "url": "https://m.facebook.com/daye035/"
      }
    ],
    "rating": 4.7,
    "phone": "03 562 0989"
  },
  {
    "id": "ChIJ_zOVDUc1aDQR9xqhYJMoIWU",
    "name": "洞心咖啡廳Heartbeat Cafe-新竹深夜咖啡廳/下午茶/手作甜點 手沖/精品/義式咖啡 輕食/蛋糕 咖啡課程體驗 桌遊/親子/包場/約會/網美/打卡 人氣熱門好評推薦 PTT Dcard",
    "address": "300台灣新竹市東區学府路61巷5-1號",
    "region": "hsinchu_city",
    "latitude": 24.795053499999998,
    "longitude": 120.9779442,
    "orderLinks": [
      {
        "id": "0b7cbdfb-5f10-4322-9673-d6f31d13ebff",
        "platform": "官網",
        "url": "https://heartbeat-cafe.com/"
      }
    ],
    "rating": 4.9,
    "phone": "03 574 0201"
  },
  {
    "id": "ChIJK997kuU1aDQRLsBGt45KTL0",
    "name": "老雲記餃子館",
    "address": "300台灣新竹市東區學府路1號",
    "region": "hsinchu_city",
    "latitude": 24.7941998,
    "longitude": 120.9767696,
    "orderLinks": [
      {
        "id": "73e54b5a-c0fd-4000-b09e-5f40f1cc190b",
        "platform": "官網",
        "url": "https://www.facebook.com/pages/%E8%80%81%E9%9B%B2%E8%A8%98%E9%BA%B5%E9%A3%9F%E9%A4%A8/124591950943493"
      }
    ],
    "rating": 4,
    "phone": "03 572 8840"
  },
  {
    "id": "ChIJDX9LQVY1aDQR_xdO1aAAv70",
    "name": "成功牛排 南大店",
    "address": "300台灣新竹市東區南大路816-2號",
    "region": "hsinchu_city",
    "latitude": 24.788716899999997,
    "longitude": 120.9665774,
    "orderLinks": [],
    "rating": 4.8,
    "phone": "03 562 0301"
  },
  {
    "id": "ChIJ5zwU9As2aDQR-mrTEokhMa4",
    "name": "國立清華大學 小吃部",
    "address": "30013台灣新竹市東區光復路二段101號",
    "region": "hsinchu_city",
    "latitude": 24.7931395,
    "longitude": 120.99310419999999,
    "orderLinks": [
      {
        "id": "2a63313d-ac12-443d-b892-9c14e81570db",
        "platform": "官網",
        "url": "http://www.nthu.edu.tw/"
      }
    ],
    "rating": 4,
    "phone": "03 571 5131"
  },
  {
    "id": "ChIJb9VLFUk1aDQRnA0JcAzd3X8",
    "name": "阿美泰泰",
    "address": "300台灣新竹市東區學府路56號1樓",
    "region": "hsinchu_city",
    "latitude": 24.7961851,
    "longitude": 120.98281659999998,
    "orderLinks": [
      {
        "id": "2a22323e-3a60-4a21-a2f6-9bcbf5222b1d",
        "platform": "官網",
        "url": "https://www.facebook.com/%E9%98%BF%E7%BE%8E%E6%B3%B0%E6%B3%B0-113049507701812/?ref=pages_you_manage"
      }
    ],
    "rating": 4.5,
    "phone": "03 542 0180"
  },
  {
    "id": "ChIJWdjyGww2aDQRNevyzv4kuXg",
    "name": "水木餐廳",
    "address": "300台灣新竹市東區光復路二段101號",
    "region": "hsinchu_city",
    "latitude": 24.7922877,
    "longitude": 120.9940825,
    "orderLinks": [
      {
        "id": "ac768909-78f1-4599-a035-8a37a828a646",
        "platform": "官網",
        "url": "https://facebook.com/waterwoodfoodcourt/"
      }
    ],
    "rating": 4,
    "phone": "03 571 7708"
  },
  {
    "id": "ChIJ1wJ0WuA1aDQRkRYwPLHwGbg",
    "name": "無名早餐店 饅頭肉排蛋",
    "address": "300台灣新竹市東區學府路112號",
    "region": "hsinchu_city",
    "latitude": 24.7966655,
    "longitude": 120.9841455,
    "orderLinks": [
      {
        "id": "cb0001f5-3683-467e-9b69-1ad423df37d4",
        "platform": "官網",
        "url": "https://www.facebook.com/pages/%E7%84%A1%E5%90%8D%E9%A5%85%E9%A0%AD%E8%82%89%E6%8E%92%E8%9B%8B/101511223263792"
      }
    ],
    "rating": 4.3,
    "phone": "03 572 1869"
  },
  {
    "id": "ChIJZZnY0nQ2aDQRaGoa5ALVp4g",
    "name": "麥當勞-新竹清大餐廳",
    "address": "300台灣新竹市東區光復路二段101號清華大學小吃部",
    "region": "hsinchu_city",
    "latitude": 24.792905299999997,
    "longitude": 120.9931201,
    "orderLinks": [
      {
        "id": "c131fa7f-b712-4718-b7a3-38c1e6d1ebdb",
        "platform": "官網",
        "url": "https://www.mcdonalds.com/tw/zh-tw.html"
      }
    ],
    "rating": 3.8,
    "phone": "03 572 7800"
  },
  {
    "id": "ChIJ34d2ouY1aDQRWqPCvKGmAOM",
    "name": "阿寶魯肉飯",
    "address": "300台灣新竹市東區學府路165號",
    "region": "hsinchu_city",
    "latitude": 24.795509799999998,
    "longitude": 120.98032979999999,
    "orderLinks": [
      {
        "id": "33757299-cecd-4fde-a107-2607838d76bb",
        "platform": "官網",
        "url": "https://www.facebook.com/pages/%E9%98%BF%E5%AF%B6%E6%BB%B7%E8%82%89%E9%A3%AF/1666286903389622"
      }
    ],
    "rating": 4.2,
    "phone": "0987 679 907"
  },
  {
    "id": "ChIJKTONuuY1aDQRLfRSLr5A280",
    "name": "學府牛肉麵",
    "address": "300台灣新竹市東區學府路106號",
    "region": "hsinchu_city",
    "latitude": 24.7966438,
    "longitude": 120.9839793,
    "orderLinks": [
      {
        "id": "6f87f1f8-2b79-4cbd-8d20-37e669880317",
        "platform": "官網",
        "url": "https://www.facebook.com/xuefu.com.tw/"
      }
    ],
    "rating": 4,
    "phone": "03 571 3889"
  },
  {
    "id": "ChIJ-0IMjD41aDQRNX6ISUK3fM4",
    "name": "富珍鄉豬腳專賣店",
    "address": "300台灣新竹市東區學府路359號",
    "region": "hsinchu_city",
    "latitude": 24.797373999999998,
    "longitude": 120.98541429999999,
    "orderLinks": [
      {
        "id": "ab1bbdc6-670b-40eb-bd6d-f553484fb44e",
        "platform": "官網",
        "url": "https://m.facebook.com/%E5%AF%8C%E7%8F%8D%E9%84%89%E8%B1%AC%E8%85%B3%E5%B0%88%E8%B3%A3%E5%BA%97-110670497871850/"
      }
    ],
    "rating": 4.4,
    "phone": "03 571 2448"
  },
  {
    "id": "ChIJAx_vf8k1aDQRrFqfIvZIkj8",
    "name": "德本家 tokumoto_brunch",
    "address": "300台灣新竹市東區學府路349號",
    "region": "hsinchu_city",
    "latitude": 24.797202799999997,
    "longitude": 120.98504899999999,
    "orderLinks": [
      {
        "id": "16af6a51-a56e-409b-a55e-fa072e780052",
        "platform": "官網",
        "url": "https://store.dudooeat.com/order/store/517182804fc849149d451d726854bf58"
      }
    ],
    "rating": 4.1,
    "phone": "03 575 0025"
  },
  {
    "id": "ChIJby-2HuE1aDQRNArFQxLa3fc",
    "name": "興達飲食店（臭臉麵店）",
    "address": "300台灣新竹市東區學府路289號",
    "region": "hsinchu_city",
    "latitude": 24.7966497,
    "longitude": 120.9835907,
    "orderLinks": [],
    "rating": 4.3,
    "phone": "03 571 1671"
  },
  {
    "id": "ChIJB9M8cFY1aDQRpO-KFUnTIMY",
    "name": "湘月食堂",
    "address": "300台灣新竹市東區學府路126號",
    "region": "hsinchu_city",
    "latitude": 24.796759299999998,
    "longitude": 120.98442409999998,
    "orderLinks": [
      {
        "id": "607afdce-3b7e-4fcc-a140-761227261c19",
        "platform": "官網",
        "url": "https://www.facebook.com/%E6%B9%98%E6%9C%88%E9%A3%9F%E5%A0%82-105523347604292/"
      }
    ],
    "rating": 4.4,
    "phone": "03 572 7990"
  },
  {
    "id": "ChIJ10ye_eA1aDQRjlUTgWdZBhg",
    "name": "丐幫滷味學府分舵",
    "address": "300台灣新竹市東區學府路321號1樓",
    "region": "hsinchu_city",
    "latitude": 24.7968731,
    "longitude": 120.98419659999999,
    "orderLinks": [
      {
        "id": "155fc63f-1d28-4060-b22c-3057a1854a5c",
        "platform": "官網",
        "url": "http://www.gaibom.com/"
      }
    ],
    "rating": 4.4,
    "phone": "03 572 0167"
  },
  {
    "id": "ChIJVVVVVdw1aDQRxmQEm2Ub6Y8",
    "name": "168新加坡美食",
    "address": "300台灣新竹市東區學府路307號",
    "region": "hsinchu_city",
    "latitude": 24.7968101,
    "longitude": 120.9840636,
    "orderLinks": [
      {
        "id": "35b26155-07ef-4826-86f0-15a12d9a1533",
        "platform": "官網",
        "url": "https://m.facebook.com/profile.php?id=412430385451571"
      }
    ],
    "rating": 4,
    "phone": "03 572 1881"
  },
  {
    "id": "ChIJs8wLNeE1aDQR0c8v55zprZo",
    "name": "楊家古早味美食（滷肉飯鍋燒麵小卷米粉）",
    "address": "300台灣新竹市東區學府路215號",
    "region": "hsinchu_city",
    "latitude": 24.796045499999998,
    "longitude": 120.98193930000001,
    "orderLinks": [
      {
        "id": "bb40ea0f-5138-41af-86b7-87ec696dd52b",
        "platform": "官網",
        "url": "https://www.facebook.com/yang5710520/"
      }
    ],
    "rating": 4.3,
    "phone": "03 571 0520"
  },
  {
    "id": "ChIJgeYQOAA1aDQRDlIctmyNIes",
    "name": "廖哩",
    "address": "300039台灣新竹市東區學府路66號",
    "region": "hsinchu_city",
    "latitude": 24.7962296,
    "longitude": 120.98293489999999,
    "orderLinks": [
      {
        "id": "d86517c4-5d99-43ce-98bb-9c4347c2b581",
        "platform": "官網",
        "url": "https://www.facebook.com/profile.php?id=100054571474227"
      }
    ],
    "rating": 4.8,
    "phone": "03 572 0725"
  },
  {
    "id": "ChIJJ2_AGeE1aDQREfl-QL9DvqY",
    "name": "山東饅頭 學府店",
    "address": "300台灣新竹市東區學府路86號",
    "region": "hsinchu_city",
    "latitude": 24.7965517,
    "longitude": 120.98374720000001,
    "orderLinks": [],
    "rating": 4.3,
    "phone": "03 571 0268"
  },
  {
    "id": "ChIJOeu-v0o3aDQRuarZyVxLYAM",
    "name": "森森燒肉 新竹清大店",
    "address": "300台灣新竹市東區光復路二段151號",
    "region": "hsinchu_city",
    "latitude": 24.7980508,
    "longitude": 120.99444240000001,
    "orderLinks": [
      {
        "id": "d92eaf58-e6e6-4708-a759-1444a5dee406",
        "platform": "官網",
        "url": "https://www.facebook.com/morimorifb.tw/"
      }
    ],
    "rating": 4.9,
    "phone": "03 574 5338"
  },
  {
    "id": "ChIJbZAbVnE2aDQRolSy1dAf1Yk",
    "name": "段純貞建功店",
    "address": "300台灣新竹市東區建功一路135號",
    "region": "hsinchu_city",
    "latitude": 24.8026457,
    "longitude": 120.9937853,
    "orderLinks": [
      {
        "id": "7955496b-773d-4ccd-89c8-53a4114a5ea7",
        "platform": "Ocard 線上點",
        "url": "https://order.ocard.co/jiangong/w2O74Q?a&utm_source=bot&utm_medium=line"
      }
    ],
    "rating": 4.1,
    "phone": "03 574 8838"
  },
  {
    "id": "ChIJHy5wqxM2aDQRl3YZgSm68gs",
    "name": "大拇指小館",
    "address": "300台灣新竹市東區光復路二段52號",
    "region": "hsinchu_city",
    "latitude": 24.7918314,
    "longitude": 121.0036282,
    "orderLinks": [
      {
        "id": "16be019c-6a19-46e1-9ec2-9d41feb2fc49",
        "platform": "官網",
        "url": "https://www.facebook.com/pages/%E5%A4%A7%E6%8B%87%E6%8C%87%E5%B0%8F%E9%A4%A8/199856016705637"
      }
    ],
    "rating": 4.1,
    "phone": "03 571 2519"
  },
  {
    "id": "ChIJayjir3I2aDQR0TGPgfctBdI",
    "name": "立晉豆花",
    "address": "300台灣新竹市東區建功一路6號",
    "region": "hsinchu_city",
    "latitude": 24.796863600000002,
    "longitude": 120.99839779999999,
    "orderLinks": [
      {
        "id": "d47e4408-17d1-46a8-9202-e5e0995a9735",
        "platform": "官網",
        "url": "https://www.facebook.com/%E7%AB%8B%E6%99%89%E5%82%B3%E7%B5%B1%E8%B1%86%E8%8A%B1-246909422001492/"
      }
    ],
    "rating": 4,
    "phone": "03 572 8389"
  },
  {
    "id": "ChIJczUaDXQ2aDQRLvxS6dQ5FJA",
    "name": "Go eat Tapas Dining BAR 西班牙餐酒館(新竹)",
    "address": "300台灣新竹市東區新源街108號",
    "region": "hsinchu_city",
    "latitude": 24.802104900000003,
    "longitude": 120.99310759999999,
    "orderLinks": [
      {
        "id": "7ff4e428-a1c1-49ef-a674-212e3743f583",
        "platform": "官網",
        "url": "https://www.facebook.com/goeattapas"
      }
    ],
    "rating": 4.4,
    "phone": "03 574 0267"
  },
  {
    "id": "ChIJh6ttAnc3aDQRQZu7vCFQcO8",
    "name": "「拾起回憶」石憶食鍋/restaurants/美食/火鍋",
    "address": "300台灣新竹市東區忠孝路51號",
    "region": "hsinchu_city",
    "latitude": 24.802334199999997,
    "longitude": 120.99077910000001,
    "orderLinks": [
      {
        "id": "71da34c7-e4be-4181-a42d-f571e9253d80",
        "platform": "官網",
        "url": "https://shiyishiguo.weebly.com/"
      }
    ],
    "rating": 4.9,
    "phone": "03 515 3785"
  },
  {
    "id": "ChIJ-9Ii9Kc3aDQRMsTHCBLmwB8",
    "name": "八二親食 將軍村",
    "address": "300台灣新竹市東區金城一路67號",
    "region": "hsinchu_city",
    "latitude": 24.794518099999998,
    "longitude": 121.0028583,
    "orderLinks": [
      {
        "id": "fd1460ae-933a-4059-9c2b-b0082caa65ac",
        "platform": "inline",
        "url": "https://inline.app/booking/-MYifWETiFJXKjFOhhSP:inline-live-2/-NJvAdx1DJE0-nV2nhSC"
      }
    ],
    "rating": 4.5,
    "phone": "03 572 5566"
  },
  {
    "id": "ChIJRTzE0HI2aDQRWUCg5LibBp4",
    "name": "星巴克 光復清大門市",
    "address": "300台灣新竹市東區光復路二段406號",
    "region": "hsinchu_city",
    "latitude": 24.7971631,
    "longitude": 120.99669200000001,
    "orderLinks": [
      {
        "id": "6d5276c0-afc1-47e4-afb2-4f43d8080995",
        "platform": "官網",
        "url": "http://www.starbucks.com.tw/"
      }
    ],
    "rating": 4.2,
    "phone": "03 571 9138"
  },
  {
    "id": "ChIJV1SB7Ro3aDQROnas-ElaThE",
    "name": "墨竹亭 燃麵本家 新竹光復店",
    "address": "300台灣新竹市東區光復路二段760號",
    "region": "hsinchu_city",
    "latitude": 24.8009557,
    "longitude": 120.98814689999999,
    "orderLinks": [
      {
        "id": "08d215ee-f83c-4b00-9dc6-f069c20fc439",
        "platform": "官網",
        "url": "http://www.mozhuting.com/"
      }
    ],
    "rating": 4.7,
    "phone": "03 572 6622"
  },
  {
    "id": "ChIJ0bhVjHI2aDQRjzZBJ5TBaqw",
    "name": "白鬍子牛排清大店",
    "address": "300台灣新竹市東區建功一路68號",
    "region": "hsinchu_city",
    "latitude": 24.7984396,
    "longitude": 120.9978967,
    "orderLinks": [
      {
        "id": "47cb3357-5b97-4b19-859c-b33d8d475300",
        "platform": "官網",
        "url": "https://www.facebook.com/WBSHsinchu/"
      }
    ],
    "rating": 4.1,
    "phone": "03 573 7889"
  },
  {
    "id": "ChIJe7ACr8s3aDQRgYuBp_30z4c",
    "name": "夜排檔熱炒",
    "address": "300台灣新竹市東區公道五路二段346號",
    "region": "hsinchu_city",
    "latitude": 24.8029057,
    "longitude": 120.99850509999999,
    "orderLinks": [
      {
        "id": "5102e09a-bb9c-4599-85b6-376f3a29a0dc",
        "platform": "官網",
        "url": "https://www.facebook.com/%E5%A4%9C%E6%8E%92%E6%AA%94%E5%95%A4%E9%85%92%E5%B1%8B-206037282746921/"
      }
    ],
    "rating": 4.4,
    "phone": "03 572 5693"
  },
  {
    "id": "ChIJ-wfjv9s3aDQR8dNL3DEilJ0",
    "name": "日出咖啡sunrise cafe",
    "address": "300台灣新竹市東區金城二路4號",
    "region": "hsinchu_city",
    "latitude": 24.7948372,
    "longitude": 121.0031582,
    "orderLinks": [
      {
        "id": "bc1f43e0-4f64-4e5c-9951-dfaad164dfb9",
        "platform": "官網",
        "url": "https://www.facebook.com/profile.php?id=100086621050212"
      }
    ],
    "rating": 4.5,
    "phone": "03 516 9220"
  },
  {
    "id": "ChIJe97NARM2aDQR2D8S7rJCTmQ",
    "name": "成都老鍋牛肉麵",
    "address": "300台灣新竹市東區光復路二段126號",
    "region": "hsinchu_city",
    "latitude": 24.7929472,
    "longitude": 121.0020443,
    "orderLinks": [
      {
        "id": "0ad9e206-aca0-44ad-8c83-bf2a2accd072",
        "platform": "官網",
        "url": "https://www.facebook.com/%E6%88%90%E9%83%BD%E8%80%81%E9%8D%8B%E9%BA%B5%E9%A3%9F%E9%A4%A8-1793799754176795/"
      }
    ],
    "rating": 4.5,
    "phone": "03 573 6399"
  },
  {
    "id": "ChIJ_7fcdME1aDQRgoB2x52LFZU",
    "name": "麥當勞-新竹光復二餐廳",
    "address": "300台灣新竹市東區光復路二段241、243號",
    "region": "hsinchu_city",
    "latitude": 24.7996388,
    "longitude": 120.99070429999999,
    "orderLinks": [
      {
        "id": "56b03ffe-e510-4e2e-95b2-51b4bc691dc5",
        "platform": "官網",
        "url": "https://www.mcdonalds.com/tw/zh-tw.html"
      }
    ],
    "rating": 3.5,
    "phone": "03 575 1062"
  },
  {
    "id": "ChIJmXn_p3I2aDQRuxD02EJ1TAM",
    "name": "來來豆漿店",
    "address": "300台灣新竹市東區建功路23號300",
    "region": "hsinchu_city",
    "latitude": 24.7967238,
    "longitude": 120.99900190000001,
    "orderLinks": [],
    "rating": 4.3,
    "phone": "03 572 9750"
  },
  {
    "id": "ChIJGxanrnY2aDQRKcaVOZsSSEY",
    "name": "新竹石頭燒肉火鍋",
    "address": "300台灣新竹市東區水源街99號",
    "region": "hsinchu_city",
    "latitude": 24.803149899999998,
    "longitude": 120.99246629999998,
    "orderLinks": [
      {
        "id": "789b2b41-2510-4bd2-bdd0-390183cd0edf",
        "platform": "官網",
        "url": "http://stone-yakiniku.com.tw/"
      }
    ],
    "rating": 4.4,
    "phone": "03 574 4168"
  },
  {
    "id": "ChIJu1iwKHQ2aDQR0vhX8ipyNzI",
    "name": "長疆炭燒羊肉爐 新竹忠孝店",
    "address": "300台灣新竹市東區忠孝路75號",
    "region": "hsinchu_city",
    "latitude": 24.8029644,
    "longitude": 120.9911049,
    "orderLinks": [
      {
        "id": "66a921ab-542b-4901-9daf-f31a6a5c775b",
        "platform": "官網",
        "url": "https://m.facebook.com/110964513593484/"
      }
    ],
    "rating": 4.1,
    "phone": "03 575 1571"
  },
  {
    "id": "ChIJKTr23BE2aDQRHnwPbEFTM8U",
    "name": "國立陽明交通大學第二餐廳",
    "address": "300台灣新竹市東區大學路1001號",
    "region": "hsinchu_city",
    "latitude": 24.789302,
    "longitude": 120.99719699999999,
    "orderLinks": [
      {
        "id": "e5b7279e-db80-4c58-8066-e58d8e2e18d0",
        "platform": "官網",
        "url": "https://m.facebook.com/nctu.secondrestaurant/?locale2=zh_TW"
      }
    ],
    "rating": 4.3,
    "phone": "03 571 2121"
  },
  {
    "id": "ChIJ2VHNGnk3aDQRIhNo09R4tuk",
    "name": "厚醍牛肉麵 新竹忠孝店",
    "address": "300台灣新竹市東區忠孝路25-1號",
    "region": "hsinchu_city",
    "latitude": 24.8015026,
    "longitude": 120.99012990000001,
    "orderLinks": [
      {
        "id": "e155bf51-7427-493b-846f-5c3c0b9649d1",
        "platform": "官網",
        "url": "https://houti.com.tw/"
      }
    ],
    "rating": 4.4,
    "phone": "03 575 1186"
  },
  {
    "id": "ChIJ2wj3W8M1aDQRK0HnRKo0ptI",
    "name": "Fleur Lis 芙洛麗大飯店",
    "address": "300台灣新竹市東區民族路69號",
    "region": "hsinchu_city",
    "latitude": 24.807078999999998,
    "longitude": 120.97523100000001,
    "orderLinks": [
      {
        "id": "623692b9-3850-4545-8b80-b40c518861e3",
        "platform": "官網",
        "url": "https://www.fls.tw/"
      }
    ],
    "rating": 4.2,
    "phone": "03 623 8899"
  },
  {
    "id": "ChIJY6vDqrc3aDQR97rW6lAZhJY",
    "name": "晶宴會館-御豐館",
    "address": "300台灣新竹市東區公道五路三段1號2樓",
    "region": "hsinchu_city",
    "latitude": 24.8053651,
    "longitude": 120.9916119,
    "orderLinks": [
      {
        "id": "947a919a-57f6-403b-accf-5b7957cf1cdc",
        "platform": "官網",
        "url": "https://www.amazinghall.com.tw/"
      }
    ],
    "rating": 4.5,
    "phone": "03 575 0671"
  },
  {
    "id": "ChIJs_sS8to1aDQRAJv-D_RcMmU",
    "name": "老瀋陽酸菜白肉鍋",
    "address": "300台灣新竹市東區三民路125號",
    "region": "hsinchu_city",
    "latitude": 24.8103217,
    "longitude": 120.97878060000001,
    "orderLinks": [
      {
        "id": "b2483a57-15b0-4388-8e6d-7bbd4ba72a00",
        "platform": "官網",
        "url": "https://www.facebook.com/%E8%80%81%E7%80%8B%E9%99%BD%E9%85%B8%E7%99%BD%E8%8F%9C%E7%81%AB%E9%8D%8B-395619727199635/"
      }
    ],
    "rating": 4.6,
    "phone": "03 535 3338"
  },
  {
    "id": "ChIJo9bce_A1aDQRJh0Uo0lexW8",
    "name": "八二親食 三民店",
    "address": "300台灣新竹市東區三民路43號1樓",
    "region": "hsinchu_city",
    "latitude": 24.8088154,
    "longitude": 120.9755606,
    "orderLinks": [
      {
        "id": "f33a5c60-45d5-4aba-b4a8-a2936a1d14d4",
        "platform": "inline",
        "url": "https://inline.app/booking/-MYifWETiFJXKjFOhhSP:inline-live-2/-MYifWP1-2fNoRgsGxOD"
      }
    ],
    "rating": 4.7,
    "phone": "03 532 2880"
  },
  {
    "id": "ChIJxXgGN4Y1aDQRAPPbDqV62DA",
    "name": "豐華小吃",
    "address": "300台灣新竹市東區民生路147號",
    "region": "hsinchu_city",
    "latitude": 24.810623,
    "longitude": 120.9764186,
    "orderLinks": [],
    "rating": 4.1,
    "phone": "03 535 1234"
  },
  {
    "id": "ChIJ_Z-fVMc1aDQRT3hEKm0RQH8",
    "name": "禾日香古早味魯肉飯",
    "address": "300台灣新竹市東區民族路163號",
    "region": "hsinchu_city",
    "latitude": 24.8091185,
    "longitude": 120.9789441,
    "orderLinks": [
      {
        "id": "dafb9ace-4902-4033-991a-307142f8edca",
        "platform": "官網",
        "url": "https://www.facebook.com/%E7%A6%BE%E6%97%A5%E9%A6%99-%E9%AD%AF%E8%82%89%E9%A3%AF%E5%B0%88%E9%96%80%E5%BA%97-439450116189275/"
      }
    ],
    "rating": 4,
    "phone": "03 528 0276"
  },
  {
    "id": "ChIJvwcX5kE1aDQR37Nb2Wri1hQ",
    "name": "同樂食鍋 新竹巨城三民店",
    "address": "300台灣新竹市東區三民路158號",
    "region": "hsinchu_city",
    "latitude": 24.809898099999998,
    "longitude": 120.9792166,
    "orderLinks": [
      {
        "id": "70ccdb56-b597-4a1f-b08d-5e06889dbc83",
        "platform": "官網",
        "url": "https://www.facebook.com/p/%E5%90%8C%E6%A8%82%E9%A3%9F%E9%8D%8B-%E7%9F%B3%E9%A0%AD%E7%81%AB%E9%8D%8B%E6%B6%AE%E6%B6%AE%E9%8D%8B%E5%B0%88%E8%B3%A3-100063518485791/"
      }
    ],
    "rating": 4.8,
    "phone": "03 535 8800"
  },
  {
    "id": "ChIJk7BAC9E1aDQRcKhHolfreyo",
    "name": "Float Dept.微生咖啡「沒有訂位服務」「無室內候位空間」",
    "address": "300台灣新竹市東區民權路111巷23號",
    "region": "hsinchu_city",
    "latitude": 24.8073311,
    "longitude": 120.97451600000001,
    "orderLinks": [
      {
        "id": "502194aa-1eed-4874-ae7f-38b1b9bc6b1d",
        "platform": "官網",
        "url": "https://www.facebook.com/Floatdept/?epa=SEARCH_BOX"
      }
    ],
    "rating": 4.4,
    "phone": "03 515 3788"
  },
  {
    "id": "ChIJFxGEqts1aDQRDnK9lzSSAMU",
    "name": "一想一響咖啡 | 無提供訂位 | Last Order 21:00",
    "address": "30043台灣新竹市東區民生路58巷8號",
    "region": "hsinchu_city",
    "latitude": 24.8085247,
    "longitude": 120.97893069999998,
    "orderLinks": [
      {
        "id": "b6bae7e1-81dd-4d5f-921b-88d714d74404",
        "platform": "官網",
        "url": "https://www.facebook.com/reecho.coffee/"
      }
    ],
    "rating": 4.2,
    "phone": "03 533 6651"
  },
  {
    "id": "ChIJJfegw9Y1aDQR-tI0qA1iKb8",
    "name": "石二鍋 新竹忠孝店",
    "address": "300台灣新竹市東區忠孝路279-7號",
    "region": "hsinchu_city",
    "latitude": 24.804517999999998,
    "longitude": 120.98554700000001,
    "orderLinks": [
      {
        "id": "785e9fc3-0aa0-4e32-a72b-4281b976cdc5",
        "platform": "官網",
        "url": "https://www.12hotpot.com.tw/"
      }
    ],
    "rating": 4,
    "phone": "03 575 1118"
  },
  {
    "id": "ChIJgz49IhQ1aDQRrsgspC9NxpY",
    "name": "格林小鎮新2.0",
    "address": "300台灣新竹市東區自由路27巷43號",
    "region": "hsinchu_city",
    "latitude": 24.810843799999997,
    "longitude": 120.98057019999999,
    "orderLinks": [
      {
        "id": "0b8d4cff-ab48-4abc-95df-9cd03927d1a2",
        "platform": "官網",
        "url": "https://www.facebook.com/profile.php?id=100063995439195"
      }
    ],
    "rating": 4.4,
    "phone": "0916 300 149"
  },
  {
    "id": "ChIJ18B0wt41aDQR1-xKN8FiW6s",
    "name": "千葉火鍋 新竹尊爵館 (原忠孝店)",
    "address": "300台灣新竹市東區忠孝路281號",
    "region": "hsinchu_city",
    "latitude": 24.803576399999997,
    "longitude": 120.98383419999999,
    "orderLinks": [
      {
        "id": "34b2abab-aa49-4a4e-b058-5b670e6883eb",
        "platform": "官網",
        "url": "https://cyhotpot.net/GShome"
      }
    ],
    "rating": 4.4,
    "phone": "03 572 3525"
  },
  {
    "id": "ChIJ4x8tVGY1aDQRFMfEWoevWjA",
    "name": "蔣好的味道",
    "address": "300台灣新竹市東區鐵道路一段28巷81號",
    "region": "hsinchu_city",
    "latitude": 24.8124319,
    "longitude": 120.9846131,
    "orderLinks": [
      {
        "id": "066e2354-89e1-4777-8cac-8511a616a1d4",
        "platform": "官網",
        "url": "https://m.facebook.com/pages/category/Restaurant/%E8%94%A3%E5%A5%BD%E7%9A%84%E5%91%B3%E9%81%93-320575941851148/"
      }
    ],
    "rating": 4.4,
    "phone": "0924 128 866"
  },
  {
    "id": "ChIJT_jE4RE2aDQROKOEdLQnfsw",
    "name": "漢堡邦",
    "address": "300台灣新竹市東區大學路1005號",
    "region": "hsinchu_city",
    "latitude": 24.7895988,
    "longitude": 120.99930250000001,
    "orderLinks": [],
    "rating": 4.4,
    "phone": "03 516 5912"
  },
  {
    "id": "ChIJy2emtaA3aDQR8ZB6mCYIKLU",
    "name": "Here Space 這家咖啡｜冰滴手沖專売｜甜點｜餐盒外燴｜入所請降低音量（有門禁，請來電）",
    "address": "300台灣新竹市東區大學路1001號第二餐廳３樓",
    "region": "hsinchu_city",
    "latitude": 24.789275,
    "longitude": 120.99709920000001,
    "orderLinks": [],
    "rating": 4.9,
    "phone": "0971 818 434"
  },
  {
    "id": "ChIJ2bPUJAs2aDQRMyEuc3UiISM",
    "name": "清華大學 第二招待所",
    "address": "300台灣新竹市東區光復路二段101號",
    "region": "hsinchu_city",
    "latitude": 24.797029799999997,
    "longitude": 120.9912045,
    "orderLinks": [],
    "rating": 3.9,
    "phone": "03 571 5131#35245"
  },
  {
    "id": "ChIJDSKUxeE1aDQRmjh99J0YA20",
    "name": "種籽蔬食養生早午餐",
    "address": "300台灣新竹市東區博愛街5巷61號",
    "region": "hsinchu_city",
    "latitude": 24.7955971,
    "longitude": 120.98664749999999,
    "orderLinks": [
      {
        "id": "f5baf5ec-a5b5-4aa0-ac2a-22ca69462614",
        "platform": "官網",
        "url": "https://www.facebook.com/%E7%A8%AE%E7%B1%BD%E8%94%AC%E9%A3%9F-351888888528841/"
      }
    ],
    "rating": 4.6,
    "phone": "03 571 3508"
  },
  {
    "id": "ChIJ27R6Bwc2aDQRFopW3o0XlAg",
    "name": "創義食族",
    "address": "300台灣新竹市東區寶山路416號",
    "region": "hsinchu_city",
    "latitude": 24.7848866,
    "longitude": 120.9899167,
    "orderLinks": [],
    "rating": 3.9,
    "phone": "03 668 7798"
  },
  {
    "id": "ChIJh4CYXzs3aDQRxhvOPkO80EE",
    "name": "南部好滋味",
    "address": "300台灣新竹市東區光復路二段155巷78號",
    "region": "hsinchu_city",
    "latitude": 24.7975143,
    "longitude": 120.99234009999999,
    "orderLinks": [
      {
        "id": "0bb86893-76d7-427e-826a-70cc58401a36",
        "platform": "官網",
        "url": "https://www.facebook.com/AlenChen5720771"
      }
    ],
    "rating": 3.8,
    "phone": "03 572 0771"
  },
  {
    "id": "ChIJ0-X0_g43aDQRNVZPMfEoTi0",
    "name": "軒邑快餐",
    "address": "300台灣新竹市東區寶山路426號1樓",
    "region": "hsinchu_city",
    "latitude": 24.7847412,
    "longitude": 120.9900049,
    "orderLinks": [
      {
        "id": "89031344-db24-40df-91f4-529bec0ff6f1",
        "platform": "官網",
        "url": "https://www.facebook.com/profile.php?id=100063660831692&mibextid=ZbWKwL"
      }
    ],
    "rating": 4,
    "phone": "03 666 1949"
  },
  {
    "id": "ChIJTZG0XuA1aDQRVuZEkf_I2Q8",
    "name": "如意麵食館 牛肉麵",
    "address": "300台灣新竹市東區光復路二段746號",
    "region": "hsinchu_city",
    "latitude": 24.8007396,
    "longitude": 120.98862,
    "orderLinks": [
      {
        "id": "233b2db0-d400-47e3-9db7-5ca1adaa1e94",
        "platform": "官網",
        "url": "https://www.facebook.com/Ruiibeafnoodles/?__tn__=,d,P-R&eid=ARB16HM6yKFhOQDFzg_CbQFaVTSY3I2RiruZ1ve0Gb3CsOh-P_adzgFUsIVhNbKEGQb7Ds1yZSjOdD7b"
      }
    ],
    "rating": 4.6,
    "phone": "03 571 0212"
  },
  {
    "id": "ChIJw49gEwA3aDQRlt8g1IbZiJM",
    "name": "亞丁尼義式麵屋 清大店-新竹美食推薦|在地推薦餐廳|必吃義大利麵|平價義大利麵|人氣餐廳|焗烤義大利麵|義式燉飯|焗烤推薦",
    "address": "300台灣新竹市東區光復路二段352號",
    "region": "hsinchu_city",
    "latitude": 24.7963825,
    "longitude": 120.99772989999998,
    "orderLinks": [
      {
        "id": "89252ecc-9130-4035-805b-ad17e316503d",
        "platform": "官網",
        "url": "https://www.instagram.com/yadingni?igsh=MTRlbjQ4eHF0bTFkNA==&utm_source=qr"
      }
    ],
    "rating": 4.8,
    "phone": "03 516 0000"
  },
  {
    "id": "ChIJKcZXvC03aDQR_r2e5qnlOJE",
    "name": "幸福客家麵食館",
    "address": "300台灣新竹市東區光復路二段171號173號",
    "region": "hsinchu_city",
    "latitude": 24.7992079,
    "longitude": 120.99208699999998,
    "orderLinks": [
      {
        "id": "d7b2c571-7d03-4055-9741-283919fcfc9b",
        "platform": "官網",
        "url": "https://www.facebook.com/p/%E5%B9%B8%E7%A6%8F%E5%AE%A2%E5%AE%B6%E9%BA%B5%E9%A3%9F%E9%A4%A8-100063983715533/"
      }
    ],
    "rating": 4.4,
    "phone": "03 516 0118"
  },
  {
    "id": "ChIJASR-N5U1aDQR5OnPyt0zoBU",
    "name": "一百種味道 總店外帶店",
    "address": "300台灣新竹市北區勝利路183號",
    "region": "hsinchu_city",
    "latitude": 24.801403099999998,
    "longitude": 120.96442169999999,
    "orderLinks": [
      {
        "id": "46a21499-2b82-41c7-aee7-a3771495fea4",
        "platform": "官網",
        "url": "https://www.100tastes.com.tw/"
      }
    ],
    "rating": 4.4,
    "phone": null
  },
  {
    "id": "ChIJU1UV0-o1aDQRfb1nhfpbegA",
    "name": "海底撈火鍋 新竹店",
    "address": "300台灣新竹市東區西大路323號4樓",
    "region": "hsinchu_city",
    "latitude": 24.8018619,
    "longitude": 120.96466599999998,
    "orderLinks": [
      {
        "id": "3223c5b0-6a45-4962-b67e-8c5f1399b3d9",
        "platform": "inline",
        "url": "https://inline.app/booking/-LamXb5SAQN7JcJfyRKi:inline-live-2a466/-LbuaqbC2ccoRJPiNuyB"
      }
    ],
    "rating": 4.8,
    "phone": "03 523 3370"
  },
  {
    "id": "ChIJzerQyOo1aDQRWcfl4b61Ekk",
    "name": "鼎泰豐 新竹店",
    "address": "300台灣新竹市東區西大路323號B1",
    "region": "hsinchu_city",
    "latitude": 24.8015395,
    "longitude": 120.96460320000001,
    "orderLinks": [
      {
        "id": "a617628f-687d-4c6f-8ff6-91d2902d572d",
        "platform": "官網",
        "url": "https://www.dintaifung.com.tw/"
      }
    ],
    "rating": 4.5,
    "phone": "03 523 6222"
  },
  {
    "id": "ChIJr1_Szuo1aDQRgiJ4vR0u1e4",
    "name": "饗食天堂 新竹店",
    "address": "300台灣新竹市東區西大路323號9樓",
    "region": "hsinchu_city",
    "latitude": 24.8019347,
    "longitude": 120.9648374,
    "orderLinks": [
      {
        "id": "09730abe-0399-4344-b314-7953dddd1b2b",
        "platform": "官網",
        "url": "https://www.eatogether.com.tw/zh-TW/home"
      }
    ],
    "rating": 4.2,
    "phone": "03 527 8800"
  },
  {
    "id": "ChIJ4QlrdXM1aDQRHncxGKw15cU",
    "name": "山田麻糬製造所",
    "address": "300台灣新竹市東區文昌街85號",
    "region": "hsinchu_city",
    "latitude": 24.8020976,
    "longitude": 120.9667146,
    "orderLinks": [
      {
        "id": "8ee42ee4-a30e-40b1-8fe4-f63ff88f7fdc",
        "platform": "官網",
        "url": "https://yamadamochiya.com/"
      }
    ],
    "rating": 4.2,
    "phone": "0928 325 001"
  },
  {
    "id": "ChIJ3dnarZQ1aDQR9cqxIVNQxcM",
    "name": "墨咖啡 INK COFFEE",
    "address": "300台灣新竹市東區林森路180號",
    "region": "hsinchu_city",
    "latitude": 24.799274,
    "longitude": 120.9643338,
    "orderLinks": [
      {
        "id": "bbf5ba10-6068-4d91-b745-1c040dde455e",
        "platform": "官網",
        "url": "https://line.me/R/ti/p/@225cjqbm"
      }
    ],
    "rating": 4.6,
    "phone": "03 522 0608"
  },
  {
    "id": "ChIJ4XDG8eo1aDQR3-DL--Irw7k",
    "name": "老港陳",
    "address": "300台灣新竹市東區南門街55號",
    "region": "hsinchu_city",
    "latitude": 24.8015537,
    "longitude": 120.96699729999999,
    "orderLinks": [
      {
        "id": "027e1a5a-f95e-4078-be67-4d5e077e0fe5",
        "platform": "官網",
        "url": "https://www.instagram.com/chenqiaoyin2/"
      }
    ],
    "rating": 4,
    "phone": "03 527 8186"
  },
  {
    "id": "ChIJ0ajpYOo1aDQRFvj0fx5fkgI",
    "name": "榮記客家湯圓",
    "address": "300台灣新竹市東區武昌街64號",
    "region": "hsinchu_city",
    "latitude": 24.8021834,
    "longitude": 120.96786259999999,
    "orderLinks": [],
    "rating": 4.1,
    "phone": "03 523 8238"
  },
  {
    "id": "ChIJg1aZ5ZQ1aDQRxib5yEmSpr8",
    "name": "貳參咖啡-西門店「無訂位服務」",
    "address": "300台灣新竹市北區西門街152號",
    "region": "hsinchu_city",
    "latitude": 24.801079299999998,
    "longitude": 120.96268510000002,
    "orderLinks": [
      {
        "id": "8d6434a8-20fb-4dd5-9f58-c63ef6c5e1ea",
        "platform": "官網",
        "url": "https://www.instagram.com/23coffeeroasters2.0?igsh=MWNkZm1ucXgxNjYzcQ=="
      }
    ],
    "rating": 4.7,
    "phone": "03 523 2223"
  },
  {
    "id": "ChIJyfCDFoc1aDQRJduqajHrdPA",
    "name": "築間幸福鍋物 新竹中華店",
    "address": "300台灣新竹市北區中華路三段6號",
    "region": "hsinchu_city",
    "latitude": 24.7973231,
    "longitude": 120.9632943,
    "orderLinks": [
      {
        "id": "b8bc908d-7f19-4562-b1ba-7ca117354db4",
        "platform": "官網",
        "url": "https://linktr.ee/jhujian6666"
      }
    ],
    "rating": 4.5,
    "phone": "03 524 3337"
  },
  {
    "id": "ChIJuTJ0aBQ1aDQRv323E4Wjtnk",
    "name": "嗑肉石鍋-新竹西門店(二代店)",
    "address": "300台灣新竹市北區西門街66號",
    "region": "hsinchu_city",
    "latitude": 24.802438,
    "longitude": 120.9646465,
    "orderLinks": [
      {
        "id": "27884e29-eae3-451f-b61a-ab3b4113d45e",
        "platform": "官網",
        "url": "https://www.meatshotpot.com/"
      }
    ],
    "rating": 4.7,
    "phone": "03 526 6068"
  },
  {
    "id": "ChIJ1-ChtNQ1aDQRdpyukPL0qz4",
    "name": "海瑞摃丸新竹西門總店",
    "address": "300台灣新竹市北區西門街98號",
    "region": "hsinchu_city",
    "latitude": 24.801802499999997,
    "longitude": 120.96379119999997,
    "orderLinks": [
      {
        "id": "c6e82c35-496f-4bbc-a6d1-d1bfde4e410b",
        "platform": "官網",
        "url": "https://www.hairei.com.tw/"
      }
    ],
    "rating": 4.3,
    "phone": "03 526 1115#11"
  },
  {
    "id": "ChIJgxLtY8g1aDQRhdQ0l6licm0",
    "name": "鴨肉許（中央店）",
    "address": "300台灣新竹市東區中央路296號",
    "region": "hsinchu_city",
    "latitude": 24.8100637,
    "longitude": 120.9777522,
    "orderLinks": [],
    "rating": 3.9,
    "phone": "03 532 3683"
  },
  {
    "id": "ChIJQyv318Q1aDQRYz_krC4mdb4",
    "name": "Big City遠東巨城購物中心",
    "address": "30041台灣新竹市東區中央路229號",
    "region": "hsinchu_city",
    "latitude": 24.8098161,
    "longitude": 120.9751319,
    "orderLinks": [
      {
        "id": "b09c2e8c-71f3-43b0-a41a-ba93b2f5decc",
        "platform": "官網",
        "url": "https://www.febigcity.com/bigcity"
      }
    ],
    "rating": 4.4,
    "phone": "03 623 8000"
  },
  {
    "id": "ChIJRU8ga8Q1aDQRtHRng5DN6V4",
    "name": "菜園上海餐廳",
    "address": "300台灣新竹市東區東大路一段136號",
    "region": "hsinchu_city",
    "latitude": 24.808519,
    "longitude": 120.97211199999998,
    "orderLinks": [],
    "rating": 4.5,
    "phone": "03 543 8898"
  },
  {
    "id": "ChIJ4-UpTj01aDQRRyUgXMxYZeg",
    "name": "享鴨 烤鴨與中華料理 新竹北大店",
    "address": "300台灣新竹市北區北大路140號",
    "region": "hsinchu_city",
    "latitude": 24.8102748,
    "longitude": 120.9684104,
    "orderLinks": [
      {
        "id": "64405b7b-1c33-4437-abba-f230b45cf295",
        "platform": "官網",
        "url": "https://www.facebook.com/XIANGDUCK/"
      }
    ],
    "rating": 4.8,
    "phone": "03 535 8689"
  },
  {
    "id": "ChIJETQYfME1aDQRia25uG7BIzg",
    "name": "私嚐の吃飯",
    "address": "300台灣新竹市東區中正路96巷16號300",
    "region": "hsinchu_city",
    "latitude": 24.8056537,
    "longitude": 120.97012289999999,
    "orderLinks": [
      {
        "id": "b70d4b03-6182-496c-bfef-4fe92c48eb5f",
        "platform": "官網",
        "url": "https://www.facebook.com/eat20170319/"
      }
    ],
    "rating": 4.8,
    "phone": "03 525 2006"
  },
  {
    "id": "ChIJh0Kn1Qs1aDQRG5uBSCxubkY",
    "name": "麥當勞 新竹經國店",
    "address": "300台灣新竹市東區經國路一段522號號1樓",
    "region": "hsinchu_city",
    "latitude": 24.814601099999997,
    "longitude": 120.9767868,
    "orderLinks": [
      {
        "id": "17b04d89-885f-4718-a317-53cf30737288",
        "platform": "官網",
        "url": "https://www.mcdonalds.com/tw/zh-tw/full-menu/mccafe.html"
      }
    ],
    "rating": 3.7,
    "phone": "03 535 6469"
  },
  {
    "id": "ChIJK_BsJwM1aDQRrSAouGbezP8",
    "name": "硬派主廚的軟嫩料理-東門市場",
    "address": "300台灣新竹市東區東門市場1143號中央路102巷10號",
    "region": "hsinchu_city",
    "latitude": 24.805497499999998,
    "longitude": 120.96914029999998,
    "orderLinks": [
      {
        "id": "a0c4ca3a-6e12-4baf-bfc7-4700764b2ef5",
        "platform": "官網",
        "url": "https://www.instagram.com/hardcorechiefs?igsh=MTAyYjViaGYwMGlxcQ%3D%3D&utm_source=qr"
      }
    ],
    "rating": 4.5,
    "phone": "03 525 1323"
  },
  {
    "id": "ChIJe8VtwBw1aDQRgk0e3DIGfd8",
    "name": "招財咖啡",
    "address": "300台灣新竹市北區英明街6-1號",
    "region": "hsinchu_city",
    "latitude": 24.8069243,
    "longitude": 120.96746850000001,
    "orderLinks": [
      {
        "id": "56266993-037a-4a4b-8059-b65bd9685119",
        "platform": "inline",
        "url": "https://inline.app/booking/-Mtzt-ua60-H69xtv-9o:inline-live-2/-Mtzt07e6zaky3nEcqx0"
      }
    ],
    "rating": 4.6,
    "phone": "03 525 5602"
  },
  {
    "id": "ChIJPau9rjc1aDQRsSxlBGUC_jM",
    "name": "星巴克 新竹州圖門市",
    "address": "300台灣新竹市東區文化街8號",
    "region": "hsinchu_city",
    "latitude": 24.805214799999998,
    "longitude": 120.9712339,
    "orderLinks": [
      {
        "id": "fe02fcd7-496d-41a7-a6c6-b8c17adcdafb",
        "platform": "官網",
        "url": "https://www.starbucks.com.tw/home/index.jspx?r=15"
      }
    ],
    "rating": 4.3,
    "phone": "03 522 8587"
  },
  {
    "id": "ChIJ_9ABIMc1aDQRCO1p9dxKbCo",
    "name": "小稻甜 Cafe",
    "address": "300台灣新竹市北區北大路166巷1弄1號",
    "region": "hsinchu_city",
    "latitude": 24.809946999999998,
    "longitude": 120.96754619999999,
    "orderLinks": [
      {
        "id": "56514909-ac5a-4ca1-bfb6-7671bd54985c",
        "platform": "官網",
        "url": "http://www.facebook.com/%E5%B0%8F%E7%A8%BB%E7%94%9Ccafe-1759074137656305/"
      }
    ],
    "rating": 4.3,
    "phone": "03 522 5539"
  },
  {
    "id": "ChIJx6GoixY1aDQRxsR6FvE2zQI",
    "name": "JAI宅 義大利麵 新竹巨城",
    "address": "300台灣新竹市東區民權路195號",
    "region": "hsinchu_city",
    "latitude": 24.809943699999998,
    "longitude": 120.9732233,
    "orderLinks": [
      {
        "id": "ea74c2d9-c1e9-4c74-827b-66b0cb9f47e0",
        "platform": "官網",
        "url": "https://www.zunhongtw.com/"
      }
    ],
    "rating": 4.5,
    "phone": "03 543 9988"
  },
  {
    "id": "ChIJpdWHNb01aDQRqHZADwn0ETU",
    "name": "皿富器食 minfood",
    "address": "300台灣新竹市東區錦華街18巷22號",
    "region": "hsinchu_city",
    "latitude": 24.8095958,
    "longitude": 120.9735533,
    "orderLinks": [
      {
        "id": "aa3517ee-6628-44e9-a6d4-0ba6442e3622",
        "platform": "官網",
        "url": "https://www.facebook.com/pages/category/Restaurant/%E7%9A%BF%E5%AF%8C%E5%99%A8%E9%A3%9F-min-food-730091614009830/"
      }
    ],
    "rating": 4.2,
    "phone": "03 535 0908"
  },
  {
    "id": "ChIJu4Mmbrw1aDQRQRhtKEo2d0g",
    "name": "夯下去和牛燒肉放題-新竹經國店",
    "address": "300台灣新竹市東區經國路一段673號寶雅、燦坤對面1樓",
    "region": "hsinchu_city",
    "latitude": 24.813608799999997,
    "longitude": 120.96849619999999,
    "orderLinks": [
      {
        "id": "7b6b9f2e-06bf-459d-906e-0e66e266b58a",
        "platform": "官網",
        "url": "https://www.facebook.com/profile.php?id=100092665744582"
      }
    ],
    "rating": 4.5,
    "phone": "03 531 0363"
  },
  {
    "id": "ChIJJTpUEMA1aDQRze7yA22mBgw",
    "name": "新竹市城隍廟夜市",
    "address": "300台灣新竹市北區中山路75號",
    "region": "hsinchu_city",
    "latitude": 24.804381000000003,
    "longitude": 120.9656054,
    "orderLinks": [],
    "rating": 4.3,
    "phone": "03 522 3666"
  },
  {
    "id": "ChIJRY-PXcA1aDQRKxwFiYrBaBU",
    "name": "許二姊",
    "address": "300台灣新竹市北區北門街35號",
    "region": "hsinchu_city",
    "latitude": 24.8056834,
    "longitude": 120.9657791,
    "orderLinks": [
      {
        "id": "a31c4d4c-1c8e-441a-86c6-3aa3756e65f7",
        "platform": "官網",
        "url": "https://www.facebook.com/HsinchuDuckBoss"
      }
    ],
    "rating": 3.9,
    "phone": "03 524 6574"
  },
  {
    "id": "ChIJDXIE_781aDQRqmf_04ObosU",
    "name": "廟口鴨香飯",
    "address": "300台灣新竹市北區中山路142號",
    "region": "hsinchu_city",
    "latitude": 24.804113899999997,
    "longitude": 120.96450829999999,
    "orderLinks": [
      {
        "id": "9f9b5657-3161-4a11-a076-b6f646fa97f0",
        "platform": "官網",
        "url": "https://www.facebook.com/%E5%BB%9F%E5%8F%A3%E9%B4%A8%E9%A6%99%E9%A3%AF-208058359219862/"
      }
    ],
    "rating": 4.2,
    "phone": "03 523 1190"
  },
  {
    "id": "ChIJsYKD1781aDQRG5QMKQH-qNA",
    "name": "西大發",
    "address": "300台灣新竹市北區長安街3號",
    "region": "hsinchu_city",
    "latitude": 24.8047547,
    "longitude": 120.96548,
    "orderLinks": [
      {
        "id": "0b1e98e1-04e8-43db-85bf-f45ea3ec937e",
        "platform": "官網",
        "url": "https://www.shidafa.com.tw/"
      }
    ],
    "rating": 3.8,
    "phone": "03 525 9115"
  },
  {
    "id": "ChIJ44IrY8c1aDQRNEqX2EYgtmU",
    "name": "源味燉品屋",
    "address": "300台灣新竹市北區中正路217號",
    "region": "hsinchu_city",
    "latitude": 24.811301399999998,
    "longitude": 120.9647876,
    "orderLinks": [
      {
        "id": "d51576fd-29fa-48f7-93c8-fd7054bcac3d",
        "platform": "官網",
        "url": "https://www.facebook.com/pages/%E5%8E%9F%E5%91%B3%E7%87%89%E5%93%81%E5%B1%8B/331001370363962"
      }
    ],
    "rating": 4,
    "phone": "03 525 1361"
  },
  {
    "id": "ChIJu6cle7g1aDQRwuqiQ4MHZQI",
    "name": "華麗風采宴會館",
    "address": "300台灣新竹市北區中正路245號6樓",
    "region": "hsinchu_city",
    "latitude": 24.8124576,
    "longitude": 120.9639005,
    "orderLinks": [
      {
        "id": "5a2e05ad-3f14-477e-9c16-81ff3853469b",
        "platform": "官網",
        "url": "http://5359898.com/"
      }
    ],
    "rating": 4.4,
    "phone": "03 535 9898"
  },
  {
    "id": "ChIJ1chtBMA1aDQRg41-cUvrhag",
    "name": "西市汕頭館總店",
    "address": "300台灣新竹市北區西安街70號",
    "region": "hsinchu_city",
    "latitude": 24.8042221,
    "longitude": 120.965153,
    "orderLinks": [
      {
        "id": "d75a3fa2-336f-44aa-919f-9292b2bc3cb7",
        "platform": "官網",
        "url": "https://www.facebook.com/westmarketseto/"
      }
    ],
    "rating": 4.2,
    "phone": "03 524 4430"
  },
  {
    "id": "ChIJJ0LUXJM1aDQRVwVa1zUeW30",
    "name": "西堤牛排 新竹中正店",
    "address": "300台灣新竹市北區中正路178號2樓",
    "region": "hsinchu_city",
    "latitude": 24.8097468,
    "longitude": 120.96640889999998,
    "orderLinks": [
      {
        "id": "829a980b-a8df-410b-b16b-8258aebacead",
        "platform": "官網",
        "url": "http://www.tasty.com.tw/"
      }
    ],
    "rating": 4.8,
    "phone": "03 524 5522"
  },
  {
    "id": "ChIJT2fcS8c1aDQR9SAPp2Frt-Y",
    "name": "滿美吐司部",
    "address": "300台灣新竹市北區北門街216號",
    "region": "hsinchu_city",
    "latitude": 24.8095366,
    "longitude": 120.9655368,
    "orderLinks": [
      {
        "id": "3706f8c7-c08b-457a-bc7a-421d8ac6cf14",
        "platform": "官網",
        "url": "https://facebook.com/manmeitoast/"
      }
    ],
    "rating": 4.2,
    "phone": null
  },
  {
    "id": "ChIJ74RKjLE1aDQRmppg4eWQnRY",
    "name": "Hidden off",
    "address": "300台灣新竹市北區建興街13號",
    "region": "hsinchu_city",
    "latitude": 24.8079581,
    "longitude": 120.9668323,
    "orderLinks": [
      {
        "id": "3e985d1f-4308-49fc-8553-9bd16f303d98",
        "platform": "官網",
        "url": "https://www.instagram.com/hiddenoff.off/"
      }
    ],
    "rating": 4.7,
    "phone": null
  },
  {
    "id": "ChIJDX6EJuY1aDQR90hL9fG62uY",
    "name": "涮樂和牛鍋物 食べ放題 第一品牌-新竹經國店",
    "address": "300台灣新竹市東區經國路一段673-1號2F",
    "region": "hsinchu_city",
    "latitude": 24.813608799999997,
    "longitude": 120.96849619999999,
    "orderLinks": [
      {
        "id": "51197982-7eb3-4656-b6d0-a0160b52eb2e",
        "platform": "官網",
        "url": "https://www.facebook.com/enjoyshabushabu/"
      }
    ],
    "rating": 4.8,
    "phone": "03 531 0373"
  },
  {
    "id": "ChIJy1_6TbI1aDQRywttBN2aJds",
    "name": "陳阿姨火鍋灶咖 新竹店",
    "address": "300台灣新竹市北區經國路二段382號",
    "region": "hsinchu_city",
    "latitude": 24.8074867,
    "longitude": 120.95725059999998,
    "orderLinks": [
      {
        "id": "66aaf8a3-1bf1-4800-8897-1422ee3c199a",
        "platform": "官網",
        "url": "https://www.facebook.com/110091038501061/posts/pfbid0h8PbZJMqgV4TYtpe3oXCruTBjtPrL3KLuz4fwCimcUAkPb3yKuup8xdyaZu94X9xl/?d=n"
      }
    ],
    "rating": 4.5,
    "phone": "0966 888 072"
  },
  {
    "id": "ChIJlfxHtcs1aDQRaM6NSK5SY1w",
    "name": "荷竹園",
    "address": "300台灣新竹市北區湳中街63號",
    "region": "hsinchu_city",
    "latitude": 24.820538499999998,
    "longitude": 120.96565559999999,
    "orderLinks": [
      {
        "id": "e6b3d309-c454-45c1-9cf1-3b5e4d0aaa30",
        "platform": "官網",
        "url": "http://www.hochuyuan.com.tw/"
      }
    ],
    "rating": 4.5,
    "phone": "03 531 3816"
  },
  {
    "id": "ChIJ0yYxW8c1aDQRiele0iAXXxY",
    "name": "鴨肉許（中正店）",
    "address": "300台灣新竹市北區中正路212號",
    "region": "hsinchu_city",
    "latitude": 24.81067,
    "longitude": 120.96578799999999,
    "orderLinks": [],
    "rating": 3.3,
    "phone": "03 525 3290"
  },
  {
    "id": "ChIJWZDhZ8c1aDQRlhhQ1Ce9gsc",
    "name": "大埔鐵板燒（中正店）",
    "address": "300台灣新竹市北區中正路197號",
    "region": "hsinchu_city",
    "latitude": 24.810443799999998,
    "longitude": 120.9653115,
    "orderLinks": [
      {
        "id": "f9b65309-7d29-46f2-bd41-505c65b4c99f",
        "platform": "官網",
        "url": "https://www.facebook.com/pages/%E5%A4%A7%E5%9F%94%E9%90%B5%E6%9D%BF%E7%87%92%E6%96%B0%E7%AB%B9%E4%B8%AD%E6%AD%A3%E5%BA%97/168041996579359"
      }
    ],
    "rating": 4,
    "phone": "03 523 1112"
  },
  {
    "id": "ChIJl-Yif8c1aDQRVj--UtRGWDg",
    "name": "廟口鴨香飯中正店",
    "address": "300台灣新竹市北區中正路258號",
    "region": "hsinchu_city",
    "latitude": 24.8116713,
    "longitude": 120.9648148,
    "orderLinks": [
      {
        "id": "33f65e76-2a67-417c-8190-1fbcaa770514",
        "platform": "官網",
        "url": "https://www.facebook.com/p/%E5%BB%9F%E5%8F%A3%E9%B4%A8%E9%A6%99%E9%A3%AF-100063589943815/?locale=zh_TW"
      }
    ],
    "rating": 4.3,
    "phone": "03 535 9298"
  },
  {
    "id": "ChIJAUKyi8Y1aDQR4AafREeOXcs",
    "name": "西市汕頭館 北大店",
    "address": "300台灣新竹市北區北大路106號",
    "region": "hsinchu_city",
    "latitude": 24.8107184,
    "longitude": 120.96922149999999,
    "orderLinks": [
      {
        "id": "24c3f7c0-b7a8-4ce2-948d-e5b00af23215",
        "platform": "官網",
        "url": "https://www.facebook.com/westmarketseto"
      }
    ],
    "rating": 3.8,
    "phone": "03 534 0065"
  },
  {
    "id": "ChIJXWGWksY1aDQRFrauvUJKv8w",
    "name": "星巴克 新竹北大門市",
    "address": "300台灣新竹市北區北大路109號",
    "region": "hsinchu_city",
    "latitude": 24.810272100000002,
    "longitude": 120.9690116,
    "orderLinks": [
      {
        "id": "5a569006-a63b-4da3-9d72-2e7b5be7be83",
        "platform": "官網",
        "url": "http://www.starbucks.com.tw/"
      }
    ],
    "rating": 4.2,
    "phone": "03 531 8292"
  },
  {
    "id": "ChIJo-U5MLI1aDQRbKfqi2OG-0U",
    "name": "邊境串燒 SideBBQ 新竹",
    "address": "300台灣新竹市北區北大路166巷8弄3號在演藝路上",
    "region": "hsinchu_city",
    "latitude": 24.8104743,
    "longitude": 120.9677721,
    "orderLinks": [
      {
        "id": "96159904-d844-43d6-b220-006ccfc6067b",
        "platform": "iCHEF",
        "url": "https://shop.ichefpos.com/store/6zS4IhgL/ordering"
      }
    ],
    "rating": 4.5,
    "phone": "03 543 0050"
  },
  {
    "id": "ChIJaeigl8k1aDQRlHfeFZn18lw",
    "name": "段純貞牛肉麵",
    "address": "300台灣新竹市北區武陵路96號",
    "region": "hsinchu_city",
    "latitude": 24.818184,
    "longitude": 120.9669774,
    "orderLinks": [
      {
        "id": "6b6cf666-55c5-4858-9efd-685c50fdab4d",
        "platform": "官網",
        "url": "https://quickorder.prox.com.tw/d674caac-3997-4676-8935-3cfce3006f68"
      }
    ],
    "rating": 4.2,
    "phone": "03 540 8165"
  },
  {
    "id": "ChIJB8V2xr01aDQRGXzZdJdFuNw",
    "name": "家欣樓",
    "address": "300台灣新竹市北區經國路二段399號",
    "region": "hsinchu_city",
    "latitude": 24.807381499999998,
    "longitude": 120.95765279999999,
    "orderLinks": [
      {
        "id": "e86b6c9a-2ea4-4506-b811-07a8e3de4520",
        "platform": "官網",
        "url": "https://zh-tw.facebook.com/JIASHIN399.restaurant/"
      }
    ],
    "rating": 4,
    "phone": "03 521 6802"
  },
  {
    "id": "ChIJPe-V-Tw1aDQR9Fx85Hvlotk",
    "name": "陳記胡椒豬肚雞",
    "address": "300台灣新竹市北區東大路二段156號1樓",
    "region": "hsinchu_city",
    "latitude": 24.8152963,
    "longitude": 120.96652250000001,
    "orderLinks": [
      {
        "id": "c10b37f8-3ad5-43da-90f5-4f6189745382",
        "platform": "官網",
        "url": "https://m.facebook.com/chenji156/"
      }
    ],
    "rating": 4.7,
    "phone": "03 535 2685"
  },
  {
    "id": "ChIJwUDGSiw1aDQRKGVZEjkvruw",
    "name": "El Mundo墨多(統一官方Line訂位）不定期公休",
    "address": "300台灣新竹市北區士林一街50號",
    "region": "hsinchu_city",
    "latitude": 24.820452400000004,
    "longitude": 120.95420289999998,
    "orderLinks": [
      {
        "id": "90acd939-b0a0-4ba8-9104-d99dbf2cf0c1",
        "platform": "官網",
        "url": "https://lin.ee/zsMlxtB"
      }
    ],
    "rating": 4.6,
    "phone": null
  },
  {
    "id": "ChIJDSVMuMs1aDQRxdBCLoH3p44",
    "name": "喝ㄐㄧㄡˇ大學 瑞禎海鮮",
    "address": "300台灣新竹市北區東大路二段736號",
    "region": "hsinchu_city",
    "latitude": 24.825108699999998,
    "longitude": 120.9571639,
    "orderLinks": [
      {
        "id": "9b1e27b7-478f-4064-808e-e76a3ffb695b",
        "platform": "官網",
        "url": "https://www.facebook.com/1832312126817128/"
      }
    ],
    "rating": 4.2,
    "phone": "03 535 3111"
  },
  {
    "id": "ChIJE2d9b7o1aDQRbjUEH-8UgwY",
    "name": "哈囉炸醬麵",
    "address": "300台灣新竹市北區成功路37號",
    "region": "hsinchu_city",
    "latitude": 24.8155381,
    "longitude": 120.9568,
    "orderLinks": [
      {
        "id": "a4033c46-a87a-4d8c-8d97-ea83a8d4da39",
        "platform": "官網",
        "url": "https://www.facebook.com/ParrotHelloNoodle/"
      }
    ],
    "rating": 4,
    "phone": "03 533 8849"
  },
  {
    "id": "ChIJ5VgelgQ1aDQRFYHygK1NsDk",
    "name": "青丹扎西龍松店",
    "address": "No. 273號, No. 273東大路二段北區新竹市台灣 300",
    "region": "hsinchu_city",
    "latitude": 24.817280999999998,
    "longitude": 120.96363339999999,
    "orderLinks": [],
    "rating": 4.8,
    "phone": "03 531 0178"
  },
  {
    "id": "ChIJ3x7spAc1aDQR3l2qAdLbgp0",
    "name": "栖穗 Nanasai | 不定期店休請參閱粉絲專頁",
    "address": "300台灣新竹市北區東大路二段220號",
    "region": "hsinchu_city",
    "latitude": 24.817828499999997,
    "longitude": 120.9639668,
    "orderLinks": [
      {
        "id": "c9c6e219-4ef0-4202-a093-2221bcdfae0b",
        "platform": "官網",
        "url": "https://www.instagram.com/nanasai_hsinchu"
      }
    ],
    "rating": 4.8,
    "phone": "0987 685 326"
  },
  {
    "id": "ChIJX-prvbk1aDQRqe9vX5PnLLw",
    "name": "正莊山東饅頭",
    "address": "300台灣新竹市北區竹光路67號",
    "region": "hsinchu_city",
    "latitude": 24.813672099999998,
    "longitude": 120.96045600000001,
    "orderLinks": [
      {
        "id": "3c8d2b56-e125-46e8-a8b7-f6c04e2aa3f2",
        "platform": "官網",
        "url": "https://www.facebook.com/%E6%AD%A3%E8%8E%8A%E5%B1%B1%E6%9D%B1%E9%A5%85%E9%A0%AD-118071031615325/"
      }
    ],
    "rating": 4.3,
    "phone": "03 534 0519"
  },
  {
    "id": "ChIJfRwarG81aDQRjmhl47qMWCY",
    "name": "發財關東煮-日式屋台餐車(近日家中有事情 暫停營業)",
    "address": "300台灣新竹市北區中正路768號",
    "region": "hsinchu_city",
    "latitude": 24.819652400000003,
    "longitude": 120.953814,
    "orderLinks": [
      {
        "id": "b1eaabc1-f34d-446f-ae20-dcefe018d445",
        "platform": "官網",
        "url": "https://www.facebook.com/%E7%99%BC%E8%B2%A1%E9%97%9C%E6%9D%B1%E7%85%AE-%E6%97%A5%E5%BC%8F%E5%B1%8B%E5%8F%B0%E9%A4%90%E8%BB%8A-101270355560736"
      }
    ],
    "rating": 4.7,
    "phone": "0930 300 700"
  },
  {
    "id": "ChIJ0fnidm01aDQR2HbIJfXqpKo",
    "name": "【岩嶼塘 x Salt Sugar】新竹早午餐 私廚包場 不定期公休請至IG查詢",
    "address": "300台灣新竹市北區金雅三街95巷9號",
    "region": "hsinchu_city",
    "latitude": 24.826956499999998,
    "longitude": 120.96389190000001,
    "orderLinks": [
      {
        "id": "ad792476-dbd0-49d1-a43c-c7368bcf254a",
        "platform": "官網",
        "url": "http://www.facebook.com/saltandsugartaiwan"
      }
    ],
    "rating": 4.5,
    "phone": "03 535 1771"
  },
  {
    "id": "ChIJwRudyfw1aDQRWIDS6qytZoY",
    "name": "騎士漢堡 Knight Burger（不定休 請參考IG",
    "address": "300台灣新竹市北區士林西路12號",
    "region": "hsinchu_city",
    "latitude": 24.8208375,
    "longitude": 120.9534628,
    "orderLinks": [
      {
        "id": "16a1aead-c87c-4799-8678-ac57a04da9c5",
        "platform": "官網",
        "url": "https://instagram.com/knightburger_?igshid=MzRlODBiNWFlZA=="
      }
    ],
    "rating": 4.8,
    "phone": "03 534 9998"
  },
  {
    "id": "ChIJPRJbNNQ1aDQR0cgLih6d-4g",
    "name": "想咖啡・Miss Café",
    "address": "300台灣新竹市北區金雅一街16號",
    "region": "hsinchu_city",
    "latitude": 24.8242041,
    "longitude": 120.96300110000001,
    "orderLinks": [
      {
        "id": "72c48f22-6aa8-485f-9e5b-02a0ff5223ce",
        "platform": "官網",
        "url": "http://www.facebook.com/misscafe20"
      }
    ],
    "rating": 4.7,
    "phone": "0903 088 420"
  },
  {
    "id": "ChIJVXsfjrY1aDQRJXgOvfNmPU0",
    "name": "樹林頭麵店",
    "address": "300台灣新竹市北區東大路二段423號",
    "region": "hsinchu_city",
    "latitude": 24.8198474,
    "longitude": 120.9611573,
    "orderLinks": [
      {
        "id": "d840b3f9-3ef2-4027-8f06-59ca98210432",
        "platform": "官網",
        "url": "https://www.facebook.com/pages/category/Local-Business/%E6%A8%B9%E6%9E%97%E9%A0%AD%E9%BA%B5%E5%BA%97-150190075089196"
      }
    ],
    "rating": 4.2,
    "phone": "03 531 4945"
  },
  {
    "id": "ChIJt6d-z5c1aDQRlSDkSPN3BpQ",
    "name": "金陵包子",
    "address": "300台灣新竹市北區成功路91號",
    "region": "hsinchu_city",
    "latitude": 24.8146874,
    "longitude": 120.9557095,
    "orderLinks": [
      {
        "id": "e91a4d51-b52e-4b0e-ae9c-4d4398f49d17",
        "platform": "官網",
        "url": "https://www.facebook.com/JinlingBuns"
      }
    ],
    "rating": 3.8,
    "phone": "03 535 0728"
  },
  {
    "id": "ChIJ-2jnobA1aDQRYWyz5ypuEdk",
    "name": "Easy Life Cafe 簡單生活",
    "address": "300台灣新竹市北區中正路516號",
    "region": "hsinchu_city",
    "latitude": 24.8165317,
    "longitude": 120.95760589999999,
    "orderLinks": [],
    "rating": 4.1,
    "phone": "03 533 9373"
  },
  {
    "id": "ChIJ7_X7Ds41aDQREwnLn-aW3BQ",
    "name": "傻瓜麵創意料理",
    "address": "300台灣新竹市北區湳中街80-1號",
    "region": "hsinchu_city",
    "latitude": 24.821690699999998,
    "longitude": 120.96454489999999,
    "orderLinks": [
      {
        "id": "10bc084d-9c4d-43ed-aff9-ab0da8baa10b",
        "platform": "官網",
        "url": "https://www.facebook.com/Kou9551/"
      }
    ],
    "rating": 4.2,
    "phone": "03 531 5175"
  },
  {
    "id": "ChIJdWYm67c1aDQR__x7sfAgGRk",
    "name": "綠舍奇蹟健康蔬食",
    "address": "300台灣新竹市北區武陵路30號",
    "region": "hsinchu_city",
    "latitude": 24.816032999999997,
    "longitude": 120.9632401,
    "orderLinks": [],
    "rating": 4.3,
    "phone": "03 532 2727"
  },
  {
    "id": "ChIJx6bL33U1aDQRkcu0AajGFyM",
    "name": "法諾義式廚房-金雅店-新竹推薦義式料理|人氣義式餐廳|必吃義大利麵|手做比薩推薦|平價義大利麵|平價美食推薦",
    "address": "300台灣新竹市北區金雅六街72號1樓",
    "region": "hsinchu_city",
    "latitude": 24.8265751,
    "longitude": 120.9654374,
    "orderLinks": [
      {
        "id": "937283b7-a319-42a6-80c5-6d23320f0a91",
        "platform": "官網",
        "url": "https://store.dudooeat.com/order/store/1b1408d295c1456bbeda2af555edf801"
      }
    ],
    "rating": 4.1,
    "phone": "03 542 0292"
  },
  {
    "id": "ChIJd3ZI2M81aDQRQvzyACz4vTI",
    "name": "民生阿典廚房",
    "address": "300台灣新竹市北區中正路538號",
    "region": "hsinchu_city",
    "latitude": 24.816900000000004,
    "longitude": 120.95700199999999,
    "orderLinks": [
      {
        "id": "75138ecf-075a-401e-b9a9-1078ba10509c",
        "platform": "官網",
        "url": "https://www.facebook.com/tel035347794/"
      }
    ],
    "rating": 3.9,
    "phone": "03 534 7794"
  },
  {
    "id": "ChIJg4wERuA1aDQRuGdBaoKHBbw",
    "name": "麥味登新竹竹文店-新竹電話點餐自取早餐店",
    "address": "300台灣新竹市北區竹光路46號",
    "region": "hsinchu_city",
    "latitude": 24.814465799999997,
    "longitude": 120.9607772,
    "orderLinks": [
      {
        "id": "46d1fe66-8e90-4180-8eac-ea34593bb54a",
        "platform": "官網",
        "url": "http://www.mwd.com.tw/"
      }
    ],
    "rating": 4.1,
    "phone": "03 533 3181"
  },
  {
    "id": "ChIJB4G6K6E1aDQRYeIazexvVf0",
    "name": "光之食艷室 咖啡&披薩 LIGHT FOOD STUDIO Coffee&Pizza｛僅供外帶｝",
    "address": "300台灣新竹市北區金雅路133巷8弄38號",
    "region": "hsinchu_city",
    "latitude": 24.825073999999997,
    "longitude": 120.9649591,
    "orderLinks": [
      {
        "id": "a88d8837-b150-447a-940d-4cc2287e8a61",
        "platform": "官網",
        "url": "https://www.facebook.com/lightfoodstudio/?locale=zh_TW"
      }
    ],
    "rating": 4.7,
    "phone": "0928 931 680"
  },
  {
    "id": "ChIJVytuY5o1aDQRJT6neMfAez4",
    "name": "麥當勞-新竹經國二餐廳－設有得來速",
    "address": "300台灣新竹市香山區經國路三段11號",
    "region": "hsinchu_city",
    "latitude": 24.7999215,
    "longitude": 120.9539195,
    "orderLinks": [
      {
        "id": "e5dd04b3-de1c-46a1-b1a8-f169a4e256ff",
        "platform": "官網",
        "url": "https://www.mcdonalds.com/tw/zh-tw.html"
      }
    ],
    "rating": 3.8,
    "phone": "03 539 9826"
  },
  {
    "id": "ChIJSe6LCb41aDQR_xnUlsUXSBk",
    "name": "老店薑母雞 全臺首創薑母雞-推薦在地必吃平價美食 火鍋(新竹北區)夜間宵夜 露營必備美食菜單 薑母鴨 薑母雞 狀元雞 首烏雞 淮蔘雞 烏骨雞肉 溫體雞 火鍋 中藥燉煮 PTT",
    "address": "300台灣新竹市北區少年街51號",
    "region": "hsinchu_city",
    "latitude": 24.806205799999997,
    "longitude": 120.9590554,
    "orderLinks": [
      {
        "id": "538c0cd3-8279-499e-901a-87d98f279dcb",
        "platform": "官網",
        "url": "http://www.classicchicken.com.tw/"
      }
    ],
    "rating": 4.3,
    "phone": "03 528 4895"
  },
  {
    "id": "ChIJWwpCmJA1aDQR1BqykmKoEAY",
    "name": "くら寿司 藏壽司 新竹經國路店",
    "address": "300台灣新竹市香山區經國路三段33號2樓",
    "region": "hsinchu_city",
    "latitude": 24.799683599999998,
    "longitude": 120.9538126,
    "orderLinks": [
      {
        "id": "849f7f92-75c4-4085-b870-72364702c4d7",
        "platform": "官網",
        "url": "https://kurasushi.tw/shops"
      }
    ],
    "rating": 4.1,
    "phone": null
  },
  {
    "id": "ChIJNUPAjJc1aDQR7weL5SivAj8",
    "name": "延平大飯店",
    "address": "300台灣新竹市北區延平路一段236號號旁",
    "region": "hsinchu_city",
    "latitude": 24.8051642,
    "longitude": 120.9538438,
    "orderLinks": [
      {
        "id": "869ff8d7-8d33-47d4-a022-50b046b7c8cf",
        "platform": "官網",
        "url": "https://ywayway.pixnet.net/blog/post/117096860"
      }
    ],
    "rating": 4.1,
    "phone": "03 522 1026"
  },
  {
    "id": "ChIJ88ADo8Y1aDQRvLtldNhfiEg",
    "name": "薯霸早餐",
    "address": "30042台灣新竹市東區世界街88號",
    "region": "hsinchu_city",
    "latitude": 24.8090599,
    "longitude": 120.96968969999999,
    "orderLinks": [],
    "rating": 4.3,
    "phone": "03 542 2571"
  },
  {
    "id": "ChIJs7r1FAY1aDQRCVgCJdd1Xvs",
    "name": "福氣廚房-新竹世界店",
    "address": "300台灣新竹市東區世界街95號",
    "region": "hsinchu_city",
    "latitude": 24.8089391,
    "longitude": 120.96976199999999,
    "orderLinks": [
      {
        "id": "3dd1b26e-31bd-4065-aa95-e0cbc5771959",
        "platform": "官網",
        "url": "https://www.facebook.com/pg/%E7%A6%8F%E6%B0%A3%E5%B9%B8%E3%81%9B-%E6%96%B0%E7%AB%B9%E4%B8%96%E7%95%8C%E5%BA%97-101764435114171/about/?ref=page_internal"
      }
    ],
    "rating": 4.6,
    "phone": "03 533 5899"
  },