[
  {
    "id": "ChIJ8-Ir3xE2aDQRe7VYwqceEkQ",
    "name": "麥當勞-新竹交大餐廳",
    "address": "300台灣新竹市東區女二舍國立交通大學B棟1F大學路1001號之",
    "region": "hsinchu_city",
    "latitude": 24.784781499999998,
    "longitude": 120.99912020000001,
    "orderLinks": [
      {
        "id": "6df1aac2-aa73-425d-ab8c-f04e997cfbc1",
        "platform": "官網",
        "url": "https://www.mcdonalds.com/tw/zh-tw.html"
      }
    ],
    "rating": 4
  },
  {
    "id": "ChIJk5rJxR42aDQRUs45baSmRHI",
    "name": "漢堡王 Burger King 竹科店",
    "address": "300台灣新竹市東區工業東二路1號",
    "region": "hsinchu_city",
    "latitude": 24.779784799999998,
    "longitude": 121.005538,
    "orderLinks": [
      {
        "id": "bb0e41b7-be00-4c76-9cc8-7ff3b4b8f767",
        "platform": "官網",
        "url": "https://www.burgerking.com.tw/"
      }
    ],
    "rating": 4
  },
  {
    "id": "ChIJixrR5xE2aDQRcSR1SqrnbRs",
    "name": "小木屋鬆餅 交大店",
    "address": "300台灣新竹市東區大學路1001號交通大學資訊技術服務中心前餐亭",
    "region": "hsinchu_city",
    "latitude": 24.7876683,
    "longitude": 120.99761310000001,
    "orderLinks": [
      {
        "id": "b27a23dd-aac1-4390-a4b7-73828276ad5a",
        "platform": "官網",
        "url": "https://shinemood2006.com/"
      }
    ],
    "rating": 4.4
  },
  {
    "id": "ChIJ76MBfAA3aDQRi_IbQ18TJnw",
    "name": "星巴克 瑞昱門市",
    "address": "300台灣新竹市東區園區二路9號",
    "region": "hsinchu_city",
    "latitude": 24.7806554,
    "longitude": 120.99812329999997,
    "orderLinks": [],
    "rating": 4.2
  },
  {
    "id": "ChIJOUiFNwQ3aDQRjdcM2Tsh48c",
    "name": "安妞韓國烤肉食堂-新竹竹科店",
    "address": "30075台灣新竹市東區工業東二路1號科技生活館1樓",
    "region": "hsinchu_city",
    "latitude": 24.7798448,
    "longitude": 121.0056449,
    "orderLinks": [
      {
        "id": "9d30c7cd-28f9-4a34-a394-3c35a46a84dc",
        "platform": "inline",
        "url": "https://inline.app/booking/-MxlOnofn8Ew22KvmQpW:inline-live-2/-N5hr_1uGdyl7aNIYR5l"
      }
    ],
    "rating": 4.7
  },
  {
    "id": "ChIJ1R1lGRA2aDQR0OU4Hv0sMnU",
    "name": "LALA Kitchen 交大店",
    "address": "300台灣新竹市東區大學路1001號",
    "region": "hsinchu_city",
    "latitude": 24.786283599999997,
    "longitude": 120.99969309999999,
    "orderLinks": [
      {
        "id": "47f2375c-6346-423c-a53c-00efc2028d5f",
        "platform": "官網",
        "url": "https://www.facebook.com/NolaKitchenNCTU"
      }
    ],
    "rating": 3.8
  },
  {
    "id": "ChIJEaCmPQc2aDQRU3KNyg4as2I",
    "name": "車庫町日式咖哩，丼飯",
    "address": "300台灣新竹市東區寶山路452巷8弄13號",
    "region": "hsinchu_city",
    "latitude": 24.7834315,
    "longitude": 120.98986389999997,
    "orderLinks": [
      {
        "id": "5ff20acd-4f57-44c8-b508-a353264d796f",
        "platform": "官網",
        "url": "https://www.facebook.com/%E8%BB%8A%E5%BA%AB%E7%94%BA%E6%97%A5%E5%BC%8F%E5%92%96%E5%93%A9%E4%B8%BC%E9%A3%AF-400392670359308/"
      }
    ],
    "rating": 4.2
  },
  {
    "id": "ChIJO34F0_81aDQRFoGVWM8hLR4",
    "name": "雲南泰式小吃",
    "address": "300台灣新竹市東區高翠路217號",
    "region": "hsinchu_city",
    "latitude": 24.7799384,
    "longitude": 120.98697219999998,
    "orderLinks": [
      {
        "id": "b315346c-06d9-433d-bff8-d6db635d059d",
        "platform": "官網",
        "url": "https://amy77.com/blog/post/26204574"
      }
    ],
    "rating": 4.3
  },
  {
    "id": "ChIJsdKBkTc3aDQRWXucR4NgusY",
    "name": "漢堡王 交大店",
    "address": "300台灣新竹市東區大學路1001號研三舍餐廳",
    "region": "hsinchu_city",
    "latitude": 24.783808999999998,
    "longitude": 120.9971564,
    "orderLinks": [
      {
        "id": "5aad3fbe-11de-4d57-8ea4-df6e2cb96a70",
        "platform": "官網",
        "url": "http://www.burgerking.com.tw/"
      }
    ],
    "rating": 4.1
  },
  {
    "id": "ChIJ_X-SXBk2aDQR2gweJGKLUEA",
    "name": "禾園茶館",
    "address": "300台灣新竹市東區工業東二路1號3樓",
    "region": "hsinchu_city",
    "latitude": 24.779719099999998,
    "longitude": 121.00542099999998,
    "orderLinks": [
      {
        "id": "a2fc6864-321e-4fae-ad86-5ba3d0562f2a",
        "platform": "官網",
        "url": "https://www.facebook.com/Heyuan.tea/"
      }
    ],
    "rating": 4.5
  },
  {
    "id": "ChIJhw6zlas3aDQRzYz7p8GDrUo",
    "name": "安好食 寶山店",
    "address": "300台灣新竹市東區寶山路418號",
    "region": "hsinchu_city",
    "latitude": 24.7848501,
    "longitude": 120.9899493,
    "orderLinks": [
      {
        "id": "2e99d0d6-c7aa-40fe-9941-c60f49a815ba",
        "platform": "官網",
        "url": "https://app.eats365pos.com/tw/tc/anhao_food_treasure_mountain"
      }
    ],
    "rating": 4.8
  },
  {
    "id": "ChIJiYFArvY3aDQRRNGDeggpPCk",
    "name": "Nude 裸色茶啡",
    "address": "300台灣新竹市東區創新二路7號",
    "region": "hsinchu_city",
    "latitude": 24.7791463,
    "longitude": 120.9962314,
    "orderLinks": [
      {
        "id": "6fd65335-b015-428a-ae0c-2df5e1f0b4d7",
        "platform": "官網",
        "url": "https://www.facebook.com/nudetrendycafe/"
      }
    ],
    "rating": 4.4
  },
  {
    "id": "ChIJ4WQ8CAA3aDQR-emAFviWHvs",
    "name": "義早早午餐-新竹交大店",
    "address": "300台灣新竹市東區大學路1001號研三舍",
    "region": "hsinchu_city",
    "latitude": 24.7839058,
    "longitude": 120.99730149999998,
    "orderLinks": [
      {
        "id": "da8c2a72-12b0-49c3-9c7b-99a54833a421",
        "platform": "官網",
        "url": "https://www.facebook.com/eatmorning162"
      }
    ],
    "rating": 4.4
  },
  {
    "id": "ChIJ-y2DwP81aDQR4EAk6ILKkHA",
    "name": "六家麵店(新竹高翠店)",
    "address": "300台灣新竹市東區高翠路255號",
    "region": "hsinchu_city",
    "latitude": 24.7793441,
    "longitude": 120.98628199999999,
    "orderLinks": [],
    "rating": 4
  },
  {
    "id": "ChIJoRAKjho2aDQRyTO0-JxnIf4",
    "name": "Lim Coffee咖啡館",
    "address": "300台灣新竹市東區展業一路11號",
    "region": "hsinchu_city",
    "latitude": 24.7837075,
    "longitude": 121.0006945,
    "orderLinks": [
      {
        "id": "e687b920-0555-4851-adc1-753fc3f238ab",
        "platform": "官網",
        "url": "https://m.facebook.com/Lim-coffee-983335088378049/"
      }
    ],
    "rating": 4.5
  },
  {
    "id": "ChIJz_hO70E3aDQRQ1ewGMF2lDg",
    "name": "天晟燒臘",
    "address": "300093台灣新竹市東區大學路1001-2號",
    "region": "hsinchu_city",
    "latitude": 24.784494199999997,
    "longitude": 120.99952859999998,
    "orderLinks": [],
    "rating": 4.2
  },
  {
    "id": "ChIJbTgnHxA2aDQR3WiUvpbZUzk",
    "name": "國立陽明交通大學第一餐廳",
    "address": "300台灣新竹市東區大學路1001號",
    "region": "hsinchu_city",
    "latitude": 24.786524,
    "longitude": 120.9993977,
    "orderLinks": [],
    "rating": 3.8
  },
  {
    "id": "ChIJK38UiQc2aDQRH_2NF9sR0EY",
    "name": "雙饗丼 新竹寶山店",
    "address": "300台灣新竹市東區寶山路430號",
    "region": "hsinchu_city",
    "latitude": 24.784720399999998,
    "longitude": 120.99010989999998,
    "orderLinks": [
      {
        "id": "d0b7461c-1204-4281-b66e-b16366c58d8d",
        "platform": "官網",
        "url": "https://lin.ee/loAkfyQ"
      }
    ],
    "rating": 4.1
  },
  {
    "id": "ChIJl6JrUf5JaDQRGF2HXgwR8Ws",
    "name": "STARBUCKS 星巴克 (園區門市)不對外開放",
    "address": "300台灣新竹縣寶山鄉研新一路9號",
    "region": "hsinchu_city",
    "latitude": 24.7752198,
    "longitude": 120.9902335,
    "orderLinks": [
      {
        "id": "8550212c-0567-4064-be7e-f0286f7091e2",
        "platform": "官網",
        "url": "https://www.starbucks.com.tw/stores/storesearch.jspx?fetchStore=storehours"
      }
    ],
    "rating": 3.3
  },
  {
    "id": "ChIJY6QMvPw1aDQRU5d1WnGvPRg",
    "name": "拉亞漢堡 新竹寶山",
    "address": "300台灣新竹市東區寶山路440號",
    "region": "hsinchu_city",
    "latitude": 24.7846902,
    "longitude": 120.9903403,
    "orderLinks": [
      {
        "id": "e2bf068e-008a-4f9f-88c3-b7a056c43804",
        "platform": "官網",
        "url": "https://now.laya.com.tw/table?store=64a4deabc06ca680d4ab24b6"
      }
    ],
    "rating": 3.3
  },
  {
    "id": "ChIJ10olRPhJaDQRt9RVWbLiFeo",
    "name": "海水屋 寶山雙豐店",
    "address": "308台灣新竹縣寶山鄉雙豐路168號",
    "region": "hsinchu_city",
    "latitude": 24.768032100000003,
    "longitude": 120.9889537,
    "orderLinks": [
      {
        "id": "5e1ef924-7919-4c7f-8977-a751bcf5166d",
        "platform": "官網",
        "url": "https://www.facebook.com/hisweetwu/"
      }
    ],
    "rating": 3.9
  },
  {
    "id": "ChIJe4dmNGZJaDQRB3jetIrgeNY",
    "name": "鑫山複合式餐廳｜進仔薑母鴨",
    "address": "308台灣新竹縣寶山鄉雙園路二段32號",
    "region": "hsinchu_city",
    "latitude": 24.7682945,
    "longitude": 120.99927859999998,
    "orderLinks": [
      {
        "id": "02930a08-4490-4ca1-9a6b-225f737d91a8",
        "platform": "官網",
        "url": "https://www.facebook.com/profile.php?id=100093607753716&mibextid=LQQJ4d"
      }
    ],
    "rating": 4.8
  },
  {
    "id": "ChIJK3tjlv81aDQRrhSz9c_f9ho",
    "name": "孫子文牛肉麵",
    "address": "300台灣新竹市東區高翠路275號",
    "region": "hsinchu_city",
    "latitude": 24.779013,
    "longitude": 120.98591719999999,
    "orderLinks": [
      {
        "id": "3258567b-b033-4cb6-9b3f-9fca890d10e3",
        "platform": "官網",
        "url": "https://zh-tw.facebook.com/pages/category/Diner/%E9%87%8D%E6%85%B6%E5%AD%AB%E5%AD%90%E6%96%87%E7%89%9B%E8%82%89%E9%BA%B5-%E9%AB%98%E7%BF%A0%E5%BA%97-332508577104967/"
      }
    ],
    "rating": 4.2
  },
  {
    "id": "ChIJlyob0xc3aDQR61rgFrg_pnw",
    "name": "(3/14～4/5公休 )野夫手作義式披薩(用餐請預約訂位)",
    "address": "308台灣新竹縣寶山鄉雙園路二段182巷55號",
    "region": "hsinchu_city",
    "latitude": 24.7690982,
    "longitude": 120.99448260000001,
    "orderLinks": [
      {
        "id": "f81db192-5cc6-4e30-9b47-896d7029f092",
        "platform": "官網",
        "url": "https://www.facebook.com/savagehouse0857/"
      }
    ],
    "rating": 4.8
  },
  {
    "id": "ChIJW71nMwA1aDQRSOswKt0ecxc",
    "name": "小牛比較懶牛肉麵",
    "address": "300台灣新竹市東區高翠路267號",
    "region": "hsinchu_city",
    "latitude": 24.779197999999997,
    "longitude": 120.98611969999999,
    "orderLinks": [
      {
        "id": "c14899b2-2665-4c11-801d-6ae8b4b45174",
        "platform": "官網",
        "url": "https://www.facebook.com/share/P5F5qMWBuC2ZVxH1/?mibextid=qi2Omg"
      }
    ],
    "rating": 4.7
  },
  {
    "id": "ChIJtcpfxUpJaDQR130S8WNvSSg",
    "name": "麥味登雙豐店",
    "address": "308台灣新竹縣寶山鄉雙豐路170號",
    "region": "hsinchu_city",
    "latitude": 24.7678053,
    "longitude": 120.98861219999998,
    "orderLinks": [
      {
        "id": "8176f6a2-914b-4501-baca-1ae2822be608",
        "platform": "官網",
        "url": "https://www.facebook.com/profile.php?id=61553680222718&mibextid=LQQJ4d"
      }
    ],
    "rating": 4.5
  },
  {
    "id": "ChIJB5J3ngA2aDQR1S75vvpl_Cc",
    "name": "阿信快餐便當",
    "address": "300台灣新竹市東區高翠路171號",
    "region": "hsinchu_city",
    "latitude": 24.781006299999998,
    "longitude": 120.98775429999999,
    "orderLinks": [],
    "rating": 4.4
  },
  {
    "id": "ChIJnZ6SoQA2aDQRA5pm7Mf0IU0",
    "name": "盛美平價快炒",
    "address": "300台灣新竹市東區高翠路151號300號",
    "region": "hsinchu_city",
    "latitude": 24.7813956,
    "longitude": 120.98796569999999,
    "orderLinks": [],
    "rating": 4.4
  },
  {
    "id": "ChIJqVJmniE1aDQRA8vVQJHpaok",
    "name": "輝 手作煎餃",
    "address": "300台灣新竹市東區高翠路191號",
    "region": "hsinchu_city",
    "latitude": 24.7806732,
    "longitude": 120.98762740000001,
    "orderLinks": [],
    "rating": 4.9
  },
  {
    "id": "ChIJA5kiogE2aDQRK5i4pgylbAg",
    "name": "星巴克 研新門市 - 限台積員工",
    "address": "300台灣新竹縣寶山鄉研新二路6號",
    "region": "hsinchu_city",
    "latitude": 24.778514899999998,
    "longitude": 120.9916583,
    "orderLinks": [
      {
        "id": "47883674-78ac-4480-b820-f54343d90ad6",
        "platform": "官網",
        "url": "https://www.starbucks.com.tw/"
      }
    ],
    "rating": 3.6
  },
  {
    "id": "ChIJF7xNU1xJaDQRQKv2WB8am2c",
    "name": "鑫山複合式KTV（2F）",
    "address": "308台灣新竹縣寶山鄉雙園路二段32號2樓",
    "region": "hsinchu_city",
    "latitude": 24.768459999999997,
    "longitude": 120.998912,
    "orderLinks": [],
    "rating": 4.7
  },
  {
    "id": "ChIJTXBwqQRJaDQR232sM9GkPSQ",
    "name": "STARBUCKS 星巴克 (台積電5門市)",
    "address": "308台灣新竹縣寶山鄉園區三路121號",
    "region": "hsinchu_city",
    "latitude": 24.774071,
    "longitude": 120.9979912,
    "orderLinks": [
      {
        "id": "6ea12415-fb25-477c-b22b-063e591920ff",
        "platform": "官網",
        "url": "https://www.starbucks.com.tw/"
      }
    ],
    "rating": 2.7
  },
  {
    "id": "ChIJxZF9PtBJaDQRjmmMNDSsSoU",
    "name": "Ks’ house",
    "address": "308台灣新竹縣寶山鄉雙園路二段182巷39號",
    "region": "hsinchu_city",
    "latitude": 24.7686673,
    "longitude": 120.99461380000001,
    "orderLinks": [],
    "rating": 4.2
  },
  {
    "id": "ChIJacKTd6JLaDQRZcVp3hBDmLE",
    "name": "橙爺雞排-新竹店",
    "address": "300台灣新竹市東區高翠路319號",
    "region": "hsinchu_city",
    "latitude": 24.778071,
    "longitude": 120.9847338,
    "orderLinks": [
      {
        "id": "19619968-456c-46d9-97b4-8ca7ead9a4dc",
        "platform": "官網",
        "url": "https://www.facebook.com/profile.php?id=61551438960279"
      }
    ],
    "rating": 4.1
  },
  {
    "id": "ChIJI2-EmwA2aDQRYpJWBICgb-I",
    "name": "8+8 早餐坊（高翠路175號）",
    "address": "300台灣新竹市東區高翠路175號",
    "region": "hsinchu_city",
    "latitude": 24.7808782,
    "longitude": 120.98771769999999,
    "orderLinks": [],
    "rating": 3.9
  },
  {
    "id": "ChIJP3iqhgBKaDQR-_NoLxFsKro",
    "name": "沅滷味",
    "address": "300台灣新竹市東區高翠路333號",
    "region": "hsinchu_city",
    "latitude": 24.7777708,
    "longitude": 120.9843978,
    "orderLinks": [],
    "rating": 4.5
  },
  {
    "id": "ChIJ7eH-gQBKaDQRJRLyAy_BAio",
    "name": "美美麵‧飯食館",
    "address": "300台灣新竹市東區高翠路330號",
    "region": "hsinchu_city",
    "latitude": 24.7781761,
    "longitude": 120.98443729999998,
    "orderLinks": [
      {
        "id": "167fdf1e-2e5f-4968-b026-bd4f3e0cc9f9",
        "platform": "官網",
        "url": "https://lin.ee/LBcy47R"
      }
    ],
    "rating": 4
  },
  {
    "id": "ChIJjRhrM-ZLaDQRaL2_jbk78sE",
    "name": "功夫茶 KUNGFUTEA 新竹高翠店",
    "address": "300台灣新竹市東區高翠路373號",
    "region": "hsinchu_city",
    "latitude": 24.777222,
    "longitude": 120.98365510000001,
    "orderLinks": [
      {
        "id": "66f9c9f0-9939-4a56-8213-640b1012c344",
        "platform": "官網",
        "url": "https://lin.ee/vtplI47"
      }
    ],
    "rating": 4.8
  },
  {
    "id": "ChIJzwkaiU83aDQRrTLvSAiuABw",
    "name": "SUBWAY-新竹交大店",
    "address": "300台灣新竹市東區大學路1001號",
    "region": "hsinchu_city",
    "latitude": 24.7892323,
    "longitude": 120.9969874,
    "orderLinks": [
      {
        "id": "d60cde96-d43c-478c-a5eb-96f8b53d0dbf",
        "platform": "官網",
        "url": "https://subway.com.tw/"
      }
    ],
    "rating": 3.3
  },
  {
    "id": "ChIJeXozo_dJaDQRi4nLpChxHDU",
    "name": "老復興飲食店",
    "address": "308台灣新竹縣寶山鄉雙園路二段359號",
    "region": "hsinchu_city",
    "latitude": 24.7646057,
    "longitude": 120.9898604,
    "orderLinks": [],
    "rating": 4.3
  },
  {
    "id": "ChIJL35glSZKaDQRMdk7N84FAR4",
    "name": "鑫園客家菜餐廳",
    "address": "308台灣新竹縣寶山鄉湳坑路二段130號308",
    "region": "hsinchu_city",
    "latitude": 24.764129,
    "longitude": 120.98974399999999,
    "orderLinks": [
      {
        "id": "13b58ae8-5228-4ae6-9436-7ec7b1e2b159",
        "platform": "官網",
        "url": "https://www.facebook.com/mylove035203706"
      }
    ],
    "rating": 4.2
  },
  {
    "id": "ChIJ-6h7sKdJaDQRUg45gzeh7pA",
    "name": "三本柱薑母鴨x鮮蚵放題 竹科店｜東石鮮蚵｜烤蚵推薦｜新竹必吃｜在地美食｜特色小吃｜秘製烤雞｜台式快炒｜竹科聚會餐廳",
    "address": "308005台灣新竹縣寶山鄉湳坑路二段121巷11號",
    "region": "hsinchu_city",
    "latitude": 24.763390899999997,
    "longitude": 120.98946079999999,
    "orderLinks": [
      {
        "id": "39bc0480-86c1-4753-83d6-c740f2bf5d66",
        "platform": "官網",
        "url": "https://www.facebook.com/share/NGhstnmfZDKXsLtz/?mibextid=LQQJ4d"
      }
    ],
    "rating": 4.3
  },
  {
    "id": "ChIJgeM8ZR1KaDQRd3ZqnsrYQ_E",
    "name": "佳禾日式炭燒JIAHE(預約優先制)",
    "address": "308台灣新竹縣寶山鄉明湖路57號",
    "region": "hsinchu_city",
    "latitude": 24.764660499999998,
    "longitude": 120.9872098,
    "orderLinks": [],
    "rating": 4.4
  },
  {
    "id": "ChIJr86JnPdJaDQRcNKHSZsX4x0",
    "name": "葉阿姨蔥油餅麵缐糊(廟旁邊)",
    "address": "308台灣新竹縣寶山鄉雙豐路3號",
    "region": "hsinchu_city",
    "latitude": 24.7653681,
    "longitude": 120.9901865,
    "orderLinks": [],
    "rating": 4.5
  },
  {
    "id": "ChIJn_dp-fBJaDQReAvFZbfDiK4",
    "name": "台北江麻辣臭豆腐專賣舖 寶山店",
    "address": "30841台灣新竹縣寶山鄉湳坑路二段121巷1號",
    "region": "hsinchu_city",
    "latitude": 24.7637885,
    "longitude": 120.9895627,
    "orderLinks": [
      {
        "id": "fff6362e-ee09-430e-b6c7-7b8a78c1e3ce",
        "platform": "官網",
        "url": "https://taibeijiang.weebly.com/"
      }
    ],
    "rating": 4.5
  },
  {
    "id": "ChIJdza2palLaDQRR9c0P77T5HE",
    "name": "新寶水煎包",
    "address": "308台灣新竹縣寶山鄉環北路303號",
    "region": "hsinchu_city",
    "latitude": 24.767293499999997,
    "longitude": 120.9843726,
    "orderLinks": [],
    "rating": 4.6
  },
  {
    "id": "ChIJ3-DEIwBJaDQRVzutIaORmkw",
    "name": "米撰雞腿壩王寶山店/池上便當/寶山排隊美食/竹科外送便當/園區外送便當/好吃會議便當/客製活動餐盒/新竹外送午晚餐/新竹排隊便當/來店消費可享免費停車",
    "address": "308台灣新竹縣寶山鄉湳坑路二段121巷15號",
    "region": "hsinchu_city",
    "latitude": 24.763149199999997,
    "longitude": 120.9893962,
    "orderLinks": [
      {
        "id": "b0170e89-8949-410a-a8c3-46f81374367a",
        "platform": "官網",
        "url": "https://lin.ee/8G6JnQUA"
      }
    ],
    "rating": 4.5
  },
  {
    "id": "ChIJ5eNfnPdJaDQRqCZvZPUrfRc",
    "name": "寶山廟口香雞排",
    "address": "308台灣新竹縣寶山鄉雙豐路4號",
    "region": "hsinchu_city",
    "latitude": 24.765302499999997,
    "longitude": 120.99018199999999,
    "orderLinks": [],
    "rating": 4.4
  },
  {
    "id": "ChIJlaisFKdJaDQRyBPeugZvwpg",
    "name": "金正好吃-寶山店",
    "address": "308台灣新竹縣寶山鄉雙園路二段372號",
    "region": "hsinchu_city",
    "latitude": 24.764517599999998,
    "longitude": 120.9894003,
    "orderLinks": [],
    "rating": 3.2
  },
  {
    "id": "ChIJf-tJyfdJaDQRS8oBabB5T9Y",
    "name": "大堂牛肉麵",
    "address": "308台灣新竹縣寶山鄉雙園路二段398號",
    "region": "hsinchu_city",
    "latitude": 24.764199299999998,
    "longitude": 120.9886292,
    "orderLinks": [],
    "rating": 3.9
  },
  {
    "id": "ChIJEYEcmwBKaDQRDPC97J4Y_l0",
    "name": "高翠快餐便當店",
    "address": "308台灣新竹縣寶山鄉湳坑路二段121巷5號",
    "region": "hsinchu_city",
    "latitude": 24.763607699999998,
    "longitude": 120.98955360000001,
    "orderLinks": [
      {
        "id": "183da100-b9e4-45aa-9e0b-4e3f202f5889",
        "platform": "官網",
        "url": "http://www.facebook.com/%E9%AB%98%E5%B3%B0%E5%BF%AB%E9%A4%90%E5%8E%9F%E9%AB%98%E5%B3%B0%E6%B3%B0%E5%BC%8F%E6%96%99%E7%90%86-942987065736709/"
      }
    ],
    "rating": 4
  },
  {
    "id": "ChIJp8LEC-NJaDQRZJSGxR2BFHM",
    "name": "雙醬咖哩雙溪店",
    "address": "308台灣新竹縣寶山鄉雙園路二段410號1樓",
    "region": "hsinchu_city",
    "latitude": 24.764014099999997,
    "longitude": 120.98846169999999,
    "orderLinks": [],
    "rating": 4.7
  },
  {
    "id": "ChIJgz6aKfZJaDQRLicClbH9wzQ",
    "name": "胖老爹美式炸雞 新竹寶山店",
    "address": "308台灣新竹縣寶山鄉寶新路一段12號",
    "region": "hsinchu_city",
    "latitude": 24.7636844,
    "longitude": 120.98769899999999,
    "orderLinks": [],
    "rating": 3.4
  },
  {
    "id": "ChIJM7b5WYJLaDQR8R8LcczJyPg",
    "name": "10 種香料印度餐車 | 10 Spices Indian Food Truck",
    "address": "No, No. 55明湖路寶山鄉新竹縣台灣 308",
    "region": "hsinchu_city",
    "latitude": 24.764597,
    "longitude": 120.98725499999999,
    "orderLinks": [],
    "rating": 4.5
  },
  {
    "id": "ChIJt7OF_MNJaDQRUHdp8Z-DNAg",
    "name": "一衖麵",
    "address": "308台灣新竹縣寶山鄉雙園路一段2巷18弄1衖3號",
    "region": "hsinchu_city",
    "latitude": 24.7708534,
    "longitude": 121.0044382,
    "orderLinks": [],
    "rating": 4.4
  },
  {
    "id": "ChIJy7I_vBg3aDQRnTyiDdv3Is0",
    "name": "八方雲集-新竹科館店",
    "address": "30075台灣新竹市東區工業東二路1號",
    "region": "hsinchu_city",
    "latitude": 24.7796931,
    "longitude": 121.005437,
    "orderLinks": [
      {
        "id": "278a23ba-a63a-4648-8d8e-37630962c661",
        "platform": "官網",
        "url": "https://www.8way.com.tw/"
      }
    ],
    "rating": 3.2
  },
  {
    "id": "ChIJWy4n6PlJaDQRIJWXs9yU_lM",
    "name": "新寶早餐店 水煎包專賣 - 寶山店",
    "address": "308台灣新竹縣寶山鄉雙園路一段2巷11號",
    "region": "hsinchu_city",
    "latitude": 24.7706837,
    "longitude": 121.00498320000001,
    "orderLinks": [
      {
        "id": "b98649eb-edd0-4b63-8b5d-1b190172f387",
        "platform": "官網",
        "url": "https://www.facebook.com/Xinbao2/"
      }
    ],
    "rating": 3.9
  },
  {
    "id": "ChIJT3OInnE3aDQRaoK2bk4xQ4w",
    "name": "星巴克 GRC門市",
    "address": "300台灣新竹市東區工業東三路1號",
    "region": "hsinchu_city",
    "latitude": 24.7766722,
    "longitude": 121.007719,
    "orderLinks": [],
    "rating": 4.4
  },
  {
    "id": "ChIJJ8EnqxE3aDQRqCqdVHfpaIU",
    "name": "雙饗丼、鐵板饄竹科店",
    "address": "308台灣新竹縣寶山鄉雙園路一段2巷2號",
    "region": "hsinchu_city",
    "latitude": 24.770774199999998,
    "longitude": 121.00535359999999,
    "orderLinks": [],
    "rating": 3.5
  },
  {
    "id": "ChIJOzIBRRk2aDQRfrEkN8GhbF8",
    "name": "露米亞歐法餐廳",
    "address": "300台灣新竹市東區工業東二路1號3樓",
    "region": "hsinchu_city",
    "latitude": 24.7797591,
    "longitude": 121.00566880000001,
    "orderLinks": [
      {
        "id": "d5285326-7e03-4608-b76c-8e304abe8025",
        "platform": "官網",
        "url": "http://www.facebook.com/LUMIERE.french.restaurant/"
      }
    ],
    "rating": 4.4
  },
  {
    "id": "ChIJSfCPlxFJaDQR-REuB6Z71-8",
    "name": "台灣光罩員工餐廳",
    "address": "308台灣新竹縣寶山鄉創新一路11號",
    "region": "hsinchu_city",
    "latitude": 24.774883,
    "longitude": 120.998159,
    "orderLinks": [],
    "rating": 4
  },
  {
    "id": "ChIJw3yGwes3aDQRTaFMjXmE_8o",
    "name": "米諾瓦咖啡｜Minerva Café 晶豪科門市",
    "address": "300台灣新竹市東區工業東四路23號",
    "region": "hsinchu_city",
    "latitude": 24.774535399999998,
    "longitude": 121.0089575,
    "orderLinks": [
      {
        "id": "26894255-8459-455a-abdf-0e1e7c717f24",
        "platform": "官網",
        "url": "http://minerva-cafe.com.tw/"
      }
    ],
    "rating": 4.1
  },
  {
    "id": "ChIJx7T--fpJaDQRs631DZePThU",
    "name": "早餐屋",
    "address": "308台灣新竹縣寶山鄉雙園一街1號",
    "region": "hsinchu_city",
    "latitude": 24.7666936,
    "longitude": 120.9966164,
    "orderLinks": [],
    "rating": 4
  },
  {
    "id": "ChIJxSPSOQA3aDQRL8ijOeNkob0",
    "name": "漢堡王 Burger King 新竹瑞昱店",
    "address": "300台灣新竹市東區園區二路9號",
    "region": "hsinchu_city",
    "latitude": 24.7803839,
    "longitude": 120.99818099999999,
    "orderLinks": [
      {
        "id": "a29e2c27-6f9f-4eb8-ab36-58b8c713d24c",
        "platform": "官網",
        "url": "https://www.burgerking.com.tw/"
      }
    ],
    "rating": 5
  },
  {
    "id": "ChIJscQdTQBJaDQRNrDgLZMFMDU",
    "name": "葫蘆肚小吃",
    "address": "308台灣新竹縣寶山鄉雙溪村",
    "region": "hsinchu_city",
    "latitude": 24.7665915,
    "longitude": 120.9961431,
    "orderLinks": [],
    "rating": 4.7
  },
  {
    "id": "ChIJoVxJluA1aDQRHY63emw8_Qw",
    "name": "沐嵐 · Moonlight",
    "address": "300台灣新竹市東區西大路240號",
    "region": "hsinchu_city",
    "latitude": 24.7984737,
    "longitude": 120.9684659,
    "orderLinks": [
      {
        "id": "a5729ff9-d60f-4942-9bda-c09b06e2a32d",
        "platform": "官網",
        "url": "https://www.facebook.com/profile.php?id=100063921677920"
      }
    ],
    "rating": 4.4
  },
  {
    "id": "ChIJi8wdhOw1aDQR-wdES8TzUTE",
    "name": "石家魚丸",
    "address": "300台灣新竹市东区兴学街27號2９號",
    "region": "hsinchu_city",
    "latitude": 24.797790199999998,
    "longitude": 120.96785919999998,
    "orderLinks": [
      {
        "id": "36656904-515f-4dea-b33b-2d2dc4ca6423",
        "platform": "官網",
        "url": "https://sfishball.com.tw/"
      }
    ],
    "rating": 4.2
  },
  {
    "id": "ChIJc2x47-41aDQRGRyXzAS-6w4",
    "name": "麥當勞-新竹食品餐廳",
    "address": "300台灣新竹市東區食品路228號",
    "region": "hsinchu_city",
    "latitude": 24.7950926,
    "longitude": 120.972557,
    "orderLinks": [
      {
        "id": "09924316-e843-4ae0-926e-3fc30e0f2014",
        "platform": "官網",
        "url": "https://www.mcdonalds.com/tw/zh-tw.html"
      }
    ],
    "rating": 4
  },
  {
    "id": "ChIJIcZk3Og1aDQRdJsrA8DdVxU",
    "name": "小鵲幸 車輪餅 - 新竹東南 起家店",
    "address": "300台灣新竹市東區東南街118號",
    "region": "hsinchu_city",
    "latitude": 24.797784,
    "longitude": 120.97397099999998,
    "orderLinks": [
      {
        "id": "45f514ba-4873-49e6-80e3-6a8f51631fce",
        "platform": "官網",
        "url": "https://m.facebook.com/alittlehappinesscake"
      }
    ],
    "rating": 4.4
  },
  {
    "id": "ChIJGXRRUeY1aDQRSRZx8N61PWM",
    "name": "每天都要吃早餐",
    "address": "300台灣新竹市東區東山街85號",
    "region": "hsinchu_city",
    "latitude": 24.7976983,
    "longitude": 120.97855759999999,
    "orderLinks": [
      {
        "id": "cc770517-f924-403f-aa4a-fa6092421338",
        "platform": "官網",
        "url": "https://www.facebook.com/frogfishhouse/"
      }
    ],
    "rating": 4.3
  },
  {
    "id": "ChIJjao5u-I1aDQRS05YLtXGgXU",
    "name": "新築窟（蔬食）",
    "address": "300台灣新竹市東區南大路166號",
    "region": "hsinchu_city",
    "latitude": 24.800979400000003,
    "longitude": 120.9747396,
    "orderLinks": [
      {
        "id": "c61b3219-2ebc-4e41-904a-1e5d2c1136a7",
        "platform": "官網",
        "url": "https://oohchacha.net/"
      }
    ],
    "rating": 4.6
  },
  {
    "id": "ChIJdcmEgJ01aDQRYaYnPKu3ONQ",
    "name": "陶板屋 新竹食品店",
    "address": "300台灣新竹市东区食品路305-1號2F",
    "region": "hsinchu_city",
    "latitude": 24.7946699,
    "longitude": 120.97288719999999,
    "orderLinks": [
      {
        "id": "474db209-2b52-47d1-8b32-19cca0df7af2",
        "platform": "官網",
        "url": "https://www.tokiya.com.tw/"
      }
    ],
    "rating": 4.7
  },
  {
    "id": "ChIJ9e6ChgQ1aDQRf24OfsMpnz8",
    "name": "竹美港式茶餐廳 學府店(沒有訂位服務)",
    "address": "300台灣新竹市東區學府路73號",
    "region": "hsinchu_city",
    "latitude": 24.7947709,
    "longitude": 120.9781473,
    "orderLinks": [
      {
        "id": "847c3d2b-4948-4029-878a-c6a35252d5b9",
        "platform": "官網",
        "url": "https://www.facebook.com/Chumei03"
      }
    ],
    "rating": 4.8
  },
  {
    "id": "ChIJXTIi5-k1aDQR3GLsy69Gx5g",
    "name": "田記烤鴨",
    "address": "30062台灣新竹市東區食品路416號",
    "region": "hsinchu_city",
    "latitude": 24.7938543,
    "longitude": 120.96807129999998,
    "orderLinks": [],
    "rating": 3.8
  },
  {
    "id": "ChIJZ93aQGU1aDQR8CUD11D7p5I",
    "name": "斜角古早味綿綿冰（紅豆湯、燒仙草）",
    "address": "300台灣新竹市東區南大路393號",
    "region": "hsinchu_city",
    "latitude": 24.7966017,
    "longitude": 120.96824509999999,
    "orderLinks": [
      {
        "id": "3731d2b9-e981-4fdf-bc5e-2b940692f77b",
        "platform": "官網",
        "url": "https://instagram.com/obliqueangle_ice?utm_medium=copy_link"
      }
    ],
    "rating": 4.8
  },
  {
    "id": "ChIJ6Zt5Y481aDQRG8mZ-cJZxMM",
    "name": "太空總薯-韓式2號店",
    "address": "300台灣新竹市東區食品路134巷1號",
    "region": "hsinchu_city",
    "latitude": 24.797800799999997,
    "longitude": 120.9770318,
    "orderLinks": [
      {
        "id": "00259d07-8442-4d23-9ac0-061c6739dabd",
        "platform": "官網",
        "url": "https://space-potato.com/chillspace02/"
      }
    ],
    "rating": 4.5
  },
  {
    "id": "ChIJlVNAE141aDQREbYAaPPmb7k",
    "name": "星巴克 新竹動物園門市",
    "address": "300台灣新竹市東區博愛街111號1樓、2樓",
    "region": "hsinchu_city",
    "latitude": 24.800134999999997,
    "longitude": 120.97919449999999,
    "orderLinks": [
      {
        "id": "e0e87e23-b649-450f-8b73-5d73de1f14b4",
        "platform": "官網",
        "url": "http://www.starbucks.com.tw/"
      }
    ],
    "rating": 4.5
  },
  {
    "id": "ChIJL7QPnzU1aDQRicUeA--NAX0",
    "name": "福徠鴨新台式烤鴨Fu DUCK IN",
    "address": "300台灣新竹市東區西大路74號",
    "region": "hsinchu_city",
    "latitude": 24.795923,
    "longitude": 120.971375,
    "orderLinks": [
      {
        "id": "6f4721fe-3e1c-4d7f-a92c-802412dc96ef",
        "platform": "官網",
        "url": "https://www.facebook.com/profile.php?id=100090528368797&mibextid=LQQJ4d"
      }
    ],
    "rating": 4.7
  },
  {
    "id": "ChIJQ4a1ouY1aDQROl6yOqnEOAk",
    "name": "阿婆早餐麵店",
    "address": "300台灣新竹市東區東山街6號",
    "region": "hsinchu_city",
    "latitude": 24.7957423,
    "longitude": 120.9804408,
    "orderLinks": [
      {
        "id": "44422a13-3e90-4e91-babf-eb3d9de8cdac",
        "platform": "官網",
        "url": "https://www.facebook.com/%E9%98%BF%E5%A9%86%E6%97%A9%E9%A4%90%E9%BA%B5%E5%BA%97-136808669740035/"
      }
    ],
    "rating": 4.1
  },
  {
    "id": "ChIJ_7fcdME1aDQRWtEib01QRiM",
    "name": "麥當勞-新竹南大餐廳",
    "address": "300台灣新竹市東區南大路337號1樓",
    "region": "hsinchu_city",
    "latitude": 24.7975607,
    "longitude": 120.96976639999998,
    "orderLinks": [
      {
        "id": "a8d4f0b2-6165-47f0-bbbb-465bd9068f13",
        "platform": "官網",
        "url": "https://www.mcdonalds.com/tw/zh-tw.html"
      }
    ],
    "rating": 3.9
  },
  {
    "id": "ChIJC3sUquk1aDQRNG-5KpPLCY4",
    "name": "六扇門時尚湯鍋 新竹東南店",
    "address": "300台灣新竹市東區東南街55號",
    "region": "hsinchu_city",
    "latitude": 24.7994433,
    "longitude": 120.9730098,
    "orderLinks": [
      {
        "id": "dbe293e4-e557-45ac-a41e-1b05c8cd80c1",
        "platform": "官網",
        "url": "https://www.facebook.com/%E5%85%AD%E6%89%87%E9%96%80%E6%99%82%E5%B0%9A%E6%B9%AF%E9%8D%8B-%E6%96%B0%E7%AB%B9%E6%9D%B1%E5%8D%97%E5%BA%97-118580048759570/?fref=ts"
      }
    ],
    "rating": 4
  },
  {
    "id": "ChIJRaoIx901aDQRhhAjzab5Kjs",
    "name": "億品鍋-新竹食品店",
    "address": "300台灣新竹市東區食品路262號",
    "region": "hsinchu_city",
    "latitude": 24.7944326,
    "longitude": 120.9717101,
    "orderLinks": [],
    "rating": 4.6
  },
  {
    "id": "ChIJG9E4koA1aDQR8rDCdDVbitk",
    "name": "TWINS 廚房 正宗西藏青海羊排炕鍋",
    "address": "300台灣新竹市東區南大路107號",
    "region": "hsinchu_city",
    "latitude": 24.8012668,
    "longitude": 120.97574689999999,
    "orderLinks": [
      {
        "id": "b3402627-4c00-4d9c-b5ed-f657ef730a96",
        "platform": "官網",
        "url": "https://www.facebook.com/TWINS-%E5%BB%9A%E6%88%BF-%E6%AD%A3%E5%AE%97%E8%A5%BF%E8%97%8F%E9%9D%92%E6%B5%B7%E7%BE%8A%E6%8E%92%E7%82%95%E9%8D%8B-411997322666815/"
      }
    ],
    "rating": 4.4
  },
  {
    "id": "ChIJ4TBgje81aDQRhT5GgrTaF7Q",
    "name": "皇膳湯包 寶山店",
    "address": "300台灣新竹市東區寶山路128號",
    "region": "hsinchu_city",
    "latitude": 24.7924013,
    "longitude": 120.97511909999999,
    "orderLinks": [
      {
        "id": "b0c967a5-938f-41cf-93b5-c5334759a7c9",
        "platform": "官網",
        "url": "https://zh-tw.facebook.com/%E7%9A%87%E8%86%B3%E6%B9%AF%E5%8C%85-608003859225782/"
      }
    ],
    "rating": 4.4
  },
  {
    "id": "ChIJ_aJ6i-U1aDQRU6l60v2Cvdg",
    "name": "東南漢堡店",
    "address": "300台灣新竹市東區東南街54號",
    "region": "hsinchu_city",
    "latitude": 24.7990116,
    "longitude": 120.9730649,
    "orderLinks": [
      {
        "id": "9905ee1b-56c7-4326-91b7-34e00b5f23f0",
        "platform": "官網",
        "url": "https://www.facebook.com/%E6%9D%B1%E5%8D%97%E6%BC%A2%E5%A0%A1%E5%BA%97-155186874639390/"
      }
    ],
    "rating": 4.3
  },
  {
    "id": "ChIJq2H9q4I1aDQRFEE9aMGuIvs",
    "name": "艷麗Pondok Sunny",
    "address": "300台灣新竹市東區南大路52號",
    "region": "hsinchu_city",
    "latitude": 24.802760799999998,
    "longitude": 120.977823,
    "orderLinks": [
      {
        "id": "b9d9c824-83f1-499d-b9ce-657b92422d12",
        "platform": "官網",
        "url": "https://www.pondok-sunny.com/"
      }
    ],
    "rating": 4.5
  },
  {
    "id": "ChIJPaT0WVQ1aDQRt5rrq5IsHJ8",
    "name": "柒伍無煙燒肉",
    "address": "300台灣新竹市東區大同路23號",
    "region": "hsinchu_city",
    "latitude": 24.803180599999997,
    "longitude": 120.96967509999999,
    "orderLinks": [
      {
        "id": "226d838c-fc5e-48bb-a52c-ade3e0717823",
        "platform": "官網",
        "url": "https://www.facebook.com/pages/category/Restaurant/%E6%9F%92%E4%BC%8D%E7%84%A1%E7%85%99%E7%87%92%E8%82%89-104084347787019/"
      }
    ],
    "rating": 4.9
  },
  {
    "id": "ChIJ350Fswo1aDQR7AoBMbVo2tg",
    "name": "良家手工港式點心坊",
    "address": "300台灣新竹市東區花園街19號",
    "region": "hsinchu_city",
    "latitude": 24.8034714,
    "longitude": 120.9779449,
    "orderLinks": [
      {
        "id": "8fc22384-3cbc-4a07-8ad5-a146f49a9fba",
        "platform": "官網",
        "url": "https://lin.ee/foem1Pw"
      }
    ],
    "rating": 4.4
  },
  {
    "id": "ChIJV0TGlME1aDQRy0Kuutn6-Wc",
    "name": "好豆味冰沙豆花",
    "address": "300台灣新竹市東區勝利路20號",
    "region": "hsinchu_city",
    "latitude": 24.803296,
    "longitude": 120.97000309999999,
    "orderLinks": [
      {
        "id": "9131d4c8-13fd-4eea-892e-ee16cced6c5a",
        "platform": "官網",
        "url": "https://www.facebook.com/DouWeiDouHuaDian/"
      }
    ],
    "rating": 4.3
  },
  {
    "id": "ChIJvZU_Teo1aDQRbwKXyGAfAXA",
    "name": "原味鴨肉麵",
    "address": "300台灣新竹市東區勝利路59號",
    "region": "hsinchu_city",
    "latitude": 24.800525200000003,
    "longitude": 120.96841560000001,
    "orderLinks": [
      {
        "id": "d68ef2a0-301d-4ee1-bad3-0c1aa644da11",
        "platform": "官網",
        "url": "https://www.facebook.com/profile.php?id=100057360411659"
      }
    ],
    "rating": 4.3
  },
  {
    "id": "ChIJmSEKN8c1aDQRgY2PNGL1G4Y",
    "name": "竹東邱記排骨酥麵-新竹店",
    "address": "300台灣新竹市東區公園路270號",
    "region": "hsinchu_city",
    "latitude": 24.8031737,
    "longitude": 120.97946820000001,
    "orderLinks": [
      {
        "id": "5025ada4-557c-4a80-ad46-138e4c13d7f1",
        "platform": "官網",
        "url": "https://www.facebook.com/373781029372787/posts/3486399568110902/?extid=qGIX4B0KtmzcKYSQ&d=n"
      }
    ],
    "rating": 4
  },
  {
    "id": "ChIJcSaqW-A1aDQRhWAdEK6Ygws",
    "name": "璽子牛肉麵（新竹博愛店）",
    "address": "300台灣新竹市東區博愛街31號",
    "region": "hsinchu_city",
    "latitude": 24.7974231,
    "longitude": 120.985294,
    "orderLinks": [
      {
        "id": "fc847ff4-0a50-499c-bad3-92196ad9fbaf",
        "platform": "官網",
        "url": "https://sizih2007.weebly.com/"
      }
    ],
    "rating": 4.2
  },
  {
    "id": "ChIJ_7fcdME1aDQRUmPgoQZDOmY",
    "name": "麥當勞-新竹中正餐廳",
    "address": "300台灣新竹市東區中正路34號",
    "region": "hsinchu_city",
    "latitude": 24.803469699999997,
    "longitude": 120.97120249999999,
    "orderLinks": [
      {
        "id": "69e9c270-abbe-4c61-8e29-930c96f39073",
        "platform": "官網",
        "url": "https://www.mcdonalds.com/tw/zh-tw.html"
      }
    ],
    "rating": 3.7
  },
  {
    "id": "ChIJcbhLsOs1aDQRCOeawP2RSxo",
    "name": "刀削麵",
    "address": "300台灣新竹市東區中華路二段572號",
    "region": "hsinchu_city",
    "latitude": 24.799809900000003,
    "longitude": 120.96783789999998,
    "orderLinks": [],
    "rating": 4.3
  },
  {
    "id": "ChIJ-3Eeyt01aDQRYtBEy85vrsI",
    "name": "公園黑乾麵",
    "address": "300台灣新竹市東區體育街82號",
    "region": "hsinchu_city",
    "latitude": 24.802661999999998,
    "longitude": 120.980532,
    "orderLinks": [],
    "rating": 4.1
  },
  {
    "id": "ChIJBxRPBI41aDQRYs7u-Oq4Pm4",
    "name": "春室 SPRING POOL GLASS STUDIO + The POOL",
    "address": "300台灣新竹市東區東大路一段2號",
    "region": "hsinchu_city",
    "latitude": 24.801322499999998,
    "longitude": 120.9784957,
    "orderLinks": [
      {
        "id": "ea6d4def-b050-4258-88e4-a4a89563f696",
        "platform": "官網",
        "url": "https://www.glasspoolstore.com/pages/about-springpoolglassstudio"
      }
    ],
    "rating": 4.6
  },
  {
    "id": "ChIJgQJ9bqM1aDQRJcvuSbkJMcg",
    "name": "辛志平校長故居本館(前棟)",
    "address": "300台灣新竹市東區東門街32號",
    "region": "hsinchu_city",
    "latitude": 24.804337500000003,
    "longitude": 120.9739152,
    "orderLinks": [
      {
        "id": "36e28e8a-a2cc-4331-a693-fc1332134c6b",
        "platform": "官網",
        "url": "https://www.facebook.com/Hsinchiping.former.residence/"
      }
    ],
    "rating": 4.4
  },
  {
    "id": "ChIJb9ONMY01aDQRyvNAwiKOhMI",
    "name": "波諾義大利料理 新竹",
    "address": "300台灣新竹市東區南大路525號",
    "region": "hsinchu_city",
    "latitude": 24.791772700000003,
    "longitude": 120.96458659999999,
    "orderLinks": [
      {
        "id": "390d4425-af3f-4ccc-a1c6-ff8644fd0aff",
        "platform": "官網",
        "url": "http://buonobella.com/"
      }
    ],
    "rating": 4.2
  },
  {
    "id": "ChIJC9VFWO81aDQRvPDb8uKg9Tw",
    "name": "Mountain House 山房吐司料理 (不接受訂位）",
    "address": "300台灣新竹市東區東南街245號",
    "region": "hsinchu_city",
    "latitude": 24.795131100000003,
    "longitude": 120.97611289999998,
    "orderLinks": [
      {
        "id": "c51ae372-491e-49c8-8a99-82f8b41bbbb5",
        "platform": "iCHEF",
        "url": "https://shop.ichefpos.com/store/zjOvkAVA/ordering?fbclid=PAAaYm8x5IxYUWbytrhZ6qi6cqQd0LI9D_2_M-ZN7IvKUz92KNjWk3xdrxuDA_aem_AY7ZX-3mafZpxBUn_Sjh1trFRO-NPcRVds_I3DWkEy5C-xDZORFziaxJaQevIflT2Qc"
      }
    ],
    "rating": 3.8
  },
  {
    "id": "ChIJAWQbbvM1aDQRWmfTHScOHh8",
    "name": "嘉味火雞肉飯",
    "address": "300台灣新竹市東區南大路828號",
    "region": "hsinchu_city",
    "latitude": 24.7884863,
    "longitude": 120.9667269,
    "orderLinks": [],
    "rating": 4.3
  },
  {
    "id": "ChIJfSEV7xM1aDQRrZZEsF5pO2s",
    "name": "雞肉男雞肉飯",
    "address": "300台灣新竹市東區食品路221號",
    "region": "hsinchu_city",
    "latitude": 24.7958782,
    "longitude": 120.97444970000001,
    "orderLinks": [
      {
        "id": "fc24493c-d16e-4937-933a-9e43a24e58ba",
        "platform": "官網",
        "url": "https://www.facebook.com/profile.php?id=100089813297122&locale=zh_TW"
      }
    ],
    "rating": 4.4
  },
  {
    "id": "ChIJ9Z3iN2E1aDQR-FE-fsOF368",
    "name": "一私麵宅新竹店",
    "address": "300台灣新竹市東區東南街223號",
    "region": "hsinchu_city",
    "latitude": 24.7957845,
    "longitude": 120.9756169,
    "orderLinks": [],
    "rating": 4.3
  },
  {
    "id": "ChIJHRp2N-81aDQRMfWb-nwV-1c",
    "name": "麵堂拉麵專賣店",
    "address": "300台灣新竹市東區食品路223號",
    "region": "hsinchu_city",
    "latitude": 24.7958744,
    "longitude": 120.9743727,
    "orderLinks": [
      {
        "id": "43d2163b-723f-44db-b5e4-a83808513d6a",
        "platform": "官網",
        "url": "https://www.facebook.com/miantang2014/"
      }
    ],
    "rating": 4.4
  },
  {
    "id": "ChIJISOj3OU1aDQRcczo3dgWlOY",
    "name": "La Dolce Vita樂多趣義大利餐廳 店休日請看臉書與IG ～～內用假日低消600",
    "address": "300台灣新竹市東區学府路61巷5-2號",
    "region": "hsinchu_city",
    "latitude": 24.794998099999997,
    "longitude": 120.97791260000001,
    "orderLinks": [
      {
        "id": "6f8ee530-7543-476f-8649-10f1690dfc28",
        "platform": "官網",
        "url": "https://www.facebook.com/dolce0vita/"
      }
    ],
    "rating": 4.4
  },
  {
    "id": "ChIJCVwbK401aDQR9EJK_rACCUU",
    "name": "南大路倪家永和豆漿大王",
    "address": "300台灣新竹市東區南大路716號",
    "region": "hsinchu_city",
    "latitude": 24.7912173,
    "longitude": 120.9641762,
    "orderLinks": [],
    "rating": 4.4
  },
  {
    "id": "ChIJ_8VTWwA1aDQR5F5Ix7-dd6w",
    "name": "貓的堅持（新竹店）創意輕藥膳養生料理",
    "address": "300台灣新竹市東區西大路63號",
    "region": "hsinchu_city",
    "latitude": 24.795660899999998,
    "longitude": 120.97119649999999,
    "orderLinks": [
      {
        "id": "07d7553f-70d3-452a-b15f-aafcd64f7df9",
        "platform": "官網",
        "url": "https://www.facebook.com/profile.php?id=100066772443262&mibextid=LQQJ4d"
      }
    ],
    "rating": 4.6
  },
  {
    "id": "ChIJq0sXzyk1aDQROyG3m3M8GEQ",
    "name": "大爺鹽酥雞",
    "address": "300台灣新竹市東區食品路329號",
    "region": "hsinchu_city",
    "latitude": 24.7943194,
    "longitude": 120.97181549999999,
    "orderLinks": [
      {
        "id": "e7b09dba-104c-4928-8a3b-c99fb64e3baa",
        "platform": "官網",
        "url": "https://m.facebook.com/daye035/"
      }
    ],
    "rating": 4.7
  },
  {
    "id": "ChIJ_zOVDUc1aDQR9xqhYJMoIWU",
    "name": "洞心咖啡廳Heartbeat Cafe-新竹深夜咖啡廳/下午茶/手作甜點 手沖/精品/義式咖啡 輕食/蛋糕 咖啡課程體驗 桌遊/親子/包場/約會/網美/打卡 人氣熱門好評推薦 PTT Dcard",
    "address": "300台灣新竹市東區学府路61巷5-1號",
    "region": "hsinchu_city",
    "latitude": 24.795053499999998,
    "longitude": 120.9779442,
    "orderLinks": [
      {
        "id": "4241210f-8e16-4e04-a21d-aa7fa852281a",
        "platform": "官網",
        "url": "https://heartbeat-cafe.com/"
      }
    ],
    "rating": 4.9
  },
  {
    "id": "ChIJK997kuU1aDQRLsBGt45KTL0",
    "name": "老雲記餃子館",
    "address": "300台灣新竹市東區學府路1號",
    "region": "hsinchu_city",
    "latitude": 24.7941998,
    "longitude": 120.9767696,
    "orderLinks": [
      {
        "id": "c9b4164a-a196-428f-a749-67e786cc9260",
        "platform": "官網",
        "url": "https://www.facebook.com/pages/%E8%80%81%E9%9B%B2%E8%A8%98%E9%BA%B5%E9%A3%9F%E9%A4%A8/124591950943493"
      }
    ],
    "rating": 4
  },
  {
    "id": "ChIJDX9LQVY1aDQR_xdO1aAAv70",
    "name": "成功牛排 南大店",
    "address": "300台灣新竹市東區南大路816-2號",
    "region": "hsinchu_city",
    "latitude": 24.788716899999997,
    "longitude": 120.9665774,
    "orderLinks": [],
    "rating": 4.8
  },
  {
    "id": "ChIJ5zwU9As2aDQR-mrTEokhMa4",
    "name": "國立清華大學 小吃部",
    "address": "30013台灣新竹市東區光復路二段101號",
    "region": "hsinchu_city",
    "latitude": 24.7931395,
    "longitude": 120.99310419999999,
    "orderLinks": [
      {
        "id": "a392b4b5-7b27-4bef-8542-f6f90810b94d",
        "platform": "官網",
        "url": "http://www.nthu.edu.tw/"
      }
    ],
    "rating": 4
  },
  {
    "id": "ChIJb9VLFUk1aDQRnA0JcAzd3X8",
    "name": "阿美泰泰",
    "address": "300台灣新竹市東區學府路56號1樓",
    "region": "hsinchu_city",
    "latitude": 24.7961851,
    "longitude": 120.98281659999998,
    "orderLinks": [
      {
        "id": "22b282fb-fcf8-4c9d-8ff5-e75157a85c87",
        "platform": "官網",
        "url": "https://www.facebook.com/%E9%98%BF%E7%BE%8E%E6%B3%B0%E6%B3%B0-113049507701812/?ref=pages_you_manage"
      }
    ],
    "rating": 4.5
  },
  {
    "id": "ChIJWdjyGww2aDQRNevyzv4kuXg",
    "name": "水木餐廳",
    "address": "300台灣新竹市東區光復路二段101號",
    "region": "hsinchu_city",
    "latitude": 24.7922877,
    "longitude": 120.9940825,
    "orderLinks": [
      {
        "id": "4faa45d4-c607-47ce-bc8e-5244b9043c83",
        "platform": "官網",
        "url": "https://facebook.com/waterwoodfoodcourt/"
      }
    ],
    "rating": 4
  },
  {
    "id": "ChIJ1wJ0WuA1aDQRkRYwPLHwGbg",
    "name": "無名早餐店 饅頭肉排蛋",
    "address": "300台灣新竹市東區學府路112號",
    "region": "hsinchu_city",
    "latitude": 24.7966655,
    "longitude": 120.9841455,
    "orderLinks": [
      {
        "id": "465fcc53-b1fa-48fc-9c91-34af3d65e12f",
        "platform": "官網",
        "url": "https://www.facebook.com/pages/%E7%84%A1%E5%90%8D%E9%A5%85%E9%A0%AD%E8%82%89%E6%8E%92%E8%9B%8B/101511223263792"
      }
    ],
    "rating": 4.3
  },
  {
    "id": "ChIJZZnY0nQ2aDQRaGoa5ALVp4g",
    "name": "麥當勞-新竹清大餐廳",
    "address": "300台灣新竹市東區光復路二段101號清華大學小吃部",
    "region": "hsinchu_city",
    "latitude": 24.792905299999997,
    "longitude": 120.9931201,
    "orderLinks": [
      {
        "id": "01861dd8-df74-4587-a7f7-1f88accdd2fc",
        "platform": "官網",
        "url": "https://www.mcdonalds.com/tw/zh-tw.html"
      }
    ],
    "rating": 3.8
  },
  {
    "id": "ChIJ34d2ouY1aDQRWqPCvKGmAOM",
    "name": "阿寶魯肉飯",
    "address": "300台灣新竹市東區學府路165號",
    "region": "hsinchu_city",
    "latitude": 24.795509799999998,
    "longitude": 120.98032979999999,
    "orderLinks": [
      {
        "id": "1df5cd14-ad2d-4e85-90aa-6eb45b98d95b",
        "platform": "官網",
        "url": "https://www.facebook.com/pages/%E9%98%BF%E5%AF%B6%E6%BB%B7%E8%82%89%E9%A3%AF/1666286903389622"
      }
    ],
    "rating": 4.2
  },
  {
    "id": "ChIJKTONuuY1aDQRLfRSLr5A280",
    "name": "學府牛肉麵",
    "address": "300台灣新竹市東區學府路106號",
    "region": "hsinchu_city",
    "latitude": 24.7966438,
    "longitude": 120.9839793,
    "orderLinks": [
      {
        "id": "fc76111a-42c5-4999-bc28-a7332bbf195b",
        "platform": "官網",
        "url": "https://www.facebook.com/xuefu.com.tw/"
      }
    ],
    "rating": 4
  },
  {
    "id": "ChIJ-0IMjD41aDQRNX6ISUK3fM4",
    "name": "富珍鄉豬腳專賣店",
    "address": "300台灣新竹市東區學府路359號",
    "region": "hsinchu_city",
    "latitude": 24.797373999999998,
    "longitude": 120.98541429999999,
    "orderLinks": [
      {
        "id": "56ef5fe0-b83c-4710-9c08-6e2b1a3de73a",
        "platform": "官網",
        "url": "https://m.facebook.com/%E5%AF%8C%E7%8F%8D%E9%84%89%E8%B1%AC%E8%85%B3%E5%B0%88%E8%B3%A3%E5%BA%97-110670497871850/"
      }
    ],
    "rating": 4.4
  },
  {
    "id": "ChIJAx_vf8k1aDQRrFqfIvZIkj8",
    "name": "德本家 tokumoto_brunch",
    "address": "300台灣新竹市東區學府路349號",
    "region": "hsinchu_city",
    "latitude": 24.797202799999997,
    "longitude": 120.98504899999999,
    "orderLinks": [
      {
        "id": "f5f11cf5-9252-45be-a0b6-bfddbf71e48e",
        "platform": "官網",
        "url": "https://store.dudooeat.com/order/store/517182804fc849149d451d726854bf58"
      }
    ],
    "rating": 4.1
  },
  {
    "id": "ChIJby-2HuE1aDQRNArFQxLa3fc",
    "name": "興達飲食店（臭臉麵店）",
    "address": "300台灣新竹市東區學府路289號",
    "region": "hsinchu_city",
    "latitude": 24.7966497,
    "longitude": 120.9835907,
    "orderLinks": [],
    "rating": 4.3
  },
  {
    "id": "ChIJB9M8cFY1aDQRpO-KFUnTIMY",
    "name": "湘月食堂",
    "address": "300台灣新竹市東區學府路126號",
    "region": "hsinchu_city",
    "latitude": 24.796759299999998,
    "longitude": 120.98442409999998,
    "orderLinks": [
      {
        "id": "17f80b5a-9fed-441c-9899-4730cb8c9b91",
        "platform": "官網",
        "url": "https://www.facebook.com/%E6%B9%98%E6%9C%88%E9%A3%9F%E5%A0%82-105523347604292/"
      }
    ],
    "rating": 4.4
  },
  {
    "id": "ChIJ10ye_eA1aDQRjlUTgWdZBhg",
    "name": "丐幫滷味學府分舵",
    "address": "300台灣新竹市東區學府路321號1樓",
    "region": "hsinchu_city",
    "latitude": 24.7968731,
    "longitude": 120.98419659999999,
    "orderLinks": [
      {
        "id": "c45c9b1e-2869-433a-9971-b6998c2ac8e0",
        "platform": "官網",
        "url": "http://www.gaibom.com/"
      }
    ],
    "rating": 4.4
  },
  {
    "id": "ChIJVVVVVdw1aDQRxmQEm2Ub6Y8",
    "name": "168新加坡美食",
    "address": "300台灣新竹市東區學府路307號",
    "region": "hsinchu_city",
    "latitude": 24.7968101,
    "longitude": 120.9840636,
    "orderLinks": [
      {
        "id": "c0c99a11-95e7-42f7-8720-360c5c665cb6",
        "platform": "官網",
        "url": "https://m.facebook.com/profile.php?id=412430385451571"
      }
    ],
    "rating": 4
  },
  {
    "id": "ChIJs8wLNeE1aDQR0c8v55zprZo",
    "name": "楊家古早味美食（滷肉飯鍋燒麵小卷米粉）",
    "address": "300台灣新竹市東區學府路215號",
    "region": "hsinchu_city",
    "latitude": 24.796045499999998,
    "longitude": 120.98193930000001,
    "orderLinks": [
      {
        "id": "90ff1871-8c11-4ed0-9c44-36d76763c984",
        "platform": "官網",
        "url": "https://www.facebook.com/yang5710520/"
      }
    ],
    "rating": 4.3
  },
  {
    "id": "ChIJgeYQOAA1aDQRDlIctmyNIes",
    "name": "廖哩",
    "address": "300039台灣新竹市東區學府路66號",
    "region": "hsinchu_city",
    "latitude": 24.7962296,
    "longitude": 120.98293489999999,
    "orderLinks": [
      {
        "id": "6b35b5be-9da5-437b-9e2c-26b91226415b",
        "platform": "官網",
        "url": "https://www.facebook.com/profile.php?id=100054571474227"
      }
    ],
    "rating": 4.8
  },
  {
    "id": "ChIJJ2_AGeE1aDQREfl-QL9DvqY",
    "name": "山東饅頭 學府店",
    "address": "300台灣新竹市東區學府路86號",
    "region": "hsinchu_city",
    "latitude": 24.7965517,
    "longitude": 120.98374720000001,
    "orderLinks": [],
    "rating": 4.3
  },
  {
    "id": "ChIJOeu-v0o3aDQRuarZyVxLYAM",
    "name": "森森燒肉 新竹清大店",
    "address": "300台灣新竹市東區光復路二段151號",
    "region": "hsinchu_city",
    "latitude": 24.7980508,
    "longitude": 120.99444240000001,
    "orderLinks": [
      {
        "id": "b755d45b-964b-46a5-abb2-bf7162070431",
        "platform": "官網",
        "url": "https://www.facebook.com/morimorifb.tw/"
      }
    ],
    "rating": 4.9
  },
  {
    "id": "ChIJbZAbVnE2aDQRolSy1dAf1Yk",
    "name": "段純貞建功店",
    "address": "300台灣新竹市東區建功一路135號",
    "region": "hsinchu_city",
    "latitude": 24.8026457,
    "longitude": 120.9937853,
    "orderLinks": [
      {
        "id": "ccc3b10a-ee41-4a39-bf9f-177c2fb545b1",
        "platform": "Ocard 線上點",
        "url": "https://order.ocard.co/jiangong/w2O74Q?a&utm_source=bot&utm_medium=line"
      }
    ],
    "rating": 4.1
  },
  {
    "id": "ChIJHy5wqxM2aDQRl3YZgSm68gs",
    "name": "大拇指小館",
    "address": "300台灣新竹市東區光復路二段52號",
    "region": "hsinchu_city",
    "latitude": 24.7918314,
    "longitude": 121.0036282,
    "orderLinks": [
      {
        "id": "f2ab2d67-e287-4d3d-aa81-664723f84860",
        "platform": "官網",
        "url": "https://www.facebook.com/pages/%E5%A4%A7%E6%8B%87%E6%8C%87%E5%B0%8F%E9%A4%A8/199856016705637"
      }
    ],
    "rating": 4.1
  },
  {
    "id": "ChIJayjir3I2aDQR0TGPgfctBdI",
    "name": "立晉豆花",
    "address": "300台灣新竹市東區建功一路6號",
    "region": "hsinchu_city",
    "latitude": 24.796863600000002,
    "longitude": 120.99839779999999,
    "orderLinks": [
      {
        "id": "82248b39-917f-418e-b022-c7ae95269cdd",
        "platform": "官網",
        "url": "https://www.facebook.com/%E7%AB%8B%E6%99%89%E5%82%B3%E7%B5%B1%E8%B1%86%E8%8A%B1-246909422001492/"
      }
    ],
    "rating": 4
  },
  {
    "id": "ChIJczUaDXQ2aDQRLvxS6dQ5FJA",
    "name": "Go eat Tapas Dining BAR 西班牙餐酒館(新竹)",
    "address": "300台灣新竹市東區新源街108號",
    "region": "hsinchu_city",
    "latitude": 24.802104900000003,
    "longitude": 120.99310759999999,
    "orderLinks": [
      {
        "id": "ecef0082-755b-470a-a267-82b8e8b8ac43",
        "platform": "官網",
        "url": "https://www.facebook.com/goeattapas"
      }
    ],
    "rating": 4.4
  },
  {
    "id": "ChIJh6ttAnc3aDQRQZu7vCFQcO8",
    "name": "「拾起回憶」石憶食鍋/restaurants/美食/火鍋",
    "address": "300台灣新竹市東區忠孝路51號",
    "region": "hsinchu_city",
    "latitude": 24.802334199999997,
    "longitude": 120.99077910000001,
    "orderLinks": [
      {
        "id": "c8a08c9f-90fc-49e9-95f4-518517f20aee",
        "platform": "官網",
        "url": "https://shiyishiguo.weebly.com/"
      }
    ],
    "rating": 4.9
  },
  {
    "id": "ChIJ-9Ii9Kc3aDQRMsTHCBLmwB8",
    "name": "八二親食 將軍村",
    "address": "300台灣新竹市東區金城一路67號",
    "region": "hsinchu_city",
    "latitude": 24.794518099999998,
    "longitude": 121.0028583,
    "orderLinks": [
      {
        "id": "bd0396c5-c8a6-4ce4-af56-334cdb46c59e",
        "platform": "inline",
        "url": "https://inline.app/booking/-MYifWETiFJXKjFOhhSP:inline-live-2/-NJvAdx1DJE0-nV2nhSC"
      }
    ],
    "rating": 4.5
  },
  {
    "id": "ChIJRTzE0HI2aDQRWUCg5LibBp4",
    "name": "星巴克 光復清大門市",
    "address": "300台灣新竹市東區光復路二段406號",
    "region": "hsinchu_city",
    "latitude": 24.7971631,
    "longitude": 120.99669200000001,
    "orderLinks": [
      {
        "id": "0afbac96-8de3-4b71-8918-2e9fef6cc2d3",
        "platform": "官網",
        "url": "http://www.starbucks.com.tw/"
      }
    ],
    "rating": 4.2
  },
  {
    "id": "ChIJV1SB7Ro3aDQROnas-ElaThE",
    "name": "墨竹亭 燃麵本家 新竹光復店",
    "address": "300台灣新竹市東區光復路二段760號",
    "region": "hsinchu_city",
    "latitude": 24.8009557,
    "longitude": 120.98814689999999,
    "orderLinks": [
      {
        "id": "54ca0180-97d7-421d-bb6b-5e77a06d9463",
        "platform": "官網",
        "url": "http://www.mozhuting.com/"
      }
    ],
    "rating": 4.7
  },
  {
    "id": "ChIJ0bhVjHI2aDQRjzZBJ5TBaqw",
    "name": "白鬍子牛排清大店",
    "address": "300台灣新竹市東區建功一路68號",
    "region": "hsinchu_city",
    "latitude": 24.7984396,
    "longitude": 120.9978967,
    "orderLinks": [
      {
        "id": "decfb0a2-a29d-474b-9304-56fea98d911a",
        "platform": "官網",
        "url": "https://www.facebook.com/WBSHsinchu/"
      }
    ],
    "rating": 4.1
  },
  {
    "id": "ChIJe7ACr8s3aDQRgYuBp_30z4c",
    "name": "夜排檔熱炒",
    "address": "300台灣新竹市東區公道五路二段346號",
    "region": "hsinchu_city",
    "latitude": 24.8029057,
    "longitude": 120.99850509999999,
    "orderLinks": [
      {
        "id": "125b9769-efea-4ff9-acc2-0431c8894d62",
        "platform": "官網",
        "url": "https://www.facebook.com/%E5%A4%9C%E6%8E%92%E6%AA%94%E5%95%A4%E9%85%92%E5%B1%8B-206037282746921/"
      }
    ],
    "rating": 4.4
  },
  {
    "id": "ChIJ-wfjv9s3aDQR8dNL3DEilJ0",
    "name": "日出咖啡sunrise cafe",
    "address": "300台灣新竹市東區金城二路4號",
    "region": "hsinchu_city",
    "latitude": 24.7948372,
    "longitude": 121.0031582,
    "orderLinks": [
      {
        "id": "491c9c2f-b8ec-45c2-9480-30773f15bdc4",
        "platform": "官網",
        "url": "https://www.facebook.com/profile.php?id=100086621050212"
      }
    ],
    "rating": 4.5
  },
  {
    "id": "ChIJe97NARM2aDQR2D8S7rJCTmQ",
    "name": "成都老鍋牛肉麵",
    "address": "300台灣新竹市東區光復路二段126號",
    "region": "hsinchu_city",
    "latitude": 24.7929472,
    "longitude": 121.0020443,
    "orderLinks": [
      {
        "id": "f97248c7-8a9e-41ad-bb16-70c763717d30",
        "platform": "官網",
        "url": "https://www.facebook.com/%E6%88%90%E9%83%BD%E8%80%81%E9%8D%8B%E9%BA%B5%E9%A3%9F%E9%A4%A8-1793799754176795/"
      }
    ],
    "rating": 4.5
  },
  {
    "id": "ChIJ_7fcdME1aDQRgoB2x52LFZU",
    "name": "麥當勞-新竹光復二餐廳",
    "address": "300台灣新竹市東區光復路二段241、243號",
    "region": "hsinchu_city",
    "latitude": 24.7996388,
    "longitude": 120.99070429999999,
    "orderLinks": [
      {
        "id": "7eac49f2-5095-4566-aaba-1ec326297b63",
        "platform": "官網",
        "url": "https://www.mcdonalds.com/tw/zh-tw.html"
      }
    ],
    "rating": 3.5
  },
  {
    "id": "ChIJmXn_p3I2aDQRuxD02EJ1TAM",
    "name": "來來豆漿店",
    "address": "300台灣新竹市東區建功路23號300",
    "region": "hsinchu_city",
    "latitude": 24.7967238,
    "longitude": 120.99900190000001,
    "orderLinks": [],
    "rating": 4.3
  },
  {
    "id": "ChIJGxanrnY2aDQRKcaVOZsSSEY",
    "name": "新竹石頭燒肉火鍋",
    "address": "300台灣新竹市東區水源街99號",
    "region": "hsinchu_city",
    "latitude": 24.803149899999998,
    "longitude": 120.99246629999998,
    "orderLinks": [
      {
        "id": "c851cb8e-651b-42b5-a384-17f69553c43c",
        "platform": "官網",
        "url": "http://stone-yakiniku.com.tw/"
      }
    ],
    "rating": 4.4
  },
  {
    "id": "ChIJu1iwKHQ2aDQR0vhX8ipyNzI",
    "name": "長疆炭燒羊肉爐 新竹忠孝店",
    "address": "300台灣新竹市東區忠孝路75號",
    "region": "hsinchu_city",
    "latitude": 24.8029644,
    "longitude": 120.9911049,
    "orderLinks": [
      {
        "id": "e8398f37-e000-4427-950e-98e02916c9ee",
        "platform": "官網",
        "url": "https://m.facebook.com/110964513593484/"
      }
    ],
    "rating": 4.1
  },
  {
    "id": "ChIJKTr23BE2aDQRHnwPbEFTM8U",
    "name": "國立陽明交通大學第二餐廳",
    "address": "300台灣新竹市東區大學路1001號",
    "region": "hsinchu_city",
    "latitude": 24.789302,
    "longitude": 120.99719699999999,
    "orderLinks": [
      {
        "id": "f399e0c0-f4ea-48ea-9388-976698cd65f3",
        "platform": "官網",
        "url": "https://m.facebook.com/nctu.secondrestaurant/?locale2=zh_TW"
      }
    ],
    "rating": 4.3
  },
  {
    "id": "ChIJ2VHNGnk3aDQRIhNo09R4tuk",
    "name": "厚醍牛肉麵 新竹忠孝店",
    "address": "300台灣新竹市東區忠孝路25-1號",
    "region": "hsinchu_city",
    "latitude": 24.8015026,
    "longitude": 120.99012990000001,
    "orderLinks": [
      {
        "id": "432f11a5-4ff2-4ed6-b9ac-b94db265515b",
        "platform": "官網",
        "url": "https://houti.com.tw/"
      }
    ],
    "rating": 4.4
  },
  {
    "id": "ChIJ2wj3W8M1aDQRK0HnRKo0ptI",
    "name": "Fleur Lis 芙洛麗大飯店",
    "address": "300台灣新竹市東區民族路69號",
    "region": "hsinchu_city",
    "latitude": 24.807078999999998,
    "longitude": 120.97523100000001,
    "orderLinks": [
      {
        "id": "15a53d46-4fec-49de-b4ef-7557b15e7263",
        "platform": "官網",
        "url": "https://www.fls.tw/"
      }
    ],
    "rating": 4.2
  },
  {
    "id": "ChIJY6vDqrc3aDQR97rW6lAZhJY",
    "name": "晶宴會館-御豐館",
    "address": "300台灣新竹市東區公道五路三段1號2樓",
    "region": "hsinchu_city",
    "latitude": 24.8053651,
    "longitude": 120.9916119,
    "orderLinks": [
      {
        "id": "37afdea8-ee05-4ab1-bed0-49ff4aa42c66",
        "platform": "官網",
        "url": "https://www.amazinghall.com.tw/"
      }
    ],
    "rating": 4.5
  },
  {
    "id": "ChIJs_sS8to1aDQRAJv-D_RcMmU",
    "name": "老瀋陽酸菜白肉鍋",
    "address": "300台灣新竹市東區三民路125號",
    "region": "hsinchu_city",
    "latitude": 24.8103217,
    "longitude": 120.97878060000001,
    "orderLinks": [
      {
        "id": "b7a0d7e4-e722-4509-b5f2-4f59dd3e9b4c",
        "platform": "官網",
        "url": "https://www.facebook.com/%E8%80%81%E7%80%8B%E9%99%BD%E9%85%B8%E7%99%BD%E8%8F%9C%E7%81%AB%E9%8D%8B-395619727199635/"
      }
    ],
    "rating": 4.6
  },
  {
    "id": "ChIJo9bce_A1aDQRJh0Uo0lexW8",
    "name": "八二親食 三民店",
    "address": "300台灣新竹市東區三民路43號1樓",
    "region": "hsinchu_city",
    "latitude": 24.8088154,
    "longitude": 120.9755606,
    "orderLinks": [
      {
        "id": "dbcbd7c8-92eb-4a0d-a1d7-e511b664a700",
        "platform": "inline",
        "url": "https://inline.app/booking/-MYifWETiFJXKjFOhhSP:inline-live-2/-MYifWP1-2fNoRgsGxOD"
      }
    ],
    "rating": 4.7
  },
  {
    "id": "ChIJxXgGN4Y1aDQRAPPbDqV62DA",
    "name": "豐華小吃",
    "address": "300台灣新竹市東區民生路147號",
    "region": "hsinchu_city",
    "latitude": 24.810623,
    "longitude": 120.9764186,
    "orderLinks": [],
    "rating": 4.1
  },
  {
    "id": "ChIJ_Z-fVMc1aDQRT3hEKm0RQH8",
    "name": "禾日香古早味魯肉飯",
    "address": "300台灣新竹市東區民族路163號",
    "region": "hsinchu_city",
    "latitude": 24.8091185,
    "longitude": 120.9789441,
    "orderLinks": [
      {
        "id": "8f1490f0-1d22-4666-a97d-957d2ce94bca",
        "platform": "官網",
        "url": "https://www.facebook.com/%E7%A6%BE%E6%97%A5%E9%A6%99-%E9%AD%AF%E8%82%89%E9%A3%AF%E5%B0%88%E9%96%80%E5%BA%97-439450116189275/"
      }
    ],
    "rating": 4
  },
  {
    "id": "ChIJvwcX5kE1aDQR37Nb2Wri1hQ",
    "name": "同樂食鍋 新竹巨城三民店",
    "address": "300台灣新竹市東區三民路158號",
    "region": "hsinchu_city",
    "latitude": 24.809898099999998,
    "longitude": 120.9792166,
    "orderLinks": [
      {
        "id": "9a241267-d0cb-4c29-acc5-de643ae2c755",
        "platform": "官網",
        "url": "https://www.facebook.com/p/%E5%90%8C%E6%A8%82%E9%A3%9F%E9%8D%8B-%E7%9F%B3%E9%A0%AD%E7%81%AB%E9%8D%8B%E6%B6%AE%E6%B6%AE%E9%8D%8B%E5%B0%88%E8%B3%A3-100063518485791/"
      }
    ],
    "rating": 4.8
  },
  {
    "id": "ChIJk7BAC9E1aDQRcKhHolfreyo",
    "name": "Float Dept.微生咖啡「沒有訂位服務」「無室內候位空間」",
    "address": "300台灣新竹市東區民權路111巷23號",
    "region": "hsinchu_city",
    "latitude": 24.8073311,
    "longitude": 120.97451600000001,
    "orderLinks": [
      {
        "id": "ec4c8f1e-6535-4b57-a377-a89b12796969",
        "platform": "官網",
        "url": "https://www.facebook.com/Floatdept/?epa=SEARCH_BOX"
      }
    ],
    "rating": 4.4
  },
  {
    "id": "ChIJFxGEqts1aDQRDnK9lzSSAMU",
    "name": "一想一響咖啡 | 無提供訂位 | Last Order 21:00",
    "address": "30043台灣新竹市東區民生路58巷8號",
    "region": "hsinchu_city",
    "latitude": 24.8085247,
    "longitude": 120.97893069999998,
    "orderLinks": [
      {
        "id": "bce98930-f5a1-4efe-bd33-174850acd76d",
        "platform": "官網",
        "url": "https://www.facebook.com/reecho.coffee/"
      }
    ],
    "rating": 4.2
  },
  {
    "id": "ChIJJfegw9Y1aDQR-tI0qA1iKb8",
    "name": "石二鍋 新竹忠孝店",
    "address": "300台灣新竹市東區忠孝路279-7號",
    "region": "hsinchu_city",
    "latitude": 24.804517999999998,
    "longitude": 120.98554700000001,
    "orderLinks": [
      {
        "id": "afc724f3-f123-4a9c-a450-401cc8822093",
        "platform": "官網",
        "url": "https://www.12hotpot.com.tw/"
      }
    ],
    "rating": 4
  },
  {
    "id": "ChIJgz49IhQ1aDQRrsgspC9NxpY",
    "name": "格林小鎮新2.0",
    "address": "300台灣新竹市東區自由路27巷43號",
    "region": "hsinchu_city",
    "latitude": 24.810843799999997,
    "longitude": 120.98057019999999,
    "orderLinks": [
      {
        "id": "4bb8ee29-729b-49f4-85e6-188d4669df61",
        "platform": "官網",
        "url": "https://www.facebook.com/profile.php?id=100063995439195"
      }
    ],
    "rating": 4.4
  },
  {
    "id": "ChIJ18B0wt41aDQR1-xKN8FiW6s",
    "name": "千葉火鍋 新竹尊爵館 (原忠孝店)",
    "address": "300台灣新竹市東區忠孝路281號",
    "region": "hsinchu_city",
    "latitude": 24.803576399999997,
    "longitude": 120.98383419999999,
    "orderLinks": [
      {
        "id": "c148fc66-d05a-4a0d-a7ec-ad5e3ba1eed2",
        "platform": "官網",
        "url": "https://cyhotpot.net/GShome"
      }
    ],
    "rating": 4.4
  },
  {
    "id": "ChIJ4x8tVGY1aDQRFMfEWoevWjA",
    "name": "蔣好的味道",
    "address": "300台灣新竹市東區鐵道路一段28巷81號",
    "region": "hsinchu_city",
    "latitude": 24.8124319,
    "longitude": 120.9846131,
    "orderLinks": [
      {
        "id": "e8970615-914d-46a1-a791-eaf1508cb029",
        "platform": "官網",
        "url": "https://m.facebook.com/pages/category/Restaurant/%E8%94%A3%E5%A5%BD%E7%9A%84%E5%91%B3%E9%81%93-320575941851148/"
      }
    ],
    "rating": 4.4
  },
  {
    "id": "ChIJT_jE4RE2aDQROKOEdLQnfsw",
    "name": "漢堡邦",
    "address": "300台灣新竹市東區大學路1005號",
    "region": "hsinchu_city",
    "latitude": 24.7895988,
    "longitude": 120.99930250000001,
    "orderLinks": [],
    "rating": 4.4
  },
  {
    "id": "ChIJy2emtaA3aDQR8ZB6mCYIKLU",
    "name": "Here Space 這家咖啡｜冰滴手沖專売｜甜點｜餐盒外燴｜入所請降低音量（有門禁，請來電）",
    "address": "300台灣新竹市東區大學路1001號第二餐廳３樓",
    "region": "hsinchu_city",
    "latitude": 24.789275,
    "longitude": 120.99709920000001,
    "orderLinks": [],
    "rating": 4.9
  },
  {
    "id": "ChIJ2bPUJAs2aDQRMyEuc3UiISM",
    "name": "清華大學 第二招待所",
    "address": "300台灣新竹市東區光復路二段101號",
    "region": "hsinchu_city",
    "latitude": 24.797029799999997,
    "longitude": 120.9912045,
    "orderLinks": [],
    "rating": 3.9
  },
  {
    "id": "ChIJDSKUxeE1aDQRmjh99J0YA20",
    "name": "種籽蔬食養生早午餐",
    "address": "300台灣新竹市東區博愛街5巷61號",
    "region": "hsinchu_city",
    "latitude": 24.7955971,
    "longitude": 120.98664749999999,
    "orderLinks": [
      {
        "id": "4a06e7be-b16d-41d6-b016-3624231a1dd7",
        "platform": "官網",
        "url": "https://www.facebook.com/%E7%A8%AE%E7%B1%BD%E8%94%AC%E9%A3%9F-351888888528841/"
      }
    ],
    "rating": 4.6
  },
  {
    "id": "ChIJ27R6Bwc2aDQRFopW3o0XlAg",
    "name": "創義食族",
    "address": "300台灣新竹市東區寶山路416號",
    "region": "hsinchu_city",
    "latitude": 24.7848866,
    "longitude": 120.9899167,
    "orderLinks": [],
    "rating": 3.9
  },
  {
    "id": "ChIJh4CYXzs3aDQRxhvOPkO80EE",
    "name": "南部好滋味",
    "address": "300台灣新竹市東區光復路二段155巷78號",
    "region": "hsinchu_city",
    "latitude": 24.7975143,
    "longitude": 120.99234009999999,
    "orderLinks": [
      {
        "id": "90b34aac-3ff5-4796-95a4-c415a7495c44",
        "platform": "官網",
        "url": "https://www.facebook.com/AlenChen5720771"
      }
    ],
    "rating": 3.8
  },
  {
    "id": "ChIJ0-X0_g43aDQRNVZPMfEoTi0",
    "name": "軒邑快餐",
    "address": "300台灣新竹市東區寶山路426號1樓",
    "region": "hsinchu_city",
    "latitude": 24.7847412,
    "longitude": 120.9900049,
    "orderLinks": [
      {
        "id": "5450c8ea-adb7-4a4b-9cc4-7fb1ad4fd0f8",
        "platform": "官網",
        "url": "https://www.facebook.com/profile.php?id=100063660831692&mibextid=ZbWKwL"
      }
    ],
    "rating": 4
  },
  {
    "id": "ChIJTZG0XuA1aDQRVuZEkf_I2Q8",
    "name": "如意麵食館 牛肉麵",
    "address": "300台灣新竹市東區光復路二段746號",
    "region": "hsinchu_city",
    "latitude": 24.8007396,
    "longitude": 120.98862,
    "orderLinks": [
      {
        "id": "cf7a112c-954d-4631-b5d4-df4c1e761495",
        "platform": "官網",
        "url": "https://www.facebook.com/Ruiibeafnoodles/?__tn__=,d,P-R&eid=ARB16HM6yKFhOQDFzg_CbQFaVTSY3I2RiruZ1ve0Gb3CsOh-P_adzgFUsIVhNbKEGQb7Ds1yZSjOdD7b"
      }
    ],
    "rating": 4.6
  },
  {
    "id": "ChIJw49gEwA3aDQRlt8g1IbZiJM",
    "name": "亞丁尼義式麵屋 清大店-新竹美食推薦|在地推薦餐廳|必吃義大利麵|平價義大利麵|人氣餐廳|焗烤義大利麵|義式燉飯|焗烤推薦",
    "address": "300台灣新竹市東區光復路二段352號",
    "region": "hsinchu_city",
    "latitude": 24.7963825,
    "longitude": 120.99772989999998,
    "orderLinks": [
      {
        "id": "4880133b-f6d8-4f2f-8e1e-a8d33c3e9f42",
        "platform": "官網",
        "url": "https://www.instagram.com/yadingni?igsh=MTRlbjQ4eHF0bTFkNA==&utm_source=qr"
      }
    ],
    "rating": 4.8
  },
  {
    "id": "ChIJKcZXvC03aDQR_r2e5qnlOJE",
    "name": "幸福客家麵食館",
    "address": "300台灣新竹市東區光復路二段171號173號",
    "region": "hsinchu_city",
    "latitude": 24.7992079,
    "longitude": 120.99208699999998,
    "orderLinks": [
      {
        "id": "5875f5cd-2d53-4044-8995-eb216791e742",
        "platform": "官網",
        "url": "https://www.facebook.com/p/%E5%B9%B8%E7%A6%8F%E5%AE%A2%E5%AE%B6%E9%BA%B5%E9%A3%9F%E9%A4%A8-100063983715533/"
      }
    ],
    "rating": 4.4
  },
  {
    "id": "ChIJASR-N5U1aDQR5OnPyt0zoBU",
    "name": "一百種味道 總店外帶店",
    "address": "300台灣新竹市北區勝利路183號",
    "region": "hsinchu_city",
    "latitude": 24.801403099999998,
    "longitude": 120.96442169999999,
    "orderLinks": [
      {
        "id": "5565bdcc-56f7-41d1-8c01-df430405e614",
        "platform": "官網",
        "url": "https://www.100tastes.com.tw/"
      }
    ],
    "rating": 4.4
  },
  {
    "id": "ChIJU1UV0-o1aDQRfb1nhfpbegA",
    "name": "海底撈火鍋 新竹店",
    "address": "300台灣新竹市東區西大路323號4樓",
    "region": "hsinchu_city",
    "latitude": 24.8018619,
    "longitude": 120.96466599999998,
    "orderLinks": [
      {
        "id": "9a998f7e-1f8b-4b40-8819-40c6a7c37b9d",
        "platform": "inline",
        "url": "https://inline.app/booking/-LamXb5SAQN7JcJfyRKi:inline-live-2a466/-LbuaqbC2ccoRJPiNuyB"
      }
    ],
    "rating": 4.8
  },
  {
    "id": "ChIJzerQyOo1aDQRWcfl4b61Ekk",
    "name": "鼎泰豐 新竹店",
    "address": "300台灣新竹市東區西大路323號B1",
    "region": "hsinchu_city",
    "latitude": 24.8015395,
    "longitude": 120.96460320000001,
    "orderLinks": [
      {
        "id": "a06bb3f3-f377-4038-80ae-b9bbfa45288c",
        "platform": "官網",
        "url": "https://www.dintaifung.com.tw/"
      }
    ],
    "rating": 4.5
  },
  {
    "id": "ChIJr1_Szuo1aDQRgiJ4vR0u1e4",
    "name": "饗食天堂 新竹店",
    "address": "300台灣新竹市東區西大路323號9樓",
    "region": "hsinchu_city",
    "latitude": 24.8019347,
    "longitude": 120.9648374,
    "orderLinks": [
      {
        "id": "5ca68a08-b669-40f9-8771-072a06abd862",
        "platform": "官網",
        "url": "https://www.eatogether.com.tw/zh-TW/home"
      }
    ],
    "rating": 4.2
  },
  {
    "id": "ChIJ4QlrdXM1aDQRHncxGKw15cU",
    "name": "山田麻糬製造所",
    "address": "300台灣新竹市東區文昌街85號",
    "region": "hsinchu_city",
    "latitude": 24.8020976,
    "longitude": 120.9667146,
    "orderLinks": [
      {
        "id": "46cfd966-c8b6-4ac5-8ec8-49d9fff8a50e",
        "platform": "官網",
        "url": "https://yamadamochiya.com/"
      }
    ],
    "rating": 4.2
  },
  {
    "id": "ChIJ3dnarZQ1aDQR9cqxIVNQxcM",
    "name": "墨咖啡 INK COFFEE",
    "address": "300台灣新竹市東區林森路180號",
    "region": "hsinchu_city",
    "latitude": 24.799274,
    "longitude": 120.9643338,
    "orderLinks": [
      {
        "id": "1f447d62-233f-4487-9218-8782760002c1",
        "platform": "官網",
        "url": "https://line.me/R/ti/p/@225cjqbm"
      }
    ],
    "rating": 4.6
  },
  {
    "id": "ChIJ4XDG8eo1aDQR3-DL--Irw7k",
    "name": "老港陳",
    "address": "300台灣新竹市東區南門街55號",
    "region": "hsinchu_city",
    "latitude": 24.8015537,
    "longitude": 120.96699729999999,
    "orderLinks": [
      {
        "id": "cdb47368-a831-4f83-b501-e9a0d4667e3f",
        "platform": "官網",
        "url": "https://www.instagram.com/chenqiaoyin2/"
      }
    ],
    "rating": 4
  },
  {
    "id": "ChIJ0ajpYOo1aDQRFvj0fx5fkgI",
    "name": "榮記客家湯圓",
    "address": "300台灣新竹市東區武昌街64號",
    "region": "hsinchu_city",
    "latitude": 24.8021834,
    "longitude": 120.96786259999999,
    "orderLinks": [],
    "rating": 4.1
  },
  {
    "id": "ChIJg1aZ5ZQ1aDQRxib5yEmSpr8",
    "name": "貳參咖啡-西門店「無訂位服務」",
    "address": "300台灣新竹市北區西門街152號",
    "region": "hsinchu_city",
    "latitude": 24.801079299999998,
    "longitude": 120.96268510000002,
    "orderLinks": [
      {
        "id": "996c816c-f9e6-44b1-8576-09bc3a01bf7e",
        "platform": "官網",
        "url": "https://www.instagram.com/23coffeeroasters2.0?igsh=MWNkZm1ucXgxNjYzcQ=="
      }
    ],
    "rating": 4.7
  },
  {
    "id": "ChIJyfCDFoc1aDQRJduqajHrdPA",
    "name": "築間幸福鍋物 新竹中華店",
    "address": "300台灣新竹市北區中華路三段6號",
    "region": "hsinchu_city",
    "latitude": 24.7973231,
    "longitude": 120.9632943,
    "orderLinks": [
      {
        "id": "df93ca53-d6a0-403b-9d6a-8eac15c9c94c",
        "platform": "官網",
        "url": "https://linktr.ee/jhujian6666"
      }
    ],
    "rating": 4.5
  },
  {
    "id": "ChIJuTJ0aBQ1aDQRv323E4Wjtnk",
    "name": "嗑肉石鍋-新竹西門店(二代店)",
    "address": "300台灣新竹市北區西門街66號",
    "region": "hsinchu_city",
    "latitude": 24.802438,
    "longitude": 120.9646465,
    "orderLinks": [
      {
        "id": "a272b05f-7602-4f70-acbb-f0e9ca609c27",
        "platform": "官網",
        "url": "https://www.meatshotpot.com/"
      }
    ],
    "rating": 4.7
  },
  {
    "id": "ChIJ1-ChtNQ1aDQRdpyukPL0qz4",
    "name": "海瑞摃丸新竹西門總店",
    "address": "300台灣新竹市北區西門街98號",
    "region": "hsinchu_city",
    "latitude": 24.801802499999997,
    "longitude": 120.96379119999997,
    "orderLinks": [
      {
        "id": "6e581446-7aa9-4dcd-92aa-36ba8ef56a95",
        "platform": "官網",
        "url": "https://www.hairei.com.tw/"
      }
    ],
    "rating": 4.3
  },
  {
    "id": "ChIJgxLtY8g1aDQRhdQ0l6licm0",
    "name": "鴨肉許（中央店）",
    "address": "300台灣新竹市東區中央路296號",
    "region": "hsinchu_city",
    "latitude": 24.8100637,
    "longitude": 120.9777522,
    "orderLinks": [],
    "rating": 3.9
  },
  {
    "id": "ChIJQyv318Q1aDQRYz_krC4mdb4",
    "name": "Big City遠東巨城購物中心",
    "address": "30041台灣新竹市東區中央路229號",
    "region": "hsinchu_city",
    "latitude": 24.8098161,
    "longitude": 120.9751319,
    "orderLinks": [
      {
        "id": "cad7c490-52d4-4e26-9f67-001de6225e71",
        "platform": "官網",
        "url": "https://www.febigcity.com/bigcity"
      }
    ],
    "rating": 4.4
  },
  {
    "id": "ChIJRU8ga8Q1aDQRtHRng5DN6V4",
    "name": "菜園上海餐廳",
    "address": "300台灣新竹市東區東大路一段136號",
    "region": "hsinchu_city",
    "latitude": 24.808519,
    "longitude": 120.97211199999998,
    "orderLinks": [],
    "rating": 4.5
  },
  {
    "id": "ChIJ4-UpTj01aDQRRyUgXMxYZeg",
    "name": "享鴨 烤鴨與中華料理 新竹北大店",
    "address": "300台灣新竹市北區北大路140號",
    "region": "hsinchu_city",
    "latitude": 24.8102748,
    "longitude": 120.9684104,
    "orderLinks": [
      {
        "id": "8260bd10-4915-411f-ba05-7302118ccd75",
        "platform": "官網",
        "url": "https://www.facebook.com/XIANGDUCK/"
      }
    ],
    "rating": 4.8
  },
  {
    "id": "ChIJETQYfME1aDQRia25uG7BIzg",
    "name": "私嚐の吃飯",
    "address": "300台灣新竹市東區中正路96巷16號300",
    "region": "hsinchu_city",
    "latitude": 24.8056537,
    "longitude": 120.97012289999999,
    "orderLinks": [
      {
        "id": "8a090307-50b0-44cc-a79c-e0c822b38a9e",
        "platform": "官網",
        "url": "https://www.facebook.com/eat20170319/"
      }
    ],
    "rating": 4.8
  },
  {
    "id": "ChIJh0Kn1Qs1aDQRG5uBSCxubkY",
    "name": "麥當勞 新竹經國店",
    "address": "300台灣新竹市東區經國路一段522號號1樓",
    "region": "hsinchu_city",
    "latitude": 24.814601099999997,
    "longitude": 120.9767868,
    "orderLinks": [
      {
        "id": "f5b848a4-86b7-437e-a715-289cc1176fef",
        "platform": "官網",
        "url": "https://www.mcdonalds.com/tw/zh-tw/full-menu/mccafe.html"
      }
    ],
    "rating": 3.7
  },
  {
    "id": "ChIJK_BsJwM1aDQRrSAouGbezP8",
    "name": "硬派主廚的軟嫩料理-東門市場",
    "address": "300台灣新竹市東區東門市場1143號中央路102巷10號",
    "region": "hsinchu_city",
    "latitude": 24.805497499999998,
    "longitude": 120.96914029999998,
    "orderLinks": [
      {
        "id": "48fa2294-a22a-43f2-9973-0adc7716f8e1",
        "platform": "官網",
        "url": "https://www.instagram.com/hardcorechiefs?igsh=MTAyYjViaGYwMGlxcQ%3D%3D&utm_source=qr"
      }
    ],
    "rating": 4.5
  },
  {
    "id": "ChIJe8VtwBw1aDQRgk0e3DIGfd8",
    "name": "招財咖啡",
    "address": "300台灣新竹市北區英明街6-1號",
    "region": "hsinchu_city",
    "latitude": 24.8069243,
    "longitude": 120.96746850000001,
    "orderLinks": [
      {
        "id": "9ad02b1a-1fc9-4ffc-b19e-55b8ea28c54b",
        "platform": "inline",
        "url": "https://inline.app/booking/-Mtzt-ua60-H69xtv-9o:inline-live-2/-Mtzt07e6zaky3nEcqx0"
      }
    ],
    "rating": 4.6
  },
  {
    "id": "ChIJPau9rjc1aDQRsSxlBGUC_jM",
    "name": "星巴克 新竹州圖門市",
    "address": "300台灣新竹市東區文化街8號",
    "region": "hsinchu_city",
    "latitude": 24.805214799999998,
    "longitude": 120.9712339,
    "orderLinks": [
      {
        "id": "a7478c4f-ded0-4773-b915-c6a200550892",
        "platform": "官網",
        "url": "https://www.starbucks.com.tw/home/index.jspx?r=15"
      }
    ],
    "rating": 4.3
  },
  {
    "id": "ChIJ_9ABIMc1aDQRCO1p9dxKbCo",
    "name": "小稻甜 Cafe",
    "address": "300台灣新竹市北區北大路166巷1弄1號",
    "region": "hsinchu_city",
    "latitude": 24.809946999999998,
    "longitude": 120.96754619999999,
    "orderLinks": [
      {
        "id": "7d24252a-838d-4946-8470-083cbbefc9ea",
        "platform": "官網",
        "url": "http://www.facebook.com/%E5%B0%8F%E7%A8%BB%E7%94%9Ccafe-1759074137656305/"
      }
    ],
    "rating": 4.3
  },
  {
    "id": "ChIJx6GoixY1aDQRxsR6FvE2zQI",
    "name": "JAI宅 義大利麵 新竹巨城",
    "address": "300台灣新竹市東區民權路195號",
    "region": "hsinchu_city",
    "latitude": 24.809943699999998,
    "longitude": 120.9732233,
    "orderLinks": [
      {
        "id": "3e115ee0-da99-40dd-a1fa-9cf31c1343fa",
        "platform": "官網",
        "url": "https://www.zunhongtw.com/"
      }
    ],
    "rating": 4.5
  },
  {
    "id": "ChIJpdWHNb01aDQRqHZADwn0ETU",
    "name": "皿富器食 minfood",
    "address": "300台灣新竹市東區錦華街18巷22號",
    "region": "hsinchu_city",
    "latitude": 24.8095958,
    "longitude": 120.9735533,
    "orderLinks": [
      {
        "id": "d208c3e7-ae81-4ea4-bfb0-467a146632a8",
        "platform": "官網",
        "url": "https://www.facebook.com/pages/category/Restaurant/%E7%9A%BF%E5%AF%8C%E5%99%A8%E9%A3%9F-min-food-730091614009830/"
      }
    ],
    "rating": 4.2
  },
  {
    "id": "ChIJu4Mmbrw1aDQRQRhtKEo2d0g",
    "name": "夯下去和牛燒肉放題-新竹經國店",
    "address": "300台灣新竹市東區經國路一段673號寶雅、燦坤對面1樓",
    "region": "hsinchu_city",
    "latitude": 24.813608799999997,
    "longitude": 120.96849619999999,
    "orderLinks": [
      {
        "id": "78ff1a9a-7bea-4e51-b50a-1ce86ba08ff4",
        "platform": "官網",
        "url": "https://www.facebook.com/profile.php?id=100092665744582"
      }
    ],
    "rating": 4.5
  },
  {
    "id": "ChIJZwiwRzM3aDQRH5H1QKxXqNM",
    "name": "金春喜韓廚-新竹關新店",
    "address": "300台灣新竹市東區關新路12號",
    "region": "hsinchu_city",
    "latitude": 24.784282299999997,
    "longitude": 121.01849109999999,
    "orderLinks": [
      {
        "id": "a31e038e-3ec9-45df-8dbd-df77899454bb",
        "platform": "官網",
        "url": "https://www.facebook.com/kimchunhee.korea/"
      }
    ],
    "rating": 4.7
  },
  {
    "id": "ChIJDe_Ki0Y3aDQRuTdcGWL0fqM",
    "name": "今日魚市 竹科關新店",
    "address": "300台灣新竹市東區關新西街69號",
    "region": "hsinchu_city",
    "latitude": 24.7882218,
    "longitude": 121.01915269999999,
    "orderLinks": [
      {
        "id": "c651adb9-e976-4f5f-97bf-80379b5027dc",
        "platform": "inline",
        "url": "https://inline.app/booking/-NmQaQ38eeyOqL3hdnqL:inline-live-3?language=zh-tw"
      }
    ],
    "rating": 4.9
  },
  {
    "id": "ChIJ6W1Cnzk2aDQR33VJyJTuKnU",
    "name": "舊港2號原形原味料理（關新店）",
    "address": "300台灣新竹市東區關新路187號",
    "region": "hsinchu_city",
    "latitude": 24.7874171,
    "longitude": 121.01936339999999,
    "orderLinks": [
      {
        "id": "48f9c31b-96e8-4ecd-949b-b88e0c18170c",
        "platform": "官網",
        "url": "https://www.instagram.com/port_no.2/"
      }
    ],
    "rating": 4.7
  },
  {
    "id": "ChIJNQL7dQA3aDQRL5h0-l5Mwlw",
    "name": "豬一十五",
    "address": "300台灣新竹市東區關新一街50號",
    "region": "hsinchu_city",
    "latitude": 24.7838276,
    "longitude": 121.01926590000001,
    "orderLinks": [],
    "rating": 4
  },
  {
    "id": "ChIJwxWfnTk2aDQR5HTOVh7uWwc",
    "name": "福樂餐館",
    "address": "300台灣新竹市東區關新路152號",
    "region": "hsinchu_city",
    "latitude": 24.7866727,
    "longitude": 121.019396,
    "orderLinks": [
      {
        "id": "d29cbf59-f4b5-4c0e-bc48-2225b2091a58",
        "platform": "官網",
        "url": "https://m.facebook.com/%E7%A6%8F%E6%A8%82%E5%AE%A2%E5%AE%B6%E9%A4%90%E9%A4%A8-812881215465320/"
      }
    ],
    "rating": 4.2
  },
  {
    "id": "ChIJcftWbs41aDQR0sq5p61AwK4",
    "name": "竹美私房料理 關新店",
    "address": "300台灣新竹市東區關新路160號",
    "region": "hsinchu_city",
    "latitude": 24.7867735,
    "longitude": 121.0194571,
    "orderLinks": [
      {
        "id": "fd8cdcb1-419e-4fc0-9a41-8b9a55917ac1",
        "platform": "官網",
        "url": "https://www.facebook.com/%E7%AB%B9%E7%BE%8E%E7%A7%81%E6%88%BF%E6%96%99%E7%90%86-1482218328744208/"
      }
    ],
    "rating": 4.3
  },
  {
    "id": "ChIJu9Pu9dU3aDQRkmyDlD0r_KI",
    "name": "星島海南雞(關新店)",
    "address": "300台灣新竹市東區關新路6號",
    "region": "hsinchu_city",
    "latitude": 24.783992299999998,
    "longitude": 121.01839899999999,
    "orderLinks": [
      {
        "id": "b3402312-d8e9-43d0-9068-e7bb78fdfad2",
        "platform": "官網",
        "url": "https://www.0227651805.com/"
      }
    ],
    "rating": 4.8
  },
  {
    "id": "ChIJS2TrbXk3aDQRTQ9EE3YxSHw",
    "name": "肆食居酒屋izakaya/桂丁雞/炭火串燒/生魚片/壽司/新竹宵夜",
    "address": "300台灣新竹市東區關新二街135號",
    "region": "hsinchu_city",
    "latitude": 24.7860943,
    "longitude": 121.0168406,
    "orderLinks": [
      {
        "id": "62708a50-5821-45cf-9872-381529d0a452",
        "platform": "官網",
        "url": "https://www.instagram.com/fortyizakaya/"
      }
    ],
    "rating": 4.9
  },
  {
    "id": "ChIJc75UTcM3aDQRVu5M6PhTojg",
    "name": "硬派主廚的軟嫩料理 關東店",
    "address": "300台灣新竹市東區關東路236號",
    "region": "hsinchu_city",
    "latitude": 24.7864571,
    "longitude": 121.02130179999999,
    "orderLinks": [
      {
        "id": "6cd7478e-50ab-4cb5-88f0-a5f065b0c4c7",
        "platform": "官網",
        "url": "https://www.facebook.com/profile.php?id=100085319316247&mibextid=LQQJ4d"
      }
    ],
    "rating": 4.5
  },
  {
    "id": "ChIJNzqKZOM2aDQRCJj-VH8f8es",
    "name": "馬六甲馬來西亞風味館關新店",
    "address": "300台灣新竹市东区关新二街49號悅精品飯店1樓 （晶",
    "region": "hsinchu_city",
    "latitude": 24.7851335,
    "longitude": 121.01913309999998,
    "orderLinks": [
      {
        "id": "3a68f18b-ceb9-4a84-8ec9-436ed30849dd",
        "platform": "官網",
        "url": "https://www.facebook.com/melaka.guanxin"
      }
    ],
    "rating": 4.3
  },
  {
    "id": "ChIJHbR7WEA3aDQRZfzg_QbNkuA",
    "name": "1010湘 新竹關新店",
    "address": "300台灣新竹市東區關新路81號",
    "region": "hsinchu_city",
    "latitude": 24.786789799999998,
    "longitude": 121.01901689999998,
    "orderLinks": [
      {
        "id": "bcd65236-c5fa-4e36-a224-2679b8cca5f2",
        "platform": "官網",
        "url": "http://www.1010restaurant.com/index.php"
      }
    ],
    "rating": 4.8
  },
  {
    "id": "ChIJpRVgfyI3aDQRTbN5x9v2EW8",
    "name": "ABV Bar & Kitchen 日式居酒館 新竹關新店",
    "address": "300台灣新竹市東區關新路173號",
    "region": "hsinchu_city",
    "latitude": 24.787233,
    "longitude": 121.0193395,
    "orderLinks": [
      {
        "id": "cf7cf134-0723-44a0-b6b1-a1ccae9fcc58",
        "platform": "官網",
        "url": "https://www.abv.com.tw/japanese"
      }
    ],
    "rating": 4.8
  },
  {
    "id": "ChIJ0XdVdEE3aDQRWZupqw0gSyM",
    "name": "菳蒔鐵板料理",
    "address": "300台灣新竹市東區關新東路319號",
    "region": "hsinchu_city",
    "latitude": 24.7868373,
    "longitude": 121.02053079999999,
    "orderLinks": [
      {
        "id": "260f0f41-bb13-4dce-8621-17cf5277ad7e",
        "platform": "官網",
        "url": "https://instagram.com/jin10teppanyaki?igshid=YmMyMTA2M2Y="
      }
    ],
    "rating": 4.3
  },
  {
    "id": "ChIJB_PSppM3aDQRbeWaIpa-QOE",
    "name": "MEGOPUN Hamburger 新竹店",
    "address": "300台灣新竹市東區關新二街129號",
    "region": "hsinchu_city",
    "latitude": 24.7860302,
    "longitude": 121.0169302,
    "orderLinks": [
      {
        "id": "643a883a-b916-40c0-9fd9-4242e51b1616",
        "platform": "inline",
        "url": "https://inline.app/booking/-NPbjwwtGl3WS6MnQHxo:inline-live-3/-NPbjx9LtrpDRk5bpo-m"
      }
    ],
    "rating": 4.7
  },
  {
    "id": "ChIJHYUyEL41aDQRAGCwLgHp-pw",
    "name": "鐵釜日式料理",
    "address": "300台灣新竹市東區關新東路106號",
    "region": "hsinchu_city",
    "latitude": 24.7831649,
    "longitude": 121.0196105,
    "orderLinks": [
      {
        "id": "5cdda36b-99c8-4704-9906-e876819e88e8",
        "platform": "官網",
        "url": "https://www.instagram.com/tetsukama1002"
      }
    ],
    "rating": 4.4
  },
  {
    "id": "ChIJLc1iVpw3aDQRpoweZ_ESZ3k",
    "name": "來杯咖啡【關新門市】",
    "address": "300台灣新竹市東區關新東路321號",
    "region": "hsinchu_city",
    "latitude": 24.786859699999997,
    "longitude": 121.020558,
    "orderLinks": [
      {
        "id": "aed19e23-80c3-4ab9-9e94-52449986b434",
        "platform": "官網",
        "url": "https://www.instagram.com/laidback_cafe321?igsh=MW43Z3BoMDZ0dm02Nw==&utm_source=qr"
      }
    ],
    "rating": 4.9
  },
  {
    "id": "ChIJ9UlJNeA3aDQRQUVwgiMJhm8",
    "name": "麵屋吉光（不定期公休，請見FB/IG粉絲專頁）",
    "address": "300台灣新竹市東區關新東路138號1樓",
    "region": "hsinchu_city",
    "latitude": 24.7837618,
    "longitude": 121.01968119999998,
    "orderLinks": [
      {
        "id": "7634dfe4-d6ba-4c84-baaf-ab2bcd900b78",
        "platform": "官網",
        "url": "https://www.facebook.com/ramenkikkou"
      }
    ],
    "rating": 4.3
  },
  {
    "id": "ChIJl8EkZTk2aDQRXYsdUuGkMHs",
    "name": "步藏私",
    "address": "300台灣新竹市東區新莊街266巷36弄62號",
    "region": "hsinchu_city",
    "latitude": 24.7870818,
    "longitude": 121.0181533,
    "orderLinks": [
      {
        "id": "ddc4f354-24be-42c7-b726-93b45a4dd349",
        "platform": "官網",
        "url": "https://www.facebook.com/HsinchuCasa/"
      }
    ],
    "rating": 4.7
  },
  {
    "id": "ChIJcS_5czk2aDQR7bnj8wtHhYM",
    "name": "淇里思 新竹店",
    "address": "300台灣新竹市東區關新西街100號",
    "region": "hsinchu_city",
    "latitude": 24.787238,
    "longitude": 121.0188175,
    "orderLinks": [
      {
        "id": "ce9ce19e-6fd4-4008-acd7-d6ccaed19007",
        "platform": "官網",
        "url": "https://www.chilliesine.com.tw/"
      }
    ],
    "rating": 4.8
  },
  {
    "id": "ChIJ31AJpTs2aDQR-M3FgmNp1KA",
    "name": "黑鐵板料理（更換店名經營者和服務團隊不變）",
    "address": "300台灣新竹市東區關新一街52號",
    "region": "hsinchu_city",
    "latitude": 24.7838125,
    "longitude": 121.01938159999999,
    "orderLinks": [
      {
        "id": "8cd92c16-4c34-4ada-9748-9d0da7080a07",
        "platform": "官網",
        "url": "https://m.facebook.com/%E7%99%BB%E9%87%8E%E7%B2%BE%E7%B7%BB%E9%90%B5%E6%9D%BF%E6%96%99%E7%90%86-1008302522546930/?locale2=zh_TW"
      }
    ],
    "rating": 4.4
  },
  {
    "id": "ChIJrQhHPAA3aDQRM6cNogwA-tU",
    "name": "光川製麵 - 關新店",
    "address": "300台灣新竹市東區關新二街108號",
    "region": "hsinchu_city",
    "latitude": 24.785961399999998,
    "longitude": 121.0177368,
    "orderLinks": [
      {
        "id": "6ed30f8d-7620-4211-8f51-90cd3635589a",
        "platform": "iCHEF",
        "url": "https://shop.ichefpos.com/store/yF36BzsJ/ordering"
      }
    ],
    "rating": 4
  },
  {
    "id": "ChIJW2iGnjk2aDQRmfqG4LtZhao",
    "name": "關新刀切牛肉麵",
    "address": "300台灣新竹市東區關新路171號",
    "region": "hsinchu_city",
    "latitude": 24.7873083,
    "longitude": 121.0192957,
    "orderLinks": [],
    "rating": 3.9
  },
  {
    "id": "ChIJUStJojk2aDQR1si0KSo6hEg",
    "name": "游麵館 關新店",
    "address": "300台灣新竹市東區關新路199號",
    "region": "hsinchu_city",
    "latitude": 24.7876264,
    "longitude": 121.0196282,
    "orderLinks": [
      {
        "id": "136a9fcd-c03c-426a-bec0-132af9b0556d",
        "platform": "官網",
        "url": "http://www.walkerland.com.tw/article/view/242775?page=full"
      }
    ],
    "rating": 3.7
  },
  {
    "id": "ChIJB_laq303aDQRwsuQfrQPOFg",
    "name": "胖叔叔古早味小吃",
    "address": "300台灣新竹市東區關新二街停車場旁邊的貨櫃屋 稻妻夕立健身房對面",
    "region": "hsinchu_city",
    "latitude": 24.7861641,
    "longitude": 121.01706610000001,
    "orderLinks": [],
    "rating": 4.9
  },
  {
    "id": "ChIJT93Kg9Y3aDQRRaBMMsToIuo",
    "name": "初原麵場(新竹關新店)",
    "address": "300台灣新竹市東區光復路一段362之20號",
    "region": "hsinchu_city",
    "latitude": 24.784139999999997,
    "longitude": 121.01600400000001,
    "orderLinks": [
      {
        "id": "751fb0db-3c5a-4b1a-8dfb-eaca7a4ba75a",
        "platform": "官網",
        "url": "https://www.facebook.com/chuyuanramen020/"
      }
    ],
    "rating": 4.8
  },
  {
    "id": "ChIJPV6AyDs2aDQRlAtm1UE03ec",
    "name": "鴿子廚房",
    "address": "300台灣新竹市東區關新路33號",
    "region": "hsinchu_city",
    "latitude": 24.7851273,
    "longitude": 121.01820130000002,
    "orderLinks": [
      {
        "id": "82299664-563b-4b8b-b1d8-f92613b81928",
        "platform": "官網",
        "url": "https://www.facebook.com/%E9%B4%BF%E5%AD%90%E5%BB%9A%E6%88%BF-1243142495749871/"
      }
    ],
    "rating": 3.8
  },
  {
    "id": "ChIJ54bKzzs2aDQRc-g5HD3Iv5s",
    "name": "山外南雄九號飲食店",
    "address": "300台灣新竹市東區關新路35號",
    "region": "hsinchu_city",
    "latitude": 24.7851727,
    "longitude": 121.0183266,
    "orderLinks": [
      {
        "id": "8d37951d-47d1-449e-96f7-c9e56f6a01d3",
        "platform": "官網",
        "url": "https://www.facebook.com/sw.no9/"
      }
    ],
    "rating": 3.8
  },
  {
    "id": "ChIJJzdQdjA2aDQRENNgGZ-aiuo",
    "name": "無名麵店(魷魚麵店)",
    "address": "300台灣新竹市東區關東路9巷15號",
    "region": "hsinchu_city",
    "latitude": 24.781939,
    "longitude": 121.022181,
    "orderLinks": [
      {
        "id": "4b3e8696-5064-4d28-b753-4a81400c6231",
        "platform": "官網",
        "url": "https://reurl.cc/0zvyMk"
      }
    ],
    "rating": 4.4
  },
  {
    "id": "ChIJV2LUlv83aDQRGypi8009PJs",
    "name": "橘時咖啡 Orange time coffee 新竹關新店",
    "address": "300台灣新竹市東區關新路45號",
    "region": "hsinchu_city",
    "latitude": 24.7854171,
    "longitude": 121.01840109999999,
    "orderLinks": [
      {
        "id": "110ff1ea-d744-449a-b4a5-f4342f8170c4",
        "platform": "官網",
        "url": "https://www.orangetimecoffee.com/"
      }
    ],
    "rating": 4.4
  },
  {
    "id": "ChIJLxoM5m43aDQRMELUNuS4mfk",
    "name": "預見關新 Prophecy Cafe",
    "address": "300台灣新竹市東區光復路一段360之20號",
    "region": "hsinchu_city",
    "latitude": 24.7838618,
    "longitude": 121.01663359999999,
    "orderLinks": [],
    "rating": 4.9
  },
  {
    "id": "ChIJqQGZnTk2aDQRnJGiUAT3LsU",
    "name": "Louisa Coffee 路易莎咖啡(新竹關新店)",
    "address": "300台灣新竹市東區關新路158號",
    "region": "hsinchu_city",
    "latitude": 24.786846,
    "longitude": 121.019425,
    "orderLinks": [
      {
        "id": "1ac3f3cd-5d1b-4f06-8290-3fb67844c2bf",
        "platform": "官網",
        "url": "https://www.facebook.com/Louisa-Coffee-%E8%B7%AF%E6%98%93%E8%8E%8E%E5%92%96%E5%95%A1-%E9%97%9C%E6%96%B0%E7%9B%B4%E7%87%9F%E5%BA%97-198489200653569/"
      }
    ],
    "rating": 3.6
  },
  {
    "id": "ChIJh-W3aQA3aDQReqbl0trXRWI",
    "name": "風淾咖啡Funinncoffee（竹科店）",
    "address": "300台灣新竹市東區關新路27號1樓",
    "region": "hsinchu_city",
    "latitude": 24.7847987,
    "longitude": 121.01800490000001,
    "orderLinks": [],
    "rating": null
  },
  {
    "id": "ChIJy9ilBmE3aDQR5xvh_r1l4KY",
    "name": "OKLAO歐客佬精品咖啡 (關新店)",
    "address": "300台灣新竹市東區關新西街65號1樓",
    "region": "hsinchu_city",
    "latitude": 24.7879446,
    "longitude": 121.0190636,
    "orderLinks": [
      {
        "id": "bf183882-16f1-4ab7-a200-79b92a475bcc",
        "platform": "官網",
        "url": "https://www.oklaocoffee.com/"
      }
    ],
    "rating": 4.7
  },
  {
    "id": "ChIJSXOdRqU3aDQRFRzgd6BCuJ4",
    "name": "風起咖啡xC.Wind餐館｜精品咖啡｜手沖咖啡｜甜點｜輕食（暫時停止供餐）",
    "address": "300台灣新竹市東區關東路141號",
    "region": "hsinchu_city",
    "latitude": 24.787440200000002,
    "longitude": 121.02055569999999,
    "orderLinks": [
      {
        "id": "dcdf6ff5-3da1-4681-b18c-e25d64b61b8a",
        "platform": "官網",
        "url": "https://www.facebook.com/twr.coffee/"
      }
    ],
    "rating": 4.7
  },
  {
    "id": "ChIJWWsTzMY3aDQRBl48ptDWylQ",
    "name": "融Ola's休憩時光",
    "address": "300台灣新竹市東區關新路27號",
    "region": "hsinchu_city",
    "latitude": 24.7847585,
    "longitude": 121.01798720000001,
    "orderLinks": [
      {
        "id": "cfa1e6e2-858a-4c9a-8fb9-c97a4ac9c78d",
        "platform": "官網",
        "url": "https://facebook.com/JungOla2020/"
      }
    ],
    "rating": 4.9
  },
  {
    "id": "ChIJD53ao983aDQRmPzDwk3AC1s",
    "name": "Petrichor語續咖啡(3/5休息）",
    "address": "300台灣新竹市東區新莊街180巷22號",
    "region": "hsinchu_city",
    "latitude": 24.786693,
    "longitude": 121.017714,
    "orderLinks": [
      {
        "id": "8a86b63d-8450-4ad0-9a30-2c778cc8e964",
        "platform": "官網",
        "url": "https://www.facebook.com/PetrichorCafe.Hsinchu"
      }
    ],
    "rating": 4.8
  },
  {
    "id": "ChIJY6oqI1U3aDQRvHMMeIJZSoY",
    "name": "GC法式烘焙 新竹關新概念店 Gontran Cherrier Bakery HsinChu",
    "address": "300台灣新竹市東區關新路195號",
    "region": "hsinchu_city",
    "latitude": 24.787628299999998,
    "longitude": 121.01964480000001,
    "orderLinks": [
      {
        "id": "e59b2c95-00f3-4b2d-bb29-5acfc1bd547e",
        "platform": "官網",
        "url": "https://gontran-cherrier.oddle.me/zh_TW"
      }
    ],
    "rating": 3.9
  },
  {
    "id": "ChIJCzGL4oA3aDQRrIH82PEZ834",
    "name": "咖啡候機室 新竹光復店",
    "address": "300台灣新竹市東區光復路一段360-8號1樓",
    "region": "hsinchu_city",
    "latitude": 24.783589799999998,
    "longitude": 121.0173716,
    "orderLinks": [
      {
        "id": "984cb627-97e3-4ea3-9245-83804388c007",
        "platform": "官網",
        "url": "https://thedeparturelounge.hsihung.com.tw/"
      }
    ],
    "rating": 4.8
  },
  {
    "id": "ChIJTZffO4s3aDQRLAT5PkLEO3Y",
    "name": "黑 傑 克 手感烘焙-新竹關新門市",
    "address": "300台灣新竹市東區關新路170號",
    "region": "hsinchu_city",
    "latitude": 24.7871572,
    "longitude": 121.0197311,
    "orderLinks": [
      {
        "id": "ccf86113-8ed0-41c7-8af4-c98af901f4b2",
        "platform": "官網",
        "url": "https://www.blackjack.com.tw/"
      }
    ],
    "rating": 4.5
  },
  {
    "id": "ChIJsS9qzjs2aDQRK4N8raX6a6I",
    "name": "星巴克 新竹日光門市",
    "address": "300台灣新竹市東區關新路38號",
    "region": "hsinchu_city",
    "latitude": 24.7852778,
    "longitude": 121.0188889,
    "orderLinks": [
      {
        "id": "fee69793-2bf7-481a-a559-39f7aeb203fb",
        "platform": "官網",
        "url": "http://www.starbucks.com.tw/"
      }
    ],
    "rating": 4.1
  },
  {
    "id": "ChIJs6RRBFc3aDQRE7fmEGXFyKo",
    "name": "Aposo 艾波索 法式甜點 新竹關新店",
    "address": "300台灣新竹市東區關新北路12號",
    "region": "hsinchu_city",
    "latitude": 24.786716,
    "longitude": 121.01832499999999,
    "orderLinks": [
      {
        "id": "3325bef1-ba5c-435e-83b6-3f3aa56fc90c",
        "platform": "官網",
        "url": "https://www.aposo2035.com.tw/"
      }
    ],
    "rating": 4.8
  },
  {
    "id": "ChIJo_8bUjg2aDQR0sUi5SX21rI",
    "name": "Jess 161 beer cafe",
    "address": "300台灣新竹市東區關新西街200號",
    "region": "hsinchu_city",
    "latitude": 24.788977,
    "longitude": 121.0199564,
    "orderLinks": [
      {
        "id": "3a83f2e2-2b32-447a-ab8d-f378432fd5a6",
        "platform": "官網",
        "url": "https://www.facebook.com/pages/Jess-161/194423213939338"
      }
    ],
    "rating": 4.4
  },
  {
    "id": "ChIJf0_Wj4Q3aDQRYvUkEW-64I0",
    "name": "CAMA CAFE 新竹關新店",
    "address": "300台灣新竹市東區光復路一段362之19號",
    "region": "hsinchu_city",
    "latitude": 24.784139999999997,
    "longitude": 121.01600400000001,
    "orderLinks": [
      {
        "id": "ec290dc2-bf67-4b0d-94e8-968590d74d35",
        "platform": "官網",
        "url": "https://www.camacafe.com/"
      }
    ],
    "rating": 4.5
  },
  {
    "id": "ChIJ8YYpIgA3aDQRqT3kSIK8Cd8",
    "name": "里歐歐式早餐-新竹關東店",
    "address": "300台灣新竹市東區關東路127號",
    "region": "hsinchu_city",
    "latitude": 24.786925099999998,
    "longitude": 121.0208138,
    "orderLinks": [
      {
        "id": "53daa651-ee63-4c64-b6f6-7f322a947290",
        "platform": "官網",
        "url": "https://store.dudooeat.com/order/store/b03b0f3bbfd8485b9ee0c681d8315ca4"
      }
    ],
    "rating": 4
  },
  {
    "id": "ChIJlfvVeDk2aDQRiMk_mfj4z6k",
    "name": "樂子the Diner 新竹店（新竹市必吃特色早午餐 / 新竹蔬食美式料理餐廳 / 新竹好吃聚餐餐廳推薦／新竹寵物親子友善）",
    "address": "30072台灣新竹市東區關新路73號",
    "region": "hsinchu_city",
    "latitude": 24.7864912,
    "longitude": 121.0188362,
    "orderLinks": [
      {
        "id": "7d5f6f6a-b7ca-4b36-881a-51ff81a7c6af",
        "platform": "官網",
        "url": "http://www.thediner.com.tw/"
      }
    ],
    "rating": 4.1
  },
  {
    "id": "ChIJidOPXT82aDQRrsAFgYPvUE4",
    "name": "日出而作 朝食",
    "address": "300台灣新竹市東區埔頂一路143號",
    "region": "hsinchu_city",
    "latitude": 24.791923099999998,
    "longitude": 121.01525810000001,
    "orderLinks": [
      {
        "id": "feda0e2e-1ad1-43b0-b5ca-19b74c1ae053",
        "platform": "官網",
        "url": "https://m.facebook.com/jvbon2017.11.1/?ref=bookmarks"
      }
    ],
    "rating": 3.9
  },
  {
    "id": "ChIJWaXShTo2aDQR2fY8ni2idDc",
    "name": "關東橋小籠包",
    "address": "300台灣新竹市東區關東路23巷17號",
    "region": "hsinchu_city",
    "latitude": 24.782631700000003,
    "longitude": 121.0214246,
    "orderLinks": [],
    "rating": 4.2
  },
  {
    "id": "ChIJS_2Rizg2aDQRRzdegq8eWZQ",
    "name": "NO.201 早餐",
    "address": "300台灣新竹市東區關東路201號",
    "region": "hsinchu_city",
    "latitude": 24.7904539,
    "longitude": 121.0188136,
    "orderLinks": [
      {
        "id": "3da2111d-cac1-4b54-8c21-8d65a55714ea",
        "platform": "官網",
        "url": "https://www.facebook.com/NO201-1624832787624963/"
      }
    ],
    "rating": 4.2
  },
  {
    "id": "ChIJ7Vq4p_k3aDQRU3RBZZQftxA",
    "name": "米咕家日式飯糰《新竹光復直營店》/新竹科學園區下午茶外送/新竹早午餐美食/午餐/早餐推薦/竹北早餐/takeout",
    "address": "300台灣新竹市東區光復路一段362-1號",
    "region": "hsinchu_city",
    "latitude": 24.783918,
    "longitude": 121.01650449999998,
    "orderLinks": [
      {
        "id": "4f347b9f-8281-4c0b-b99c-3240422303da",
        "platform": "官網",
        "url": "https://lin.ee/o3yN31O"
      }
    ],
    "rating": 4.4
  },
  {
    "id": "ChIJZfky7iA3aDQRlY4uZf0Bn9E",
    "name": "好食 早餐店 粉漿蛋餅 抓餅",
    "address": "300台灣新竹市東區關東路27號",
    "region": "hsinchu_city",
    "latitude": 24.782716699999998,
    "longitude": 121.02265670000001,
    "orderLinks": [
      {
        "id": "11c81eb8-cb9d-4d74-9e5c-2accd91ed2f8",
        "platform": "官網",
        "url": "https://lin.ee/MU65tYl"
      }
    ],
    "rating": 4.4
  },
  {
    "id": "ChIJ-6SH1a83aDQRFH5ucvRjmhk",
    "name": "歐浮找餐 - 新竹竹科店",
    "address": "300台灣新竹市東區新莊街42號1樓",
    "region": "hsinchu_city",
    "latitude": 24.785013100000004,
    "longitude": 121.01588299999999,
    "orderLinks": [
      {
        "id": "45fc75fa-7ee3-40ec-a33b-3859dc862150",
        "platform": "官網",
        "url": "https://www.facebook.com/oopsfoody42"
      }
    ],
    "rating": 4.6
  },
  {
    "id": "ChIJTQCVXzg2aDQRSiG1ymSzauc",
    "name": "美味霖早午餐",
    "address": "300台灣新竹市東區關東路191號",
    "region": "hsinchu_city",
    "latitude": 24.7900586,
    "longitude": 121.0193176,
    "orderLinks": [],
    "rating": 4.3
  },
  {
    "id": "ChIJPe7cdjA2aDQRpcKdpjHHHuE",
    "name": "興吐司",
    "address": "300台灣新竹市東區關東路9巷7號",
    "region": "hsinchu_city",
    "latitude": 24.7820274,
    "longitude": 121.02242779999999,
    "orderLinks": [
      {
        "id": "3967af81-1537-4cad-828e-3621f287244b",
        "platform": "官網",
        "url": "https://www.facebook.com/HsingToast/"
      }
    ],
    "rating": 3.5
  },
  {
    "id": "ChIJcRlsvSY3aDQR3FfhrigzudQ",
    "name": "高家北方大陸餅",
    "address": "300台灣新竹市東區關東路52號",
    "region": "hsinchu_city",
    "latitude": 24.783059599999998,
    "longitude": 121.0228559,
    "orderLinks": [],
    "rating": 4.2
  },
  {
    "id": "ChIJ_x82i1M3aDQRT1nJbUYtj24",
    "name": "小媽咪早餐坊(關東店)",
    "address": "300台灣新竹市東區關東路96號1樓",
    "region": "hsinchu_city",
    "latitude": 24.783970099999998,
    "longitude": 121.0224462,
    "orderLinks": [
      {
        "id": "2b35e799-f246-433e-a167-3af4736cba7a",
        "platform": "官網",
        "url": "https://www.facebook.com/profile.php?id=100075647001469"
      }
    ],
    "rating": 4
  },
  {
    "id": "ChIJQzj9LwA3aDQRVAQOMitLVCs",
    "name": "眾議漢堡 關新店",
    "address": "300台灣新竹市東區關新東路163號",
    "region": "hsinchu_city",
    "latitude": 24.783764299999998,
    "longitude": 121.01931060000001,
    "orderLinks": [
      {
        "id": "db3a4e4c-6bb3-41f9-bc23-2a05f44d051c",
        "platform": "官網",
        "url": "https://lin.ee/5FzVcAP"
      }
    ],
    "rating": 4.5
  },
  {
    "id": "ChIJbXodmRw3aDQRqyyasXYVv6g",
    "name": "食麥smile 早午餐",
    "address": "300台灣新竹市東區光復路一段531巷70-6號",
    "region": "hsinchu_city",
    "latitude": 24.7832959,
    "longitude": 121.01223929999999,
    "orderLinks": [],
    "rating": 4.6
  },
  {
    "id": "ChIJf2j-ElA3aDQRGZiAYcB13Sk",
    "name": "漢堡大師竹科店",
    "address": "300台灣新竹市東區光復路一段308號",
    "region": "hsinchu_city",
    "latitude": 24.782785,
    "longitude": 121.019342,
    "orderLinks": [],
    "rating": 4
  },
  {
    "id": "ChIJK-aRmnw3aDQRpX_zOWiqsrI",
    "name": "佬法室早午餐 Old Brunch新竹店",
    "address": "300台灣新竹市東區科學園路84號",
    "region": "hsinchu_city",
    "latitude": 24.7847743,
    "longitude": 121.01058350000001,
    "orderLinks": [
      {
        "id": "e808fff1-60d7-42aa-bcbf-a71b3ddd8e1e",
        "platform": "官網",
        "url": "http://www.facebook.com/Elvis.Diner.Table10"
      }
    ],
    "rating": 4.6
  },
  {
    "id": "ChIJz6wK8zo2aDQR_SKPD4SRW38",
    "name": "小木偶-找餐店",
    "address": "300台灣新竹市東區光復路一段268巷7號",
    "region": "hsinchu_city",
    "latitude": 24.782791099999997,
    "longitude": 121.020501,
    "orderLinks": [],
    "rating": 4.4
  },
  {
    "id": "ChIJzYN1mTM3aDQRtj0WyLlMQVI",
    "name": "一手私藏世界紅茶 新竹關新店",
    "address": "300台灣新竹市東區新莊街162號",
    "region": "hsinchu_city",
    "latitude": 24.7868028,
    "longitude": 121.01695989999999,
    "orderLinks": [
      {
        "id": "29e1d93d-6e81-41f4-a42b-066988c2cc02",
        "platform": "官網",
        "url": "https://order.nidin.shop/ustore/24073"
      }
    ],
    "rating": 4.1
  },
  {
    "id": "ChIJ-8ISIgk3aDQRuq3yYTeWNmw",
    "name": "CoCo都可 新竹關新店",
    "address": "300台灣新竹市東區關新二街90號",
    "region": "hsinchu_city",
    "latitude": 24.785746399999997,
    "longitude": 121.0183225,
    "orderLinks": [
      {
        "id": "6d6b37d5-d889-4655-9401-52f27260b763",
        "platform": "官網",
        "url": "https://order.nidin.shop/menu/3307"
      }
    ],
    "rating": 4.7
  },
  {
    "id": "ChIJy64l9AE3aDQRPvuXcb_qOl8",
    "name": "迷客夏Milksha 新竹關新店",
    "address": "300052台灣新竹市東區關新二街51號",
    "region": "hsinchu_city",
    "latitude": 24.785199199999997,
    "longitude": 121.0190365,
    "orderLinks": [
      {
        "id": "944d2152-e2e9-4ede-a5c5-6b27842f16de",
        "platform": "官網",
        "url": "https://www.milkshoptea.com/"
      }
    ],
    "rating": 3.8
  },
  {
    "id": "ChIJd_DP_KQ3aDQRyTy8Ytoodb8",
    "name": "MOREiN 沫飲 新竹關埔店",
    "address": "300台灣新竹市東區埔頂一路176號",
    "region": "hsinchu_city",
    "latitude": 24.7914812,
    "longitude": 121.0155458,
    "orderLinks": [
      {
        "id": "72a17251-274c-4779-a161-93ee1e8d15b6",
        "platform": "官網",
        "url": "https://m.facebook.com/moreintea/"
      }
    ],
    "rating": 4.4
  },
  {
    "id": "ChIJKYnQwdM3aDQRj6L4oRaTjl8",
    "name": "思茶手作飲品 新竹新莊店",
    "address": "300台灣新竹市東區新莊街139號",
    "region": "hsinchu_city",
    "latitude": 24.7875436,
    "longitude": 121.01722769999999,
    "orderLinks": [
      {
        "id": "888ae5bd-2a7d-45d5-b228-b97b78518eba",
        "platform": "官網",
        "url": "https://pse.is/3sd4uc"
      }
    ],
    "rating": 4.3
  },
  {
    "id": "ChIJl7Xz89w3aDQRm2CM1HgmpqU",
    "name": "原一茶宴",
    "address": "300台灣新竹市東區新莊街277號",
    "region": "hsinchu_city",
    "latitude": 24.790283,
    "longitude": 121.018665,
    "orderLinks": [
      {
        "id": "81a8ea4d-5005-4cc5-80a3-f51c21d3b8e0",
        "platform": "官網",
        "url": "https://www.facebook.com/share/1DvGTQhCkv/"
      }
    ],
    "rating": 4.8
  },